company_name,address_line_1,address_line_2,city,state_alpha,postal_code,country_code,latitude,longitude,when_verified
Arbys,1551 Gulf Shores Pkwy,,GULF SHORES,AL,36542-3437,US,30.26664543,-87.68906403,2022-12-16 15:27:48
Arbys,51 North Greeno Rd,,FAIRHOPE,AL,36532,US,30.52438927,-87.88677216,2022-12-16 15:27:48
Arbys,12411 Creel Rd,,GRAND BAY,AL,36541,US,30.49731064,-88.33662415,2022-12-16 15:27:43
Arbys,22111 Highway 59,,ROBERTSDALE,AL,36567-6619,US,30.54717445,-87.70875549,2022-12-16 15:27:48
Arbys,5466 Inn Rd,,MOBILE,AL,36619-1953,US,30.5847435,-88.17102051,2022-12-16 15:27:49
Arbys,6775 Us Highway 90,,DAPHNE,AL,36526-9588,US,30.65550423,-87.90644073,2022-12-16 15:27:48
Arbys,3739 Airport Blvd,,MOBILE,AL,36608-1617,US,30.67555046,-88.1378479,2022-12-16 15:27:48
Arbys,126 Flying K Rd,,LOXLEY,AL,36551-2601,US,30.65437698,-87.75943756,2022-12-16 15:27:48
Arbys,9001 W Highway 98,,PENSACOLA,FL,32506-6035,US,30.40266991,-87.33531189,2022-12-16 15:27:48
Arbys,7750 Airport Blvd,,MOBILE,AL,36608-5025,US,30.68417358,-88.22419739,2022-12-16 15:27:49
Arbys,5500 Mobile Hwy,,PENSACOLA,FL,32526-2106,US,30.45709419,-87.29808044,2022-12-16 15:27:48
Arbys,3341 North Schillinger Rd.,,SEMMES,AL,36575,US,30.76078606,-88.22596741,2022-12-16 15:27:48
Arbys,18 E Nine Mile Rd,,PENSACOLA,FL,32534-3133,US,30.53371811,-87.27199554,2022-12-16 15:27:48
Arbys,1202 Bienville Blvd,,OCEAN SPRINGS,MS,39564-2912,US,30.41577148,-88.82371521,2022-11-20 17:05:08
Arbys,1494 Highway 29 S.,,CANTONMENT,FL,32533,US,30.58174324,-87.29759216,2022-12-16 15:27:48
Arbys,8096 N Davis Hwy,,PENSACOLA,FL,32514,US,30.50959969,-87.22050476,2022-12-16 15:27:48
Arbys,6109 Us 43 S,,SATSUMA,AL,36572,US,30.87288475,-88.04651642,2022-12-16 15:27:48
Arbys,3332 Gulf Breeze Pkwy,,GULF BREEZE,FL,32561,US,30.38764381,-87.08472443,2022-12-16 15:27:48
Arbys,506 Larcher Blvd. Bldg 2306,KEESLER AFB,BILOXI,MS,39534,US,30.4065609,-88.9088974,2022-12-16 15:27:43
Arbys,620 McMeans Ave,,BAY MINETTE,AL,36507-3333,US,30.88448334,-87.78728485,2022-12-16 15:27:48
Arbys,14035 Airport Rd,,GULFPORT,MS,39503,US,30.40778542,-89.0712204,2022-12-16 15:27:43
Arbys,6674 Caroline St,,MILTON,FL,32570,US,30.62221336,-87.04468536,2022-12-16 15:27:48
Arbys,9326 Hwy 49 N,,GULFPORT,MS,39503,US,30.42188454,-89.09181976,2022-12-16 15:27:43
Arbys,1411 S Main St,,ATMORE,AL,36502-2832,US,31.00581551,-87.49333954,2022-12-16 15:27:48
Arbys,1400 Hwy 98 W,,MARY ESTHER,FL,32569,US,30.41204643,-86.71658325,2022-12-16 15:27:48
Arbys,342 Us 90,,Waveland,MS,39576,US,30.30687141,-89.37734222,2022-12-16 15:27:43
Arbys,236 Eglin Pkwy NE,,FORT WALTON BEACH,FL,32547-2878,US,30.43040657,-86.60596466,2022-12-16 15:27:48
Arbys,300 South Blvd,,BREWTON,AL,36426,US,31.10105705,-87.07823181,2022-12-16 15:27:48
Arbys,3900 S Ferdon Blvd,,CRESTVIEW,FL,32536-5217,US,30.72070122,-86.56983948,2022-12-16 15:27:48
Arbys,1648 Gause Blvd.,,Slidell,LA,70458,US,30.28514671,-89.75291443,2022-12-16 15:27:43
Arbys,720 Hwy 26 East,,POPLARVILLE,MS,39470,US,30.84641266,-89.49754333,2022-12-16 15:27:43
Arbys,1101 Highway 84,,EVERGREEN,AL,36401,US,31.41978455,-87.00785065,2022-12-16 15:27:48
Arbys,1176 Freeport Hwy S,,DE FUNIAK SPRINGS,FL,32435-8730,US,30.70549393,-86.12308502,2022-12-16 15:27:50
Arbys,6525 U S Highway 49,,HATTIESBURG,MS,39401-3006,US,31.34882164,-89.33760834,2022-12-16 15:27:54
Arbys,6178 Highway 98,,HATTIESBURG,MS,39402-8530,US,31.31987381,-89.3887558,2022-12-16 15:27:54
Arbys,2301 Manhattan Blvd,,Harvey,LA,70058,US,29.88053894,-90.05104828,2022-12-16 15:27:53
Arbys,4095 Hwy 59,,MANDEVILLE,LA,70471,US,30.40943909,-90.04077148,2022-12-16 15:27:53
Arbys,324 West Bypass,,ANDALUSIA,AL,36420,US,31.30767441,-86.49977112,2022-12-16 15:27:50
Arbys,17002 Front Beach Rd,,PANAMA CITY BEACH,FL,32413,US,30.22198868,-85.88781738,2022-12-16 15:27:50
Arbys,2500 North Hwy 190,,COVINGTON,LA,70433,US,30.46883583,-90.08502197,2022-12-16 15:27:53
Arbys,3847 Veterans Memorial Blvd,,METAIRIE,LA,70002-5607,US,30.00485039,-90.17100525,2022-12-16 15:27:53
Arbys,1000 W. Esplanade Ave,,Kenner,LA,70065,US,30.02222061,-90.25320435,2022-12-16 15:27:53
Arbys,2138 Hwy 15 N,,LAUREL,MS,39440,US,31.71754646,-89.14948273,2022-12-16 15:27:54
Arbys,1877 N Cove Blvd,,PANAMA CITY,FL,32405-5433,US,30.1814003,-85.65092468,2022-12-16 15:27:50
Arbys,141 Tyndall Pkwy,,CALLAWAY,FL,32404,US,30.14358902,-85.59065247,2022-12-16 15:27:53
Arbys,2111 Sw Railroad Ave,,HAMMOND,LA,70403-1443,US,30.47770882,-90.45664215,2022-12-16 15:27:49
Arbys,909 Fort Dale Rd,,GREENVILLE,AL,36037-3612,US,31.84680557,-86.64019012,2022-12-16 15:27:45
Arbys,1600 Main Street,,CHIPLEY,FL,32428,US,30.75461578,-85.55049133,2022-12-16 15:27:43
Arbys,707 Boll Weevil Circle,,ENTERPRISE,AL,36330-2036,US,31.33413696,-85.85782623,2022-12-16 15:27:43
Arbys,1400 N Frontage Rd,,MERIDIAN,MS,39301-6151,US,32.35738373,-88.6860199,2022-11-25 02:31:16
Arbys,1769 Martin Luther King Blvd,,HOUMA,LA,70360,US,29.61464691,-90.757164,2022-12-16 15:27:53
Arbys,113 Will Garrett Road,,TOOMSUBA,MS,39364,US,32.41108704,-88.50577545,2022-12-16 15:27:52
Arbys,2001 Smithdale Rd,,MCCOMB,MS,39648,US,31.25912666,-90.4806366,2022-11-20 08:00:25
Arbys,3771 South Us Hwy 231,,OZARK,AL,36360,US,31.48436546,-85.68457794,2022-12-16 15:27:43
Arbys,1213 Hwy 231 S,,TROY,AL,36081-3042,US,31.47052383,-85.67745972,2022-12-16 15:27:43
Arbys,4037 West Main St,,DOTHAN,AL,36303,US,31.23339272,-85.45250702,2022-12-16 15:27:43
Arbys,3430 S Oates St,,DOTHAN,AL,36301-5651,US,31.17679405,-85.40262604,2022-12-16 15:27:43
Arbys,2209 Hwy 71,,MARIANNA,FL,32448,US,30.72554779,-85.18632507,2022-12-16 15:27:52
Arbys,124 Hospitality Ln,,DOTHAN,AL,36303,US,31.2686615,-85.44495392,2022-12-16 15:27:43
Arbys,8130 Rushing Rd,,DENHAM SPRINGS,LA,70726,US,30.45693588,-90.95388031,2022-12-16 15:27:49
Arbys,3120 S. Sherwood Forest,,Baton Rouge,LA,70816,US,30.4241848,-91.05205536,2022-12-16 15:27:49
Arbys,971 W South Blvd,,MONTGOMERY,AL,36105-3038,US,32.32614517,-86.33159637,2022-12-16 15:27:45
Arbys,2719 Zelda Rd,,MONTGOMERY,AL,36106-2665,US,32.36371613,-86.26622772,2022-12-16 15:27:45
Arbys,2796 Eastern Blvd,,MONTGOMERY,AL,36117-1550,US,32.34489059,-86.22476196,2022-12-16 15:27:45
Arbys,1700 E Main St,,PRATTVILLE,AL,36066-5582,US,32.46015167,-86.42517853,2022-12-16 15:27:45
Arbys,6931 E Chase Loop,,MONTGOMERY,AL,36117-6876,US,32.3667717,-86.17536163,2022-12-16 15:27:45
Arbys,5759 Atlanta Hwy,,MONTGOMERY,AL,36117-2150,US,32.38257217,-86.20103455,2022-12-16 15:27:45
Arbys,751 Lobdell Hwy S,,PORT ALLEN,LA,70767,US,30.44552612,-91.24246216,2022-12-16 15:27:49
Arbys,237 Pearson Rd,,PEARL,MS,39288,US,32.26985931,-90.13598633,2022-12-16 15:27:48
Arbys,1260 High St,,JACKSON,MS,39202,US,32.30366135,-90.17025757,2022-12-16 15:27:48
Arbys,3865 Highway 80 W,,JACKSON,MS,39209-7507,US,32.28703308,-90.21356964,2022-11-20 07:41:06
Arbys,804 Lake Harbour Drive,,RIDGELAND,MS,39157,US,32.41451645,-90.10538483,2022-12-16 15:27:48
Arbys,300 Arby Dr,"Nec I-65, Exit 208 At Cr28",CLANTON,AL,35045,US,32.84484863,-86.59155273,2022-12-16 15:27:45
Arbys,815 South Eufaula Ave,,EUFAULA,AL,36027,US,31.88230515,-85.14538574,2022-12-16 15:27:43
Arbys,1545 W Peace St,,CANTON,MS,39046,US,32.60436249,-90.07273865,2022-12-16 15:27:48
Arbys,5032 Oscar Baxter Dr,,TUSCALOOSA,AL,35405-3661,US,33.16539764,-87.5510788,2022-12-16 15:27:47
Arbys,3430 Buttermilk Rd,,COTTONDALE,AL,35453,US,33.17650223,-87.44810486,2022-12-16 15:27:47
Arbys,2240 McFarland Blvd E,,TUSCALOOSA,AL,35404-5803,US,33.18984985,-87.52696991,2022-12-16 15:27:47
Arbys,211 University Blvd E,,TUSCALOOSA,AL,35401-2017,US,33.20706177,-87.53423309,2022-12-16 15:27:47
Arbys,2258 N Monroe St,,TALLAHASSEE,FL,32303,US,30.47023773,-84.28936768,2022-12-16 15:27:50
Arbys,1734 McFarland Blvd,,NORTHPORT,AL,35476-3280,US,33.23886108,-87.57505035,2022-12-16 15:27:47
Arbys,700 Ceres Blvd.,,Vicksburg,MS,39183,US,32.36305618,-90.6681366,2022-12-16 15:27:48
Arbys,1711 S College St,,AUBURN,AL,36830,US,32.57182693,-85.49921417,2022-12-16 15:27:49
Arbys,105 South Colonial Dr,,ALABASTER,AL,35007,US,33.22696304,-86.80338287,2022-12-16 15:27:47
Arbys,652 First St N,,ALABASTER,AL,35007-8769,US,33.25098801,-86.81434631,2022-12-16 15:27:47
Arbys,2593 Hwy 280,,ALEXANDER CITY,AL,35010-3678,US,32.93940735,-85.97722626,2022-12-16 15:27:45
Arbys,2112 Rees St,,BREAUX BRIDGE,LA,70517,US,30.29398155,-91.91454315,2022-12-16 15:27:49
Arbys,2411 Gateway Dr,,OPELIKA,AL,36801-6890,US,32.62173462,-85.40380096,2022-12-16 15:27:51
Arbys,3990 Methodist Cir,,BESSEMER,AL,35022-5606,US,33.33761215,-86.91696167,2022-12-16 15:27:47
Arbys,571 Cahaba Valley Rd,,PELHAM,AL,35124-1371,US,33.33490753,-86.78518677,2022-12-16 15:27:47
Arbys,1049 Amber Drive,,Hoover,AL,35244,US,33.35461426,-86.84773254,2022-12-16 15:27:47
Arbys,811 W Fort Williams St,,SYLACAUGA,AL,35150-2457,US,33.16698074,-86.26319885,2022-12-16 15:27:47
Arbys,110 Parkway East Dr,,HOOVER,AL,35244-2912,US,33.35253906,-86.78305817,2022-12-16 15:27:47
Arbys,Merchant Street & Oark Street,,FT. BENNING,GA,31905,US,32.35941315,-84.97425842,2022-12-16 15:27:51
Arbys,3775 Lorna Rd,,HOOVER,AL,35216-6205,US,33.37976074,-86.79864502,2022-12-16 15:27:47
Arbys,1911 Hwy 45 N,,COLUMBUS,MS,39701,US,33.51865387,-88.4355011,2022-12-05 05:53:32
Arbys,3333 Ambassador Caffery Pkwy,,LAFAYETTE,LA,70503,US,30.17989159,-92.0743866,2022-11-19 20:23:00
Arbys,1127 280 Bypass,,PHENIX CITY,AL,36867-5447,US,32.46879578,-85.02952576,2022-12-16 15:27:51
Arbys,9220 Main Exchange,,FT BENNING,GA,31905,US,32.37618256,-84.92328644,2022-12-16 15:27:51
Arbys,5200 S. Jefferson St,,LAMONT,FL,32336,US,30.47187042,-83.89191437,2022-12-16 15:27:45
Arbys,2826 E Pinetree Blvd,,THOMASVILLE,GA,31792-4805,US,30.85364151,-83.95063019,2022-12-16 15:27:45
Arbys,2718 Dawson Rd,,ALBANY,GA,31707,US,31.6193161,-84.22489166,2022-12-16 15:27:45
Arbys,1105 N Slappey Blvd,,ALBANY,GA,31701,US,31.59210777,-84.17642212,2022-12-16 15:27:45
Arbys,8th Division Rd.,Bldg 4109,FT. BENNING,GA,31905,US,32.37184143,-84.85202026,2022-12-16 15:27:51
Arbys,1503 Veteran's Pkwy,,COLUMBUS,GA,31901,US,32.47465134,-84.98810577,2022-12-16 15:27:51
Arbys,505 Veterans Pkwy North,,MOULTRIE,GA,31788,US,31.19073105,-83.7634201,2022-12-16 15:27:45
Arbys,2627 Manchester Expy,,COLUMBUS,GA,31904-5206,US,32.50720215,-84.95456696,2022-12-16 15:27:51
Arbys,5401 Whittlesey Blvd.,,COLUMBUS,GA,31904,US,32.54191208,-84.94995117,2022-12-16 15:27:51
Arbys,3907 Sw State Rd 14,,MADISON,FL,32340,US,30.43357086,-83.45333099,2022-12-16 15:27:43
Arbys,3204 Se County Rd 255,,LEE,FL,32059,US,30.36124802,-83.29241943,2022-12-16 15:27:43
Arbys,3505 20th Ave,,VALLEY,AL,36854-3206,US,32.83662415,-85.17760468,2022-12-16 15:27:50
Arbys,1202 N St Augustine,,VALDOSTA,GA,31601,US,30.84186363,-83.32564545,2022-12-16 15:27:43
Arbys,2916 N Ashley St,,VALDOSTA,GA,31602,US,30.87186241,-83.29008484,2022-12-16 15:27:43
Arbys,810 2nd St W,,TIFTON,GA,31794-7941,US,31.45754242,-83.52588654,2022-12-16 15:27:45
Arbys,6901 Bellville Rd,,LAKE PARK,GA,31636,US,30.64427948,-83.18731689,2022-12-16 15:27:43
Arbys,11459 Southwest 61 Way,,JASPER,FL,32052,US,30.45204163,-82.93361664,2022-12-16 15:27:43
Arbys,2201 E 16th Ave,,CORDELE,GA,31015-5376,US,31.95948982,-83.74677277,2022-12-16 15:27:50
Arbys,3289 W Us Highway 90,,LAKE CITY,FL,32055-4734,US,30.1806488,-82.68637848,2022-12-16 15:27:43
Arbys,1322 South Madison Avenue,,DOUGLAS,GA,31533,US,31.49029732,-82.85041046,2022-12-16 15:27:50
Arbys,2383 Whitesville Road,,LA GRANGE,GA,30240,US,32.99135971,-85.02905273,2022-12-16 15:27:50
Arbys,1406 Sam Nunn Blvd.,,PERRY,GA,31069,US,32.46886444,-83.74004364,2022-12-16 15:27:50
Arbys,6760 West Newberry Road,,Gainesville,FL,32605,US,29.66007805,-82.41460419,2022-12-16 15:27:47
Arbys,115 New Franklin Rd,,LA GRANGE,GA,30240,US,33.04473495,-85.03012848,2022-12-16 15:27:50
Arbys,4253 Nw 25th Place,,Gainesville,FL,32606,US,29.67686844,-82.38779449,2022-12-16 15:27:47
Arbys,3960 Southwest Archer Road,,GAINESVILLE,FL,32608,US,29.61918831,-82.38339233,2022-12-16 15:27:47
Arbys,490 N. Suncoast Blvd.,,CRYSTAL RIVER,FL,34429,US,28.86888504,-82.58024597,2022-12-16 15:27:47
Arbys,1405 Sw 13th St,,GAINESVILLE,FL,32608,US,29.63761711,-82.33892822,2022-12-16 15:27:47
Arbys,2965 Hwy 247 C,,BYRON,GA,31008,US,32.61276627,-83.74456024,2022-12-16 15:27:50
Arbys,103 Russell Pkwy,,WARNER ROBINS,GA,31088-6164,US,32.59344101,-83.6231842,2022-12-16 15:27:50
Arbys,2061 Watson Blvd,,WARNER ROBINS,GA,31093-3601,US,32.61797714,-83.65261078,2022-12-16 15:27:50
Arbys,433 South Temple Ave.,,STARKE,FL,32091,US,29.94185066,-82.11180878,2022-12-16 15:27:45
Arbys,4032 W Highway 326,,OCALA,FL,34482-7612,US,29.26561737,-82.1891861,2022-12-16 15:27:47
Arbys,1135 Commercial Way,,Spring Hill,FL,34606,US,28.44902229,-82.63330078,2022-12-16 15:27:43
Arbys,2469 Memorial Dr,,WAYCROSS,GA,31503-6337,US,31.19551659,-82.32049561,2022-12-16 15:27:50
Arbys,2811 Sw College Rd,,OCALA,FL,34474-4425,US,29.16420364,-82.17150879,2022-12-16 15:27:47
Arbys,12915 Cortez Blvd,,BROOKSVILLE,FL,34613,US,28.53416443,-82.51609039,2022-12-16 15:27:43
Arbys,10442 U S Hwy 19,,PORT RICHEY,FL,34668,US,28.30937004,-82.69940948,2022-12-16 15:27:43
Arbys,1024 Us Highway 301 S,,JACKSONVILLE,FL,32234-3600,US,30.28549957,-81.98384857,2022-12-16 15:27:45
Arbys,8301 Little Rd,,NEW PORT RICHEY,FL,34654,US,28.27765083,-82.67523956,2022-12-16 15:27:43
Arbys,2150 N.E. 49th Court Rd,,OCALA,FL,34470,US,29.20800591,-82.0687027,2022-12-16 15:27:47
Arbys,7125 State Road 54,,NEW PORT RICHEY,FL,34653,US,28.21754265,-82.69641876,2022-12-16 15:27:43
Arbys,40972 Us Hwy 19 N,,TARPON SPRINGS,FL,34689,US,28.14421463,-82.74118042,2022-12-16 15:27:43
Arbys,30263 Us Hwy 19 N,,CLEARWATER,FL,33761,US,28.04743767,-82.73787689,2022-12-16 15:27:43
Arbys,4130 Wedgewood Ln,,THE VILLAGES,FL,32162,US,28.92790794,-82.03256226,2022-12-16 15:27:43
Arbys,896 Blanding Blvd,,ORANGE PARK,FL,32065-8922,US,30.14169502,-81.76863861,2022-12-16 15:27:45
Arbys,2615 West C-48,,BUSHNELL,FL,33513,US,28.6680069,-82.14719391,2022-12-16 15:27:43
Arbys,1920 Gulf-To-Bay Blvd,,CLEARWATER,FL,33765,US,27.96084404,-82.75767517,2022-12-16 15:27:43
Arbys,4075 Jones Branch Rd.,,JACKSONVILLE,FL,32219,US,30.37151337,-81.76411438,2022-12-16 15:27:45
Arbys,1691 Wells Rd,,ORANGE PARK,FL,32073-6208,US,30.18707466,-81.72562408,2022-12-16 15:27:45
Arbys,12260 Seminole Blvd,,LARGO,FL,33778,US,27.88430977,-82.78762054,2022-12-16 15:27:43
Arbys,105 River Square Plz,,HUEYTOWN,AL,35023-1668,US,33.45129776,-86.98503113,2022-12-16 15:27:47
Arbys,1482 Montgomery Hwy,,BIRMINGHAM,AL,35216-3607,US,33.41564178,-86.80448151,2022-12-16 15:27:47
Arbys,5360 Highway 45A South,,WEST POINT,MS,39773,US,33.58447266,-88.65808868,2022-12-16 15:27:50
Arbys,4615 Hwy 280 S,,BIRMINGHAM,AL,35242-5029,US,33.4303627,-86.70940399,2022-12-16 15:27:47
Arbys,1915 28th Ave S,,HOMEWOOD,AL,35209-2603,US,33.4809227,-86.78871918,2022-12-16 15:27:47
Arbys,2100 7th Ave S,,BIRMINGHAM,AL,35233-3106,US,33.50685883,-86.79839325,2022-12-16 15:27:47
Arbys,996 Forestdale Blvd,,FORESTDALE,AL,35214-3843,US,33.55345535,-86.88626862,2022-12-16 15:27:47
Arbys,203 E Battle St,,TALLADEGA,AL,35160-2419,US,33.43455887,-86.10059357,2022-12-16 15:27:49
Arbys,2033 Village Dr,,LEEDS,AL,35094-1101,US,33.56877899,-86.51999664,2022-12-16 15:27:47
Arbys,9332 Parkway E,,BIRMINGHAM,AL,35215-8304,US,33.59043884,-86.69766235,2022-12-16 15:27:47
Arbys,227 Howell St,,FULTONDALE,AL,35068,US,33.60778809,-86.80582428,2022-12-16 15:27:47
Arbys,1668 Gadsden Hwy,,BIRMINGHAM,AL,35235-3104,US,33.60172272,-86.63975525,2022-12-16 15:27:47
Arbys,1621 Bass Cross Rd,,HOGANSVILLE,GA,30230,US,33.1594696,-84.87124634,2022-12-16 15:27:50
Arbys,3952 Pio Nono Ave,,MACON,GA,31206,US,32.79262543,-83.66781616,2022-12-16 15:27:50
Arbys,4500 Forsyth Rd,,MACON,GA,31210-4528,US,32.87046814,-83.70285034,2022-12-16 15:27:46
Arbys,975 Gray Hwy,,MACON,GA,31211-1855,US,32.85375595,-83.6181488,2022-12-16 15:27:46
Arbys,3100 Riverside Dr,,MACON,GA,31210-2516,US,32.89133835,-83.67818451,2022-12-16 15:27:46
Arbys,2144 Us Hwy 441 S,,DUBLIN,GA,31021,US,32.49248505,-82.93079376,2022-12-16 15:27:50
Arbys,2109 Veterans Blvd,,DUBLIN,GA,31021,US,32.54247284,-82.95584869,2022-12-16 15:27:50
Arbys,1612 N Expressway,,GRIFFIN,GA,30223-1273,US,33.27582932,-84.29064178,2022-12-16 15:27:50
Arbys,65 Bullsboro Dr,,NEWNAN,GA,30263-1434,US,33.38388824,-84.78397369,2022-12-16 15:27:47
Arbys,947 Bullsboro Dr,,NEWNAN,GA,30265-2131,US,33.39607239,-84.74594116,2022-12-16 15:27:47
Arbys,605 East Parker Street,,BAXLEY,GA,31513,US,31.77571487,-82.33885956,2022-12-16 15:27:50
Arbys,133 N Hwy 74,,PEACHTREE CITY,GA,30269-1404,US,33.39576721,-84.58950043,2022-12-16 15:27:47
Arbys,170 Glynn St,,FAYETTEVILLE,GA,30214-1660,US,33.45081711,-84.45558167,2022-12-16 15:27:47
Arbys,1116 Hampton Rd W,,MCDONOUGH,GA,30253-6520,US,33.42982101,-84.18016815,2022-12-16 15:27:46
Arbys,1963 Jonesboro Rd,,MCDONOUGH,GA,30253,US,33.46397018,-84.21983337,2022-12-16 15:27:46
Arbys,1322 S Park St,,CARROLLTON,GA,30117-4411,US,33.55379105,-85.07254791,2022-12-16 15:27:47
Arbys,3195 E First St,,VIDALIA,GA,30474,US,32.20422363,-82.36042786,2022-12-16 15:27:53
Arbys,8490 Tara Blvd,,JONESBORO,GA,30236-3404,US,33.52350235,-84.36268616,2022-12-16 15:27:47
Arbys,2500 N Columbia St,,MILLEDGEVILLE,GA,31061,US,33.11376953,-83.25994873,2022-12-16 15:27:46
Arbys,1460 Hudson Bridge Rd.,,STOCKBRIDGE,GA,30281,US,33.50521469,-84.23522949,2022-12-16 15:27:45
Arbys,4615 Jonesboro Rd,SHANNON MALL,UNION CITY,GA,30291-2000,US,33.56884003,-84.53870392,2022-12-16 15:27:46
Arbys,544 Fieldstown Rd,,GARDENDALE,AL,35071-2470,US,33.6517868,-86.82118988,2022-12-16 15:27:47
Arbys,2701 Hwy 78 E,,JASPER,AL,35501,US,33.84214783,-87.24398804,2022-12-16 15:27:47
Arbys,5984 Chalkville Rd,,BIRMINGHAM,AL,35235-8608,US,33.64107513,-86.62293243,2022-12-16 15:27:47
Arbys,160 Vaughn Lane,,PELL CITY,AL,35125,US,33.60977936,-86.28038025,2022-12-16 15:27:47
Arbys,606 S Gloster St,,TUPELO,MS,38801,US,34.24769211,-88.71633148,2022-12-05 11:13:10
Arbys,1840 Cherokee Ave SW,,CULLMAN,AL,35055-5546,US,34.15299988,-86.84072113,2022-12-16 15:27:45
Arbys,5890 Alabama Hwy 157,,CULLMAN,AL,35058-5910,US,34.20763779,-86.87363434,2022-12-16 15:27:45
Arbys,1005 Hwy 21,,OXFORD,AL,36203-2421,US,33.60795593,-85.82780457,2022-12-16 15:27:49
Arbys,30 Oxford Exchange,,OXFORD,AL,36203-3446,US,33.60888672,-85.78305054,2022-12-16 15:27:49
Arbys,1829 Quintard Ave,,ANNISTON,AL,36201-3852,US,33.66872406,-85.82636261,2022-12-16 15:27:49
Arbys,5626 McClellan Blvd,,ANNISTON,AL,36206-1665,US,33.72293091,-85.81636047,2022-12-16 15:27:49
Arbys,966 Gilberts Ferry Rd,,ATTALLA,AL,35954-3338,US,33.97854996,-86.0641861,2022-12-16 15:27:49
Arbys,21 Price Creek Rd,,BREMEN,GA,30110-2562,US,33.68877792,-85.15275574,2022-12-16 15:27:47
Arbys,122 Hwy 61 Connector,,VILLA RICA,GA,30180-2300,US,33.72554779,-84.93888855,2022-12-16 15:27:46
Arbys,948 Rainbow Dr,,GADSDEN,AL,35901-5310,US,33.99886703,-86.00384521,2022-12-16 15:27:49
Arbys,198 E Meighan Blvd,,GADSDEN,AL,35903-1045,US,34.01055908,-85.98843384,2022-12-16 15:27:49
Arbys,2154 Mt Zion Pkwy,,MORROW,GA,30260-3317,US,33.56245422,-84.31991577,2022-12-16 15:27:45
Arbys,6000 North Terminal Parkway,"Concourse E, F-5",ATLANTA,GA,30320,US,33.64008331,-84.43927765,2022-12-16 15:27:45
Arbys,1359 Virginia Ave,,ATLANTA,GA,30344-5225,US,33.65943527,-84.43365479,2022-12-16 15:27:45
Arbys,2755 Chapel Hill Rd,,DOUGLASVILLE,GA,30135-1795,US,33.73115921,-84.7378006,2022-12-16 15:27:46
Arbys,10175 Veterans Memorial Hwy,,AUSTELL,GA,30168-4040,US,33.79750824,-84.6419754,2022-12-16 15:27:46
Arbys,1 Cnn Center,190 MARIETTA ST.  STE #1,ATLANTA,GA,30303,US,33.75774384,-84.39486694,2022-12-16 15:27:43
Arbys,1625 Hwy 138 SE,,CONYERS,GA,30013-1280,US,33.64772034,-84.01281738,2022-12-16 15:27:43
Arbys,6225 Turner Lake Rd NW,,COVINGTON,GA,30014-2064,US,33.60410309,-83.87649536,2022-12-16 15:27:43
Arbys,1751 Howell Mill Rd NW,,ATLANTA,GA,30318-3162,US,33.80170059,-84.41494751,2022-12-16 15:27:43
Arbys,4950 S Cobb Dr,,SMYRNA,GA,30080-7148,US,33.82929611,-84.49306488,2022-12-16 15:27:43
Arbys,"106 Walmart Drive Eatonton, GA 31024",,Eatonton,GA,31024,US,33.29544067,-83.38874817,2022-12-16 15:27:46
Arbys,4895 Jimmy Lee Smith Pkwy,,HIRAM,GA,30141-2730,US,33.88960266,-84.74667358,2022-12-16 15:27:46
Arbys,2555 Piedmont Rd,Suite 100,ATLANTA,GA,30324,US,33.82561493,-84.36375427,2022-12-16 15:27:43
Arbys,2382 N Druid Hills Rd,,ATLANTA,GA,30329-3105,US,33.82745743,-84.32750702,2022-12-16 15:27:43
Arbys,4415 Roswell Rd,,ATLANTA,GA,30342-3316,US,33.87530136,-84.38030243,2022-12-16 15:27:43
Arbys,2434 Dallas Hwy SW,,MARIETTA,GA,30064-2529,US,33.94662857,-84.62275696,2022-12-16 15:27:46
Arbys,500 State Highway 15 S,,NEW ALBANY,MS,38652-4521,US,34.46778488,-89.00595856,2022-12-16 15:27:52
Arbys,709 Hwy 31,SUITE A,HARTSELLE,AL,35640,US,34.44855499,-86.94554138,2022-12-16 15:27:45
Arbys,2001 Woodward Ave,,MUSCLE SHOALS,AL,35661-2847,US,34.74272537,-87.66732025,2022-12-16 15:27:48
Arbys,2714 Spring Ave SW,,DECATUR,AL,35603-1216,US,34.55844498,-86.99962616,2022-12-16 15:27:45
Arbys,2120 6th Ave SE,,DECATUR,AL,35601-6510,US,34.57078934,-86.97279358,2022-12-16 15:27:45
Arbys,1143 N Brindlee Mountain Pkwy,,ARAB,AL,35016-1060,US,34.33605957,-86.50405884,2022-12-16 15:27:45
Arbys,1610 Florence Blvd,,FLORENCE,AL,35630-2749,US,34.82182693,-87.6506958,2022-12-16 15:27:48
Arbys,368 Cox Creek Pkwy,,FLORENCE,AL,35630-1540,US,34.84037781,-87.63585663,2022-12-16 15:27:48
Arbys,103 Home Depot Drive,,OXFORD,MS,38655,US,34.3649559,-89.5661087,2022-12-05 11:13:10
Arbys,1844 Gunter Ave,,GUNTERSVILLE,AL,35976-2110,US,34.34004974,-86.31093597,2022-12-16 15:27:45
Arbys,680 Us Hwy 431,,BOAZ,AL,35957-2181,US,34.19696426,-86.14893341,2022-12-16 15:27:49
Arbys,706 E Hwy 72,,CORINTH,MS,38834-6443,US,34.92059326,-88.51574707,2022-12-16 15:27:52
Arbys,7448 Us Hwy 431,,ALBERTVILLE,AL,35950-1129,US,34.27796936,-86.20846558,2022-12-16 15:27:45
Arbys,8817 Highway 20 W,,MADISON,AL,35758-1807,US,34.6648941,-86.78688812,2022-12-16 15:27:45
Arbys,600 W 13th St,,ATHENS,AL,35611-4212,US,34.79048157,-86.97623444,2022-12-16 15:27:45
Arbys,11212 Memorial Pkwy SW,,HUNTSVILLE,AL,35803-2124,US,34.63668442,-86.5675354,2022-12-16 15:27:45
Arbys,7785 Highway 72 W,,MADISON,AL,35758-8752,US,34.75319672,-86.74046326,2022-12-16 15:27:45
Arbys,4100 University Dr NW,,HUNTSVILLE,AL,35816-3004,US,34.73554993,-86.63098907,2022-12-16 15:27:45
Arbys,2301 Memorial Pkwy SW,,HUNTSVILLE,AL,35801-5623,US,34.71574783,-86.59086609,2022-12-16 15:27:45
Arbys,6545 Highway 431 South,,HAMPTON COVE,AL,35763,US,34.66260147,-86.48429871,2022-12-16 15:27:45
Arbys,2413 Memorial Parkway NW,,HUNTSVILLE,AL,35810-3803,US,34.75641632,-86.5944519,2022-12-16 15:27:45
Arbys,30 Shields Rd,,HUNTSVILLE,AL,35811-7800,US,34.77413559,-86.52748108,2022-12-16 15:27:45
Arbys,"14621 Us 231 North, Ste. D",Suite D,HAZEL GREEN,AL,35750,US,34.94549179,-86.57236481,2022-12-16 15:27:45
Arbys,1622 N Locust,,LAWRENCEBURG,TN,38464,US,35.26167679,-87.32344818,2022-12-16 15:27:45
Arbys,125 Greenhill Blvd NW,,FORT PAYNE,AL,35967-3701,US,34.4675827,-85.70025635,2022-12-16 15:27:46
Arbys,24751 John T Reid Pkwy,,SCOTTSBORO,AL,35768,US,34.6678772,-86.00970459,2022-12-16 15:27:45
Arbys,1301 Nathan Dean Pkwy,,ROCKMART,GA,30153,US,34.01028824,-85.03768921,2022-12-16 15:27:46
Arbys,805 Martha Berry Blvd,,ROME,GA,30165,US,34.26208496,-85.18080139,2022-12-16 15:27:43
Arbys,8765 Dallas Acworth Hwy,Suite 100,Dallas,GA,30132,US,34.01101685,-84.75550842,2022-12-16 15:27:46
Arbys,2885 Martha Berry Hwy NW,,ROME,GA,30165-8651,US,34.30553436,-85.17476654,2022-12-16 15:27:43
Arbys,1150 West Ave.,,CARTERSVILLE,GA,30120,US,34.15039062,-84.82544708,2022-12-16 15:27:43
Arbys,3319 North Cobb Parkway,,ACWORTH,GA,30101,US,34.03462982,-84.6807251,2022-12-16 15:27:46
Arbys,121 Old Allatoona Rd,LAKEPOINT SPORTS COMPLEX,EMERSON,GA,30121,US,34.12033463,-84.74333191,2022-12-16 15:27:43
Arbys,5150 Cowan Rd,,Acworth,GA,30101,US,34.07765579,-84.65229034,2022-12-16 15:27:43
Arbys,155 Cobb Parkway South,,MARIETTA,GA,30060,US,33.94861603,-84.51876068,2022-12-16 15:27:43
Arbys,2161 Roswell Rd NE,,MARIETTA,GA,30062-3814,US,33.96868134,-84.49011993,2022-12-16 15:27:43
Arbys,1090 Hammond Dr,,ATLANTA,GA,30328-5315,US,33.91934967,-84.35334015,2022-12-16 15:27:43
Arbys,5410 Peachtree Industrial Blvd,,CHAMBLEE,GA,30341-2232,US,33.89674377,-84.30425262,2022-12-16 15:27:43
Arbys,3250 Barrett Lakes,,KENNESAW,GA,30144-4978,US,34.03205872,-84.57845306,2022-12-16 15:27:43
Arbys,4367 Roswell Rd,,MARIETTA,GA,30062-6427,US,33.985569,-84.42501831,2022-12-16 15:27:43
Arbys,2626 Sandy Plains Rd NE,,MARIETTA,GA,30066-4240,US,34.01430511,-84.494133,2022-12-16 15:27:43
Arbys,4375 Wade Green Rd,,KENNESAW,GA,30144-1246,US,34.0591011,-84.59307861,2022-12-16 15:27:43
Arbys,4288 Bells Ferry Rd,,KENNESAW,GA,30144-1302,US,34.05531311,-84.55581665,2022-12-16 15:27:43
Arbys,8753 Roswell Rd,,DUNWOODY,GA,30350-1829,US,33.99569321,-84.35048676,2022-12-16 15:27:43
Arbys,100 Indian Valley Dr,,WOODSTOCK,GA,30188-3812,US,34.08557892,-84.52825928,2022-12-16 15:27:43
Arbys,1945 Indian Trail Rd,,NORCROSS,GA,30071-3602,US,33.93131256,-84.17868805,2022-12-16 15:27:43
Arbys,4086 Hwy 29,,LILBURN,GA,30047-2833,US,32.29598999,-82.54463196,2022-12-16 15:27:53
Arbys,5480 Peachtree Pkwy,,NORCROSS,GA,30092-2531,US,33.97058487,-84.22034454,2022-12-16 15:27:43
Arbys,12180 Highway 92,,WOODSTOCK,GA,30188-4481,US,34.08668518,-84.47966003,2022-12-16 15:27:43
Arbys,10601 Alpharetta Hwy,,ROSWELL,GA,30076-1426,US,34.03956604,-84.34218597,2022-12-16 15:27:43
Arbys,2697 Main St,,SNELLVILLE,GA,30078-3161,US,33.85609818,-84.02626038,2022-12-16 15:27:43
Arbys,2365 Pleasant Hill Rd,,DULUTH,GA,30096-4323,US,33.9642067,-84.14089966,2022-12-16 15:27:43
Arbys,1679 Scenic Hwy.,,SNELLVILLE,GA,30078,US,33.88279724,-84.01327515,2022-12-16 15:27:43
Arbys,5815 State Bridge Rd.,,JOHNS CREEK,GA,30097,US,34.01636505,-84.18680573,2022-12-16 15:27:43
Arbys,5655 Highway 20 NE,,CARTERSVILLE,GA,30121-5212,US,34.21051788,-84.75852966,2022-12-16 15:27:43
Arbys,4865 Sugarloaf Pkwy,,LAWRENCEVILLE,GA,30044-6998,US,33.95555115,-84.05422211,2022-12-16 15:27:43
Arbys,4151 Atlanta Hwy,,LOGANVILLE,GA,30052-7318,US,33.8433876,-83.90938568,2022-12-16 15:27:43
Arbys,5160 Windward Pkwy,,ALPHARETTA,GA,30004-3841,US,34.09395599,-84.27694702,2022-12-16 15:27:43
Arbys,126 S Clayton St,,LAWRENCEVILLE,GA,30045-5717,US,33.94950867,-83.98713684,2022-12-16 15:27:43
Arbys,3595 Peachtree Pkwy,,SUWANEE,GA,30024-1030,US,34.0729866,-84.16545868,2022-12-16 15:27:43
Arbys,1505 McFarland Parkway,,ALPHARETTA,GA,30005-2220,US,34.1113205,-84.22003937,2022-12-16 15:27:43
Arbys,1638 Huntsville Hwy,,FAYETTEVILLE,TN,37334-3610,US,35.12372589,-86.56571198,2022-12-16 15:27:45
Arbys,418 West Church Street,,Lexington,TN,38351,US,35.65633774,-88.40590668,2022-12-16 15:27:46
Arbys,967 W Poplar Avenue,,COLLIERVILLE,TN,38017,US,35.04572296,-89.69412231,2022-12-16 15:27:52
Arbys,151 North Ellington Pwky,,LEWISBURG,TN,37091,US,35.44721603,-86.77574921,2022-12-05 11:13:10
Arbys,1625 Hatcher Ln,,COLUMBIA,TN,38401-4826,US,35.60475922,-87.06581879,2022-12-16 15:27:43
Arbys,219 Parkstone Pl,,Jackson,TN,38305,US,35.67386627,-88.78025055,2022-12-16 15:27:46
Arbys,601 Old Hickory,,JACKSON,TN,38305-2966,US,35.65769196,-88.85093689,2022-12-16 15:27:46
Arbys,208 Stonebrook Pl,,JACKSON,TN,38305-3635,US,35.68164825,-88.85678864,2022-12-16 15:27:46
Arbys,6646 Goodman Road,,OLIVE BRANCH,MS,38654-7056,US,34.96293259,-89.87219238,2022-12-16 15:27:52
Arbys,7734 Winchester Rd.,,MEMPHIS,TN,38125,US,35.04998016,-89.80567169,2022-12-16 15:27:47
Arbys,1020 East Commerce St,,HERNANDO,MS,38632,US,34.82419586,-89.97159576,2022-12-16 15:27:52
Arbys,13820 Hwy 641,,Holladay,TN,38341,US,35.83943939,-88.08448792,2022-12-16 15:27:46
Arbys,2016 Germantown Parkway,,GERMANTOWN,TN,38138,US,35.1182785,-89.80058289,2022-12-16 15:27:47
Arbys,5021 Hwy 78,,MEMPHIS,TN,38118,US,35.00244904,-89.88388824,2022-12-16 15:27:47
Arbys,1623 Bear Creek Pike,,COLUMBIA,TN,38401,US,35.64402008,-86.89152527,2022-12-16 15:27:43
Arbys,15559 Hwy 13 S,,HURRICANE MILLS,TN,37078,US,35.88218689,-87.80183411,2022-12-16 15:27:50
Arbys,1860 N Germantown Pkwy,,CORDOVA,TN,38016-3304,US,35.17593002,-89.79238129,2022-12-16 15:27:47
Arbys,8018 Us Highway 64,,BARTLETT,TN,38133,US,35.20518494,-89.79550171,2022-12-16 15:27:47
Arbys,712 Desoto Cove,,HORN LAKE,MS,38637-1469,US,34.96327591,-90.00353241,2022-12-16 15:27:47
Arbys,1070 Crossing Circle,,Spring Hill,TN,37174,US,35.74265289,-86.93975067,2022-12-16 15:27:43
Arbys,103 Madison St,,SHELBYVILLE,TN,37160-3350,US,35.4895134,-86.45819855,2022-12-16 15:27:43
Arbys,932 N Jackson St,,TULLAHOMA,TN,37388-2332,US,35.37252045,-86.22051239,2022-12-16 15:27:50
Arbys,975 Union Ave,,MEMPHIS,TN,38104-3137,US,35.13757324,-90.02911377,2022-12-16 15:27:47
Arbys,8620 Us Hwy 51,,Millington,TN,38053,US,35.47071075,-89.75073242,2022-12-16 15:27:47
Arbys,2330 Hwy 46 S,,DICKSON,TN,37055-9577,US,36.02161407,-87.33971405,2022-12-16 15:27:43
Arbys,1130 Murfreesboro Rd,,FRANKLIN,TN,37064-3007,US,35.91545105,-86.83400726,2022-12-16 15:27:43
Arbys,2194 Hillsboro Blvd,,MANCHESTER,TN,37355-7308,US,35.45928574,-86.05819702,2022-12-16 15:27:48
Arbys,385 Kimball Crossing Dr,,KIMBALL,TN,37347,US,35.0412941,-85.68611908,2022-12-16 15:27:46
Arbys,1103B N Main St,,LA FAYETTE,GA,30728,US,34.72465134,-85.28018951,2022-12-16 15:27:43
Arbys,2392 Lafayette Rd,,FORT OGLETHORPE,GA,30742-3795,US,34.95463562,-85.25949097,2022-12-16 15:27:43
Arbys,6302 Ringgold Rd,,EAST RIDGE,TN,37412,US,34.98930359,-85.21124268,2022-12-16 15:27:43
Arbys,5420 Brainerd Rd,,CHATTANOOGA,TN,37411,US,35.00970078,-85.22052765,2022-12-16 15:27:43
Arbys,756 Highway 53 West SW,,CALHOUN,GA,30701-7715,US,34.47243881,-84.92069244,2022-12-16 15:27:43
Arbys,66 Poplar Springs Rd,,Ringgold,GA,30736,US,34.90661621,-85.13170624,2022-12-16 15:27:43
Arbys,244 Connector 3 SW,,DALTON,GA,30720,US,34.68728638,-85.00016022,2022-12-16 15:27:43
Arbys,1098 Red Bud Rd,,CALHOUN,GA,30701,US,34.51219559,-84.92325592,2022-12-05 05:53:32
Arbys,3903 Hixson Pike,,CHATTANOOGA,TN,37415,US,35.11376953,-85.26184082,2022-12-16 15:27:43
Arbys,2101 E Walnut Ave,,DALTON,GA,30721,US,34.76174164,-84.93551636,2022-12-16 15:27:43
Arbys,7314 Shallowford Rd,,CHATTANOOGA,TN,37421,US,35.04085159,-85.15241241,2022-12-16 15:27:43
Arbys,4766 Highway 58,,CHATTANOOGA,TN,37416-2203,US,35.08839798,-85.18758392,2022-12-16 15:27:43
Arbys,1107 North 3rd Avenue,,CHATSWORTH,GA,30705,US,34.78710175,-84.77257538,2022-12-16 15:27:43
Arbys,501 Northgate Mall,,CHATTANOOGA,TN,37415-6944,US,35.12813187,-85.24211884,2022-12-16 15:27:43
Arbys,1461 Riverstone Pkwy,,CANTON,GA,30114-5612,US,34.25246429,-84.47245026,2022-12-16 15:27:43
Arbys,365 Peachtree Pkwy,,Cumming,GA,30041,US,34.15392303,-84.17314911,2022-12-16 15:27:43
Arbys,403 Tri County Plaza,,CUMMING,GA,30040-2777,US,34.18701172,-84.14035034,2022-12-16 15:27:43
Arbys,2920 Lawrenceville-Suwanee Rd,,SUWANEE,GA,30024-3111,US,34.02721024,-84.04621124,2022-12-16 15:27:43
Arbys,56 School St,,EAST ELLIJAY,GA,30539,US,34.68421555,-84.4751358,2022-12-16 15:27:43
Arbys,4145 Hwy 20,,BUFORD,GA,30518-3439,US,34.0929985,-84.00304413,2022-12-16 15:27:43
Arbys,4041 Dawson Forest Rd E,,DAWSONVILLE,GA,30534-6804,US,34.35388565,-84.04588318,2022-12-16 15:27:43
Arbys,3475 Braselton Hwy,,DACULA,GA,30019-1029,US,34.07052612,-83.91431427,2022-12-16 15:27:43
Arbys,3652 Mundy Mill Rd,,GAINESVILLE,GA,30504-8219,US,34.22947311,-83.86811066,2022-12-16 15:27:43
Arbys,2620 Old Winder Hwy (Hwy 211),,Braselton,GA,30517,US,34.12011719,-83.82652283,2022-12-16 15:27:43
Arbys,634 Shallowford Rd,,GAINESVILLE,GA,30504-4145,US,34.28915024,-83.84262085,2022-12-16 15:27:43
Arbys,2640 S 4th Ave,,YUMA,AZ,85364,US,32.67932129,-114.62516022,2022-12-16 15:27:50
Arbys,2000 South Ave 3 E,,YUMA,AZ,85365,US,32.69116974,-114.58270264,2022-12-16 15:27:50
Arbys,21600 N. John Wayne Parkway,,MARICOPA,AZ,85239,US,33.07503128,-112.04356384,2022-12-16 15:27:38
Arbys,5000 North Sunland Gin Road,,ELOY,AZ,85131,US,32.82860565,-111.67100525,2022-12-18 06:25:19
Arbys,1220 E Florence Blvd #14,,CASA GRANDE,AZ,85122,US,32.87988663,-111.73403168,2022-12-18 06:25:19
Arbys,19220 S. I-19,FRONTAGE RD,GREEN VALLEY,AZ,85614,US,31.85419083,-110.99331665,2022-12-13 15:34:01
Arbys,1530 West Valencia Road,,TUCSON,AZ,85746,US,32.13430786,-110.99716187,2022-12-18 06:25:11
Arbys,442 N Litchfield Rd,,GOODYEAR,AZ,85338,US,33.45229721,-112.35875702,2022-12-16 15:27:38
Arbys,5640 W. Cortaro Farms Rd,,Marana,AZ,85742,US,32.36004639,-111.08565521,2022-12-18 06:25:11
Arbys,1893 W Grant Rd,,TUCSON,AZ,85745-1203,US,32.25006866,-111.00715637,2022-12-18 06:25:11
Arbys,7610 West Lower Buckeye Rd,,PHOENIX,AZ,85043,US,33.42348099,-112.22419739,2022-12-16 15:27:38
Arbys,7001 W Sundust Rd # 5022,,CHANDLER,AZ,85226-5126,US,33.27934265,-111.96240234,2022-12-16 15:27:38
Arbys,5275 S Palo Verde Rd,,TUCSON,AZ,85706,US,32.15684128,-110.91692352,2022-12-18 06:25:11
Arbys,119 E Baseline Rd,,PHOENIX,AZ,85040,US,33.37735367,-112.07086182,2022-12-16 15:27:38
Arbys,4405 N First Avenue,,Tucson,AZ,85719,US,32.28697586,-110.9616394,2022-12-18 06:25:11
Arbys,2900 S Alma School Rd,,Chandler,AZ,85248,US,33.26319504,-111.85913086,2022-12-18 06:25:21
Arbys,1392 W Elliot Rd,,TEMPE,AZ,85283,US,33.34960938,-111.96273041,2022-12-16 15:27:38
Arbys,8060 N. Oracle,,ORO VALLEY,AZ,85704,US,32.3529129,-110.97383118,2022-12-18 06:25:11
Arbys,8282 West Camelback Rd,,GLENDALE,AZ,85303,US,33.50934219,-112.23634338,2022-12-16 15:27:38
Arbys,5759 E Broadway Blvd,,TUCSON,AZ,85711,US,32.2220459,-110.86965942,2022-12-18 06:25:11
Arbys,2402 W Thomas Rd,,PHOENIX,AZ,85015,US,33.48091888,-112.11100006,2022-12-16 15:27:38
Arbys,7285 E 22nd St,,TUCSON,AZ,85710,US,32.20702362,-110.83747864,2022-12-18 06:25:11
Arbys,10115 East Old Vail Rd.,,TUCSON,AZ,85747,US,32.08946228,-110.77624512,2022-12-18 06:25:11
Arbys,2110 N Arizona Ave,,CHANDLER,AZ,85224,US,33.33744049,-111.84234619,2022-12-18 06:25:21
Arbys,525 W Broadway Rd,,TEMPE,AZ,85282,US,33.40699768,-111.94731903,2022-12-16 15:27:38
Arbys,10320 N 91st Ave,,PEORIA,AZ,85345-6496,US,33.57802963,-112.25551605,2022-12-16 15:27:38
Arbys,7920 E Speedway Blvd,,TUCSON,AZ,85710,US,32.2344017,-110.82337189,2022-12-18 06:25:11
Arbys,6850 N 35 Ave,,PHOENIX,AZ,85017,US,33.53783798,-112.134758,2022-12-16 15:27:38
Arbys,2889 S. Market St,,GILBERT,AZ,85295,US,33.29756165,-111.74620819,2022-12-18 06:25:18
Arbys,13607 W Camino Del Sol,,SUN CITY WEST,AZ,85375-4413,US,33.65410233,-112.35498047,2022-12-16 15:27:38
Arbys,3826 E Thomas Rd,,PHOENIX,AZ,85018,US,33.48074341,-111.99840546,2022-12-16 15:27:38
Arbys,1060 S Country Club Dr,,MESA,AZ,85210-4643,US,33.39562607,-111.84057617,2022-12-18 06:25:18
Arbys,17032 N 99 Ave,,SUN CITY,AZ,85373,US,33.63924026,-112.27523804,2022-12-16 15:27:38
Arbys,715 N Gilbert Rd,GILBERT TOWNE CENTRE,GILBERT,AZ,85234,US,33.36294174,-111.78919983,2022-12-18 06:25:18
Arbys,2244 Otay Lakes Rd,,CHULA VISTA,CA,91915,US,32.6468544,-116.96755981,2022-12-13 15:34:05
Arbys,16338 N Oracle Rd,,TUCSON,AZ,85739,US,32.50283432,-110.92549133,2022-12-13 15:34:01
Arbys,7350 E McDowell Rd,,SCOTTSDALE,AZ,85257,US,33.46622467,-111.92221069,2022-12-18 06:25:18
Arbys,953 North Dobson,,MESA,AZ,85201,US,33.43399429,-111.86933899,2022-12-18 06:25:18
Arbys,4906 W Thunderbird Rd,,GLENDALE,AZ,85306,US,33.61118317,-112.16455841,2022-12-16 15:27:38
Arbys,18735 North 83rd Avenue,,PEORIA,AZ,85382,US,33.65382004,-112.23703003,2022-12-16 15:27:38
Arbys,3348 W Bell Rd,,PHOENIX,AZ,85023,US,33.64009094,-112.13140106,2022-12-16 15:27:38
Arbys,325 N 2nd St,,EL CAJON,CA,92021-6445,US,32.79806519,-116.93526459,2022-12-18 06:25:14
Arbys,2130 S Power Rd,,MESA,AZ,85209,US,33.37681961,-111.68836212,2022-12-18 06:25:18
Arbys,1923 E McKellips Rd,,MESA,AZ,85203-2865,US,33.45144653,-111.78897095,2022-12-18 06:25:18
Arbys,9049 E Indian Bend Rd,,SCOTTSDALE,AZ,85250,US,33.53786469,-111.88626862,2022-12-18 06:25:18
Arbys,835 E Bell Rd,,PHOENIX,AZ,85022,US,33.63988113,-112.06172943,2022-12-16 15:27:38
Arbys,12136 Woodside Ave,,LAKESIDE,CA,92040,US,32.85654068,-116.92997742,2022-12-18 06:25:14
Arbys,12440 N Tatum Blvd,,PHOENIX,AZ,85032,US,33.6006279,-111.9801712,2022-12-18 06:25:18
Arbys,6740 E Main St,,MESA,AZ,85205,US,33.41606903,-111.68528748,2022-12-18 06:25:18
Arbys,1927 N Higley Rd,,MESA,AZ,85205,US,33.45026398,-111.71840668,2022-12-18 06:25:18
Arbys,2220 W Deer Valley Rd,,PHOENIX,AZ,85027,US,33.68421173,-112.1072998,2022-12-16 15:27:38
Arbys,17031 N Tatum Blvd,,PHOENIX,AZ,85032,US,33.64167786,-111.977005,2022-12-18 06:25:18
Arbys,2323 W Apache Trail,,APACHE JUNCTION,AZ,85120,US,33.41479492,-111.57120514,2022-12-18 06:25:18
Arbys,37770 North Vulture Mine Rd.,,WICKENBURG,AZ,85390,US,34.00284195,-112.77183533,2022-12-18 07:39:41
Arbys,1999 E Fry Blvd,,SIERRA VISTA,AZ,85635-2706,US,31.55510712,-110.27805328,2022-12-18 06:25:21
Arbys,3777 Midway Dr,,San Diego,CA,92110,US,32.75356674,-117.21794891,2022-12-18 06:25:16
Arbys,7110 Clairemont Mesa Blvd.,,SAN DIEGO,CA,92111,US,32.83298111,-117.1634903,2022-12-13 15:34:05
Arbys,46155 Dillon Rd,,COACHELLA,CA,92236,US,33.71353149,-116.17625427,2022-12-18 06:25:21
Arbys,72795 Hwy 111,Unit G1,PALM DESERT,CA,92260,US,33.7207756,-116.39516449,2022-12-18 06:25:20
Arbys,1280 W San Marcos Blvd,,SAN MARCOS,CA,92069,US,33.1326561,-117.19749451,2022-12-18 06:25:16
Arbys,240 Swanson Ave,,LAKE HAVASU CITY,AZ,86403-0966,US,34.46804428,-114.34033966,2022-12-16 15:27:39
Arbys,27702 Jefferson Ave,,TEMECULA,CA,92590,US,33.51456833,-117.15869141,2022-12-18 06:25:16
Arbys,25251 Madison Avenue,,MURRIETA,CA,92562,US,33.55377197,-117.19710541,2022-12-13 15:34:01
Arbys,57622  29 Palms Hwy,,YUCCA VALLEY,CA,92284,US,34.12628555,-116.40627289,2022-12-18 06:25:21
Arbys,2915 W Florida Ave,,HEMET,CA,92545,US,33.74694443,-117.00267029,2022-12-18 06:25:20
Arbys,1265 Iron Springs Rd,,PRESCOTT,AZ,86305-1411,US,34.56213379,-112.48757172,2022-12-18 07:39:41
Arbys,7650 E State Route 69,,PRESCOTT VALLEY,AZ,86314-2227,US,34.58594894,-112.33133698,2022-12-18 07:39:41
Arbys,167 North Beeline Hwy,,PAYSON,AZ,85541,US,34.24160385,-111.32239532,2022-12-18 06:25:18
Arbys,1720 West Thatcher Blvd,,SAFFORD,AZ,85546,US,32.83542252,-109.72943115,2022-12-18 06:25:09
Arbys,1245 W Colton Ave,,REDLANDS,CA,92374-2861,US,34.06257248,-117.20165253,2022-12-18 06:25:16
Arbys,23862 Bridger Rd,,LAKE FOREST,CA,92630,US,33.61637115,-117.7073288,2022-12-18 06:25:21
Arbys,26801 Portola Pkwy,,FOOTHILL RANCH,CA,92610,US,33.67930984,-117.6631546,2022-12-18 06:25:16
Arbys,2320 Highway 95,,BULLHEAD CITY,AZ,86442-7303,US,35.10232162,-114.5976944,2022-12-18 06:25:13
Arbys,10160 Hole Ave,,RIVERSIDE,CA,92503,US,33.91423035,-117.45960999,2022-12-18 06:25:16
Arbys,670 Se St,,SAN BERNARDINO,CA,92408-1906,US,34.08914185,-117.29445648,2022-12-18 06:25:16
Arbys,76 Corporate Park,,IRVINE,CA,92606,US,33.69256592,-117.82617188,2022-12-18 06:25:16
Arbys,3265 E Andy Devine Rd,,KINGMAN,AZ,86401-3701,US,35.21945953,-114.00928497,2022-12-18 06:25:15
Arbys,2410 South Archibald Ave.,,ONTARIO,CA,91761,US,34.0295639,-117.59372711,2022-12-18 06:25:16
Arbys,1107 N. Tustin St.,,ORANGE,CA,92867,US,33.80613708,-117.83518982,2022-12-18 06:25:16
Arbys,19051 Brookhurst St,,HUNTINGTON BEACH,CA,92646,US,33.68595123,-117.95462036,2022-12-18 06:25:21
Arbys,4767 Chino Hills Pkwy,,CHINO HILLS,CA,91709,US,33.98193359,-117.70020294,2022-12-13 15:33:59
Arbys,7942 Edinger Ave,,HUNTINGTON BEACH,CA,92647,US,33.72984314,-117.99008179,2022-12-18 06:25:16
Arbys,1646 - 1&2 W Katella Ave,,ANAHEIM,CA,92802,US,33.80280304,-117.93913269,2022-12-18 06:25:16
Arbys,1299 E Foothill Blvd,,UPLAND,CA,91786,US,34.10752106,-117.63391113,2022-12-18 06:25:16
Arbys,2525 E Imperial Hwy,,BREA,CA,92821,US,33.91146469,-117.86563873,2022-12-18 06:25:16
Arbys,21550 Bear Valley Rd,,APPLE VALLEY,CA,92308,US,34.47177505,-117.19327545,2022-12-18 06:25:16
Arbys,6801 Beach Blvd,,BUENA PARK,CA,90620,US,33.8614502,-117.99855042,2022-12-18 06:25:16
Arbys,13140 E. Main Street,,HESPERIA,CA,92345,US,34.42712021,-117.37654114,2022-12-18 06:25:16
Arbys,15122 Bear Valley Rd,,VICTORVILLE,CA,92392,US,34.47093201,-117.33405304,2022-12-18 06:25:16
Arbys,5920 E South St,,LAKEWOOD,CA,90713,US,33.86023331,-118.1461792,2022-12-18 06:25:16
Arbys,3602 Atlantic Avenue,,LONG BEACH,CA,90807,US,33.82227707,-118.18469238,2022-12-18 06:25:16
Arbys,72431 Baker Blvd,P O BOX 40,BAKER,CA,92309,US,35.26925278,-116.06782532,2022-12-18 06:25:13
Arbys,1525 W Sepulveda Blvd,,TORRANCE,CA,90501,US,33.81575012,-118.30466461,2022-12-18 06:25:22
Arbys,1800 S Milton Rd #200,,FLAGSTAFF,AZ,86001,US,35.18270493,-111.66083527,2022-12-18 06:25:14
Arbys,1050 E Motel Dr,,LORDSBURG,NM,88045,US,32.34240341,-108.6811142,2022-12-18 06:25:09
Arbys,680 W Deuce Of Clubs,,SHOW LOW,AZ,85901-5812,US,34.24712372,-110.04973602,2022-12-18 06:25:19
Arbys,875 N Main St,,TAYLOR,AZ,85939,US,34.47755814,-110.08467865,2022-12-18 06:25:19
Arbys,1940 Us Hwy 180 E80 East,,SILVER CITY,NM,88061,US,32.78656769,-108.25226593,2022-12-18 06:25:19
Arbys,127 North Silver Ave.,,Deming,NM,88030,US,32.2691803,-107.75735474,2022-12-18 06:25:19
Arbys,510 E Idaho Ave,,LAS CRUCES,NM,88001,US,32.29735565,-106.77025604,2022-12-18 06:25:20
Arbys,2341 E Lohman,,LAS CRUCES,NM,88001,US,32.31370163,-106.75099182,2022-12-18 06:25:20
Arbys,6315 North Mesa,,El Paso,TX,79912,US,31.83205414,-106.53469849,2022-12-18 06:25:20
Arbys,1613 Marshall Rd,,FT. BLISS,TX,79916,US,31.82102776,-106.43109131,2022-12-18 06:25:20
Arbys,6138 Montana,,EL PASO,TX,79925,US,31.7863369,-106.411026,2022-12-13 15:33:59
Arbys,9575 Dyer St,,EL PASO,TX,79924,US,31.88497162,-106.41853333,2022-12-18 06:25:20
Arbys,11254 Luke Street,,FORT BLISS,TX,79906,US,31.82771683,-106.38776398,2022-12-18 06:25:20
Arbys,10988 Montwood Dr.,,EL PASO,TX,79924,US,31.76853371,-106.31991577,2022-12-18 06:25:20
Arbys,1010 S Hwy 85,,SOCORRO,NM,87801,US,34.04586792,-106.89186859,2022-12-18 06:25:12
Arbys,421 S White Sands Blvd,,ALAMOGORDO,NM,88310,US,32.8862648,-105.95982361,2022-12-18 06:25:20
Arbys,310 S Boulder Hwy,,HENDERSON,NV,89015-7508,US,36.03616333,-114.97715759,2022-12-18 06:25:19
Arbys,703 Christopher Dr,,BELEN,NM,87002,US,34.65488434,-106.79311371,2022-12-18 06:25:11
Arbys,601 Main St NE,,LOS LUNAS,NM,87031,US,34.80513382,-106.7288208,2022-12-18 06:25:11
Arbys,3270 Coors Blvd,,ALBUQUERQUE,NM,87120,US,35.12018967,-106.70093536,2022-12-18 06:25:11
Arbys,3326 Central Ave SE,,ALBUQUERQUE,NM,87106-1430,US,35.07977295,-106.60742188,2022-12-18 06:25:11
Arbys,5800 Menaul Blvd NE,,ALBUQUERQUE,NM,87110,US,35.10873032,-106.57907867,2022-12-18 06:25:11
Arbys,1416 Mercantile Ave NE,,ALBUQUERQUE,NM,87107,US,35.13460541,-106.61170197,2022-12-18 06:25:11
Arbys,6110 San Mateo Blvd. NE,,ALBUQUERQUE,NM,87109,US,35.14575195,-106.58570862,2022-12-18 06:25:11
Arbys,1751 Juan Tabo NE,,ALBUQUERQUE,NM,87112,US,35.10096359,-106.51587677,2022-12-18 06:25:11
Arbys,4701 Paseo Del Norte,,ALBUQUERQUE,NM,87113,US,35.17533875,-106.59291077,2022-12-18 06:25:11
Arbys,3351 Southern Blvd,,RIO RANCHO,NM,87124,US,35.24197388,-106.66909027,2022-12-18 06:25:19
Arbys,1515 Us Route 66,P.O. BOX 3324,MORIARTY,NM,87035,US,35.00947571,-106.06195068,2022-12-18 06:25:11
Arbys,1305 W Pierce,,CARLSBAD,NM,88220,US,32.43540573,-104.24408722,2022-12-18 06:25:22
Arbys,1013 N Main St,,ROSWELL,NM,88201,US,33.4043541,-104.5223999,2022-12-16 15:27:40
Arbys,3267 Cerrillos Rd,,SANTA FE,NM,87501,US,35.6510582,-105.99975586,2022-12-18 06:25:18
Arbys,17730 Us 84-285,,SANTA FE,NM,87506,US,35.85473251,-105.99639893,2022-12-18 06:25:18
Arbys,1825 E Main St,,FARMINGTON,NM,87401-7709,US,36.73719788,-108.18349457,2022-12-18 06:25:15
Arbys,1915 N Turner St,,HOBBS,NM,88240-2712,US,32.72092056,-103.14328766,2022-12-18 07:39:41
Arbys,1711 7th St,,LAS VEGAS,NM,87701,US,35.60634613,-105.22366333,2022-12-18 06:25:16
Arbys,2791 Lenwood Rd,,BARSTOW,CA,92311,US,34.84781265,-117.08237457,2022-12-18 06:25:16
Arbys,10365 S Eastern Ave,,HENDERSON,NV,89052-3960,US,36.00165939,-115.10856628,2022-12-18 06:25:19
Arbys,160 N Pecos,,HENDERSON,NV,89014,US,36.04071808,-115.09983826,2022-12-18 06:25:19
Arbys,590 N Stephanie St,,HENDERSON,NV,89014-6612,US,36.06106567,-115.04573822,2022-12-18 06:25:19
Arbys,725 N Nellis Blvd,,LAS VEGAS,NV,89110-5384,US,36.17568207,-115.06260681,2022-12-18 06:25:19
Arbys,6010 W Flamingo,,LAS VEGAS,NV,89103,US,36.1149826,-115.22312164,2022-12-18 06:25:19
Arbys,4830 S Fort Apache Rd,,LAS VEGAS,NV,89147-7943,US,36.10166168,-115.29692841,2022-12-18 06:25:19
Arbys,"5691 Rickenbacker Rd., Bldg #431",,NELLIS AFB,NV,89191,US,36.23390579,-115.05049133,2022-12-18 06:25:19
Arbys,504 S Broadway,,CORTEZ,CO,81321,US,37.34294128,-108.59675598,2022-12-18 06:25:15
Arbys,3477 S Durango Dr,,LAS VEGAS,NV,89117,US,36.12746048,-115.27935791,2022-12-18 06:25:19
Arbys,1300 E Lake Mead Blvd,,NORTH LAS VEGAS,NV,89030,US,36.19604492,-115.12478638,2022-12-18 06:25:19
Arbys,1940 Rock Springs Dr,,LAS VEGAS,NV,89128,US,36.19485092,-115.24659729,2022-12-18 06:25:19
Arbys,1465 W Craig Rd,,NORTH LAS VEGAS,NV,89030,US,36.23833847,-115.1615448,2022-12-18 06:25:19
Arbys,4521 N Rancho Dr,,LAS VEGAS,NV,89130,US,36.24148178,-115.23513794,2022-12-18 06:25:19
Arbys,6979 Aliante Parkway,,NORTH LAS VEGAS,NV,89084,US,36.28740692,-115.17832947,2022-12-18 06:25:19
Arbys,7035 N. Durango,,LAS VEGAS,NV,89149,US,36.28871918,-115.28845978,2022-12-18 06:25:19
Arbys,717 S Bluff St,,ST. GEORGE,UT,84770,US,37.09609222,-113.58649445,2022-12-18 06:25:21
Arbys,1022 W. State Street,,HURRICANE,UT,84737,US,37.17684937,-113.30735779,2022-12-18 06:25:14
Arbys,927 W 200 N,,CEDAR CITY,UT,84720-2303,US,37.68050003,-113.07540131,2022-12-18 06:25:14
Arbys,240 W. Fitzgerald Blvd,Bldg 6001,EDWARDS AIR FORCE BASE,CA,93524,US,34.92043686,-117.91758728,2022-12-18 06:25:16
Arbys,1425 N Main St,,RICHFIELD,UT,84701,US,38.78730392,-112.08370972,2022-12-18 06:25:09
Arbys,1895 South State Street,,SALINA,UT,84654,US,38.93310165,-111.85460663,2022-12-18 06:25:09
Arbys,1810 Main Street,,GREEN RIVER,UT,84525,US,38.99488068,-110.18500519,2022-12-16 15:27:37
Arbys,1701 E Main St,,MONTROSE,CO,81401,US,38.48835373,-107.86160278,2022-12-18 06:25:09
Arbys,107 Gunnison River Pkwy,,DELTA,CO,81416,US,38.74908829,-108.07026672,2022-12-18 06:25:09
Arbys,1705 Main St,,ALAMOSA,CO,81101,US,37.47049332,-105.88240051,2022-12-18 06:25:17
Arbys,2468 Us Hwy 6 & 50,,GRAND JUNCTION,CO,81505,US,39.08588791,-108.59467316,2022-12-18 06:25:11
Arbys,1155 North Ave,,GRAND JUNCTION,CO,81501,US,39.07704544,-108.55285645,2022-12-18 06:25:11
Arbys,1037 Rancho Vista,,PALMDALE,CA,93551,US,34.60476303,-118.14845276,2022-12-18 06:25:16
Arbys,815 E 100 N,,NEPHI,UT,84648,US,39.71047211,-111.82015228,2022-12-13 15:33:56
Arbys,755 E Main,,PRICE,UT,84501-3140,US,39.59991837,-110.79719543,2022-12-18 06:25:13
Arbys,788 S 1270 W,,PAYSON,UT,84651-2626,US,40.03186417,-111.75498962,2022-12-13 15:33:58
Arbys,955 E Expressway Square,,SPANISH FORK,UT,84660-1342,US,40.12102509,-111.64009857,2022-12-18 06:25:13
Arbys,1881 West 500 South,,SPRINGVILLE,UT,84663,US,40.1595459,-111.6446228,2022-12-18 06:25:13
Arbys,1474 S 40th E,,PROVO,UT,84601,US,40.21408081,-111.65831757,2022-12-18 06:25:13
Arbys,800 E Tomichi Ave - Temp,,GUNNISON,CO,81230,US,38.5448494,-106.91736603,2022-12-18 06:25:18
Arbys,500 Airport Road,,RIFLE,CO,81650,US,39.52300262,-107.77249146,2022-12-18 06:25:11
Arbys,51171 Highway 6 & 24,,GLENWOOD SPRINGS,CO,81601,US,39.56209564,-107.3609314,2022-12-18 06:25:11
Arbys,3223 Kennedy Lane,,TEXARKANA,TX,75501,US,33.45349884,-94.07910919,2022-12-16 15:27:48
Arbys,2015 Airline Dr,,BOSSIER CITY,LA,71111-3203,US,32.52991867,-93.70407104,2022-12-16 15:27:54
Arbys,9600 Highway 80,,GREENWOOD,LA,71033-2341,US,32.44428253,-93.98290253,2022-12-16 15:27:45
Arbys,490 N Elm St,,HAUGHTON,LA,71037,US,32.54501724,-93.51634979,2022-12-16 15:27:54
Arbys,2902 Bert Kouns Industrial Loop,,SHREVEPORT,LA,71118-3009,US,32.40261078,-93.80555725,2022-12-16 15:27:54
Arbys,13510 Industrial Dr,,MINDEN,LA,71055,US,32.58203125,-93.24851227,2022-12-16 15:27:54
Arbys,1025 McCan Road,,LONGVIEW,TX,75601,US,32.50771713,-94.74880981,2022-12-16 15:27:45
Arbys,1300 S. Jefferson,,MT. PLEASANT,TX,75455,US,33.14437485,-94.96906281,2022-12-16 15:27:45
Arbys,1000 N West Ave,,EL DORADO,AR,71730-4661,US,33.22071838,-92.6658783,2022-12-16 15:27:54
Arbys,709 S Park Dr,,BROKEN BOW,OK,74728,US,34.01926422,-94.73905182,2022-12-16 15:27:45
Arbys,2111 FARMERVILLE HIGHWAY,,RUSTON,LA,71270,US,32.55080032,-92.61039734,2022-12-16 15:27:53
Arbys,4006 South Broadway,,TYLER,TX,75701,US,32.30690765,-95.3002243,2022-12-16 15:27:45
Arbys,1411 Pine St,,ARKADELPHIA,AR,71923-4730,US,34.1227417,-93.06421661,2022-12-16 15:27:52
Arbys,1200 South Hillcrest Dr,,SULPHUR SPRINGS,TX,75482,US,33.11668396,-95.63428497,2022-12-16 15:27:47
Arbys,3355 Lamar Ave,,PARIS,TX,75460-5023,US,33.66132355,-95.51387787,2022-12-16 15:27:50
Arbys,1188 S. Oak Street,,VAN,TX,75790,US,32.50833893,-95.64211273,2022-12-16 15:27:47
Arbys,528 Thomas Rd,,West Monroe,LA,71292,US,32.49847412,-92.15818787,2022-12-16 15:27:53
Arbys,200 Airport Blvd.,,HOT SPRINGS,AR,71913,US,34.49084091,-93.08716583,2022-12-16 15:27:46
Arbys,3020 Central Ave,,HOT SPRINGS,AR,71913-6145,US,34.47990036,-93.06034088,2022-12-16 15:27:46
Arbys,2407 Louisville Rd,,MONROE,LA,71201,US,32.52368164,-92.09783936,2022-12-16 15:27:53
Arbys,6716 Highway 171,,Malvern,AR,72104,US,34.38857269,-92.84645081,2022-12-16 15:27:46
Arbys,5614 Hwy 59 N,,LUFKIN,TX,75904,US,31.41082001,-94.71877289,2022-12-16 15:27:51
Arbys,5001 Hwy 69 S,,GREENVILLE,TX,75401,US,33.26014709,-96.18075562,2022-12-16 15:27:48
Arbys,93 Hwy 205,,TERRELL,TX,75160,US,32.73851776,-96.30387878,2022-12-16 15:27:43
Arbys,900 Military Rd,,BENTON,AR,72015-3315,US,34.57152557,-92.58345032,2022-12-16 15:27:45
Arbys,1402 South Fifth Street,,LEESVILLE,LA,71446,US,31.12876701,-93.26737976,2022-12-16 15:27:53
Arbys,648 I-30 Frontage Road,,ROYSE CITY,TX,75189,US,32.96224213,-96.34534454,2022-12-16 15:27:43
Arbys,7046 Highway 1,,BOYCE,LA,71409,US,31.36090088,-92.58901215,2022-12-16 15:27:53
Arbys,5507 S Olive St,,PINE BLUFF,AR,71603-7607,US,34.1741333,-92.00579834,2022-12-16 15:27:46
Arbys,2903 North Reynolds Road,,BRYANT,AR,72022-9134,US,34.62114334,-92.4987793,2022-12-16 15:27:45
Arbys,2303 N Broadway St,,POTEAU,OK,74953-2008,US,35.07626724,-94.62935638,2022-12-16 15:27:47
Arbys,8212 Geyer Springs Rd,,LITTLE ROCK,AR,72209-4827,US,34.67576218,-92.34441376,2022-12-16 15:27:45
Arbys,2625 Lakeview Pkwy,,ROWLETT,TX,75088,US,32.90811157,-96.57447815,2022-12-16 15:27:43
Arbys,15510 Chenal Pkwy,,LITTLE ROCK,AR,72223,US,34.75758362,-92.44416809,2022-12-16 15:27:45
Arbys,2704 S. Shackleford Rd.,,LITTLE ROCK,AR,72205,US,34.72910309,-92.39559174,2022-12-16 15:27:45
Arbys,1821 Range Rd,#115,MESQUITE,TX,75149,US,32.78855515,-96.59658813,2022-12-16 15:27:43
Arbys,9624 N Rodney Parham Rd,,LITTLE ROCK,AR,72227-6210,US,34.76097107,-92.38108063,2022-12-16 15:27:45
Arbys,1706 West University Drive,,MCKINNEY,TX,75069,US,33.21697617,-96.63245392,2022-12-16 15:27:43
Arbys,917 W Center St,,GREENWOOD,AR,72936-3721,US,35.21663666,-94.27057648,2022-12-16 15:27:45
Arbys,4950 North Garland Avenue,,GARLAND,TX,75234,US,32.9605484,-96.6473999,2022-12-16 15:27:43
Arbys,1902 Northwest Hwy,,GARLAND,TX,75041,US,32.86372757,-96.65633392,2022-12-16 15:27:43
Arbys,513 University Pl,,DURANT,OK,74701-7103,US,34.00149155,-96.41062927,2022-12-16 15:27:53
Arbys,201 N Central Expressway,,ALLEN,TX,75013-2629,US,33.10474014,-96.67778015,2022-12-16 15:27:43
Arbys,1820 N Plano Rd,,RICHARDSON,TX,75081-1916,US,32.97349167,-96.69923401,2022-12-16 15:27:43
Arbys,2131 Texoma Pkwy,,SHERMAN,TX,75090,US,33.66117477,-96.59875488,2022-12-16 15:27:48
Arbys,725 W. Spring Creek Pkwy,,PLANO,TX,75093,US,33.05714035,-96.70831299,2022-12-16 15:27:43
Arbys,105 Savannah Dr,,MAUMELLE,AR,72113,US,34.85391235,-92.40313721,2022-12-16 15:27:45
Arbys,515 N Us Hwy 75,,DENISON,TX,75020,US,33.76147461,-96.58641052,2022-12-16 15:27:48
Arbys,2012 W 15 St,,PLANO,TX,75075,US,33.01898575,-96.73269653,2022-12-16 15:27:43
Arbys,389 N Custer Rd,,MCKINNEY,TX,75071,US,33.20604706,-96.7334671,2022-12-16 15:27:43
Arbys,5324 John F Kennedy Blvd,,NORTH LITTLE ROCK,AR,72116-6704,US,34.80434036,-92.25268555,2022-12-16 15:27:45
Arbys,4560 E. McCain Blvd,,NORTH LITTLE ROCK,AR,72117,US,34.78857422,-92.21353912,2022-12-16 15:27:45
Arbys,6363 Greenville Avenue,,DALLAS,TX,75206,US,32.86203384,-96.76800537,2022-12-16 15:27:43
Arbys,4915 Towson Ave,,FORT SMITH,AR,72901-8425,US,35.33673096,-94.42241669,2022-12-16 15:27:47
Arbys,5244 Preston Road,,FRISCO,TX,75034,US,33.12222672,-96.80493927,2022-12-16 15:27:43
Arbys,3921 E Kiehl Ave,,SHERWOOD,AR,72120-3512,US,34.83258438,-92.18921661,2022-12-16 15:27:45
Arbys,6611 Rogers Ave,,FORT SMITH,AR,72903-4063,US,35.35658264,-94.35862732,2022-12-16 15:27:46
Arbys,915 E Main St,,RUSSELLVILLE,AR,72801-5251,US,35.27865982,-93.12242126,2022-12-16 15:27:45
Arbys,2670 Midway Road,,Carrollton,TX,75006,US,32.98683929,-96.84156799,2022-12-16 15:27:43
Arbys,5350 Harry Hines Blvd.,,Dallas,TX,75235,US,32.813797,-96.83891296,2022-12-16 15:27:43
Arbys,603 S George Nigh Expy,,MCALESTER,OK,74501-7277,US,34.91629791,-95.74600983,2022-12-16 15:27:47
Arbys,2321 N Arkansas Avenue,,RUSSELLVILLE,AR,72802-2219,US,35.30302048,-93.13809204,2022-12-16 15:27:45
Arbys,125 East Ovilla Rd.,,RED OAK,TX,75154,US,32.53121948,-96.81502533,2022-12-16 15:27:43
Arbys,1909 E Hebron Pkwy,,CARROLLTON,TX,75007,US,33.02522278,-96.88391876,2022-12-16 15:27:43
Arbys,1001 W Main St,,JACKSONVILLE,AR,72076-4301,US,34.86661148,-92.12057495,2022-12-16 15:27:45
Arbys,"2731 Little Elm Pkwy, Ste. 300",Suite 300,LITTLE ELM,TX,75068,US,33.17116165,-96.88859558,2022-12-16 15:27:43
Arbys,110 W. Ray Fine Blvd.,Rt. 1 Box 1002,ROLAND,OK,74954,US,35.40467072,-94.51743317,2022-12-16 15:27:46
Arbys,2810 W Wheatland Rd,,DALLAS,TX,75237,US,32.64709473,-96.86602783,2022-12-16 15:27:43
Arbys,227 Hwy 65 S,,RICHMOND,LA,71282,US,32.38796616,-91.19771576,2022-12-16 15:27:50
Arbys,414 Harkrider St,,CONWAY,AR,72032-5630,US,35.08474731,-92.43650818,2022-12-16 15:27:45
Arbys,1680 Dallas Highway,,Waxahachie,TX,75165,US,32.4301796,-96.83771515,2022-12-16 15:27:43
Arbys,810 Elsinger Blvd,,CONWAY,AR,72032,US,35.08951187,-92.41209412,2022-12-16 15:27:45
Arbys,2234 Fayetteville Rd,,VAN BUREN,AR,72956-6508,US,35.46910477,-94.35577393,2022-12-16 15:27:46
Arbys,1227 Market St,,CLARKSVILLE,AR,72830-9042,US,35.45055008,-93.46279144,2022-12-16 15:27:45
Arbys,1730 Market Place Blvd.,,IRVING,TX,75063,US,32.91916275,-96.9699707,2022-12-16 15:27:43
Arbys,220 Round Grove Road,,LEWISVILLE,TX,75067,US,33.00295639,-96.98847198,2022-12-16 15:27:43
Arbys,23456 San Antonio Rd.,,NORMANGEE,TX,77871,US,31.09293365,-95.96372223,2022-12-05 05:53:41
Arbys,800 S Kerr Blvd,,SALLISAW,OK,74955-7221,US,35.45110703,-94.80535126,2022-12-16 15:27:47
Arbys,8111 South I-35 East,,CORINTH,TX,76210,US,33.1321106,-97.03928375,2022-11-20 19:24:40
Arbys,10 Ryeland Dr,,CABOT,AR,72023-2987,US,34.97929382,-92.0298996,2022-12-16 15:27:45
Arbys,4030 S Great Southwest Pkwy,,GRAND PRAIRIE,TX,75052,US,32.67342758,-97.04478455,2022-12-16 15:27:43
Arbys,1501 N Hwy 287,,MIDLOTHIAN,TX,76065,US,32.48318481,-97.01114655,2022-12-16 15:27:43
Arbys,1260 William D Tate,,GRAPEVINE,TX,76051,US,32.92722702,-97.08747864,2022-12-16 15:27:43
Arbys,2313 Colorado Blvd.,,DENTON,TX,76205,US,33.18996811,-97.10395813,2022-12-16 15:27:43
Arbys,1102 N Collins St,,ARLINGTON,TX,76011,US,32.7517662,-97.09767151,2022-12-16 15:27:43
Arbys,1075 Hwy 65 North,,GREENBRIER,AR,72058-9321,US,35.26036072,-92.38808441,2022-12-16 15:27:45
Arbys,3237 Harwood Rd,,BEDFORD,TX,76021,US,32.85232925,-97.11400604,2022-12-16 15:27:43
Arbys,1504 11th St.,,HUNTSVILLE,TX,77340,US,30.72403336,-95.55619049,2022-12-16 15:27:46
Arbys,901 West University Drive,,DENTON,TX,76201,US,33.22997284,-97.14058685,2022-12-16 15:27:43
Arbys,4820 South Cooper Street,,ARLINGTON,TX,76015,US,32.66820908,-97.13473511,2022-12-16 15:27:43
Arbys,1772 Eastchase Parkway,,FORT WORTH,TX,76120,US,32.75327301,-97.17160034,2022-12-16 15:27:43
Arbys,8245 Precinct Line Rd.,,NORTH RICHLAND HILLS,TX,76182,US,32.90643692,-97.18807983,2022-12-16 15:27:43
Arbys,1321 NORTH HWY 377,,ROANOKE,TX,76262,US,33.01670074,-97.21920013,2022-12-16 15:27:43
Arbys,4406 Little Rd,,ARLINGTON,TX,76016-5605,US,32.67615891,-97.19849396,2022-12-16 15:27:43
Arbys,7640 Grapevine Hwy,,NORTH RICHLAND HILLS,TX,76180-8306,US,32.83007431,-97.21898651,2022-12-16 15:27:43
Arbys,1101 South Main St,,KELLER,TX,76248,US,32.91627884,-97.25450134,2022-12-16 15:27:43
Arbys,3100 E Race Ave,,SEARCY,AR,72143-4867,US,35.25081253,-91.69880676,2022-12-16 15:27:45
Arbys,1119 Lowe-Grout Rd.,,IOWA,LA,70647,US,30.25341606,-93.01451874,2022-12-16 15:27:47
Arbys,2024 West St,,VINTON,LA,70668,US,30.17295647,-93.58789062,2022-12-16 15:27:47
Arbys,1151 S Saint Louis St,,BATESVILLE,AR,72501-7226,US,35.768116,-91.64064789,2022-12-16 15:27:52
Arbys,3400 Fm 365,,Port Arthur,TX,77642,US,29.95159531,-93.98792267,2022-12-16 15:27:52
Arbys,4900 Tx-73,,PORT ARTHUR,TX,77642,US,29.93437195,-93.93276215,2022-12-16 15:27:52
Arbys,7495 Smith Rd,,BEAUMONT,TX,77705,US,29.98865128,-94.21165466,2022-12-16 15:27:52
Arbys,107 Fm 2025,,CLEVELAND,TX,77328,US,30.35429192,-95.09128571,2022-12-16 15:27:43
Arbys,1263 W. Martin Luther King Jr. Blvd.,,FAYETTEVILLE,AR,72701-6313,US,36.05633163,-94.17863464,2022-12-16 15:27:46
Arbys,723 E Parker Rd,SUITE A,JONESBORO,AR,72404,US,35.80631256,-90.70126343,2022-12-16 15:27:47
Arbys,4112 Johnson Ave.,,JONESBORO,AR,72401,US,35.86175919,-90.64871979,2022-12-05 11:13:10
Arbys,1606 W Kings Hwy,,PARAGOULD,AR,72450,US,36.05261612,-90.50426483,2022-12-05 11:13:10
Arbys,2811 Highway 62 East,,MOUNTAIN HOME,AR,72653,US,36.35386276,-92.35726929,2022-12-16 15:27:53
Arbys,1414 S Muskogee Ave,,TAHLEQUAH,OK,74464-5218,US,35.89733887,-94.97661591,2022-12-16 15:27:46
Arbys,1901 N Main St,,MUSKOGEE,OK,74401,US,35.76815796,-95.35877228,2022-12-16 15:27:46
Arbys,503 S 32 St,,MUSKOGEE,OK,74401-5010,US,35.74974823,-95.40299225,2022-12-16 15:27:46
Arbys,220 East Joyce Blvd,,FAYETTEVILLE,AR,72703,US,36.12459564,-94.15331268,2022-12-16 15:27:46
Arbys,312 E Main St,,HENRYETTA,OK,74437,US,35.44022751,-95.97825623,2022-12-16 15:27:46
Arbys,908 S Thompson St,,SPRINGDALE,AR,72764-5232,US,36.17596054,-94.13948059,2022-12-16 15:27:46
Arbys,7460 W. Sunset Ave.,,SPRINGDALE,AR,72762,US,36.17627335,-94.21329498,2022-12-16 15:27:46
Arbys,1001 Highway 412 W,,SILOAM SPRINGS,AR,72761-4549,US,36.17542648,-94.55186462,2022-12-16 15:27:46
Arbys,111 S. Dixieland Street,,LOWELL,AR,72745,US,36.25362015,-94.14517975,2022-12-16 15:27:46
Arbys,1302 W. Cherokee,,WAGONER,OK,74467,US,35.96055984,-95.3939743,2022-12-16 15:27:46
Arbys,129 S. Wood Drive,,OKMULGEE,OK,74447,US,35.62268448,-95.95994568,2022-12-16 15:27:46
Arbys,501 S 8th St,,ROGERS,AR,72756-4454,US,36.32948303,-94.12535095,2022-12-16 15:27:46
Arbys,3929 W Walnut St,,ROGERS,AR,72756-1841,US,36.33533096,-94.17472076,2022-12-16 15:27:46
Arbys,400 N Mississippi Ave,,ADA,OK,74820-5241,US,34.77800751,-96.66955566,2022-12-16 15:27:53
Arbys,2807 Se 14th St,,BENTONVILLE,AR,72712-6959,US,36.35689545,-94.18045807,2022-12-16 15:27:46
Arbys,1419 N Hwy 62-65,,HARRISON,AR,72601,US,36.26836395,-93.14134979,2022-12-16 15:27:51
Arbys,13589 S State Highway 51,,COWETA,OK,74429-7106,US,35.96693802,-95.65645599,2022-12-16 15:27:46
Arbys,1202 N Walton Blvd,,BENTONVILLE,AR,72712-4131,US,36.3864212,-94.22070312,2022-12-16 15:27:46
Arbys,3325 S Elm Place,,BROKEN ARROW,OK,74012,US,36.0177536,-95.79682922,2022-12-16 15:27:46
Arbys,2540 E Kenosha St,,BROKEN ARROW,OK,74014,US,36.06136322,-95.75791931,2022-12-16 15:27:46
Arbys,624 W Kenosha,,BROKEN ARROW,OK,74012,US,36.06134796,-95.79704285,2022-12-16 15:27:46
Arbys,315 S Mill St,,PRYOR,OK,74361,US,36.30137634,-95.32041931,2022-12-16 15:27:46
Arbys,10118 S Memorial Dr,,TULSA,OK,74133,US,36.0163002,-95.88712311,2022-12-16 15:27:46
Arbys,41 W 141 St,,GLENPOOL,OK,74033,US,35.95953369,-96.00885773,2022-12-16 15:27:46
Arbys,6237 S Garnett,,BROKEN ARROW,OK,74012,US,36.07316589,-95.85037231,2022-12-16 15:27:46
Arbys,9419 E 71st St,,TULSA,OK,74133,US,36.061306,-95.87086487,2022-12-16 15:27:46
Arbys,9101 S Yale Ave,,TULSA,OK,74137-4024,US,36.03146744,-95.92153168,2022-12-16 15:27:46
Arbys,520 W Main St,,JENKS,OK,74037,US,36.02233505,-95.97543335,2022-12-16 15:27:46
Arbys,4027 S Garnet,,TULSA,OK,74145,US,36.1051712,-95.8506546,2022-12-16 15:27:46
Arbys,1077 Branson Hills Pkwy,Suite A,BRANSON,MO,65616,US,36.67026138,-93.22733307,2022-12-16 15:27:47
Arbys,1342 Southern Hills Center,,WEST PLAINS,MO,65775,US,36.71573257,-91.87301636,2022-12-16 15:27:53
Arbys,1802 S Main,,GROVE,OK,74345,US,36.57765198,-94.76961517,2022-12-16 15:27:46
Arbys,1701 Highway 84 E,,HAYTI,MO,63851-1943,US,31.97430229,-93.98867035,2022-12-16 15:27:54
Arbys,2710 Lake Rd,,DYERSBURG,TN,38024-1606,US,36.06510162,-89.3955307,2022-12-16 15:27:46
Arbys,111 N Westwood Blvd,,POPLAR BLUFF,MO,63901-4848,US,36.75821304,-90.40808105,2022-12-16 15:27:50
Arbys,1801 W Marler Lane,,OZARK,MO,65721,US,37.00408173,-93.22376251,2022-12-16 15:27:47
Arbys,1415 W Reelfoot Ave,,UNION CITY,TN,38261-5507,US,36.41425705,-89.07661438,2022-12-16 15:27:47
Arbys,1203 S Main St,,SIKESTON,MO,63801-9350,US,36.86056519,-89.58419037,2022-12-16 15:27:47
Arbys,1012 Mineral Wells Ave,,PARIS,TN,38242,US,36.28935242,-88.31445312,2022-11-25 04:54:10
Arbys,850 W Will Rogers Blvd,,CLAREMORE,OK,74017,US,36.31475067,-95.62018585,2022-12-16 15:27:46
Arbys,16415 E Admiral Pl,,TULSA,OK,74116-3910,US,36.16104507,-95.79499817,2022-12-16 15:27:46
Arbys,12926 E 21st St,,TULSA,OK,74129,US,36.13302612,-95.83213043,2022-12-16 15:27:46
Arbys,702 S. Neosho Blvd,,NEOSHO,MO,64850,US,36.8615036,-94.38297272,2022-12-16 15:27:51
Arbys,4909 S Yale,,TULSA,OK,74135,US,36.09088898,-95.92177582,2022-12-16 15:27:46
Arbys,836 E. Highway 60,,MONETT,MO,65708,US,36.91469574,-93.91243744,2022-12-16 15:27:47
Arbys,6331 E Admiral Pl,,TULSA,OK,74115,US,36.16106796,-95.90519714,2022-12-16 15:27:46
Arbys,1943 S Harvard,,TULSA,OK,74112,US,36.13366318,-95.94000244,2022-12-16 15:27:46
Arbys,7117 S. Olympia Ave.,,TULSA,OK,74132,US,36.06043625,-96.00312805,2022-12-16 15:27:46
Arbys,4143 S Peoria Ave,,TULSA,OK,74105,US,36.10284805,-95.97538757,2022-11-25 13:48:14
Arbys,2918 E 11th St,,TULSA,OK,74104,US,36.14752579,-95.9465332,2022-12-16 15:27:46
Arbys,11653 E 86th St N,,OWASSO,OK,74055-2532,US,36.27915192,-95.84409332,2022-12-16 15:27:46
Arbys,1025 E Dewey,,SAPULPA,OK,74066,US,35.9993248,-96.09990692,2022-12-16 15:27:46
Arbys,11500 N. 140th E. Avenue,,OWASSO,OK,74055,US,36.32063293,-95.81958008,2022-12-16 15:27:46
Arbys,4335 Southwest Blvd,,TULSA,OK,74107,US,36.10058212,-96.02820587,2022-12-16 15:27:46
Arbys,5980 S 49th West Ave,,TULSA,OK,74107,US,36.07754517,-96.0483551,2022-12-16 15:27:46
Arbys,1217 N Main St,,MIAMI,OK,74354,US,36.88929367,-94.87787628,2022-12-16 15:27:51
Arbys,3510 S. Hwy. 97,,SAND SPRINGS,OK,74063,US,36.11159134,-96.11779022,2022-12-16 15:27:46
Arbys,122 E 2nd St,,SAND SPRINGS,OK,74063,US,36.13811874,-96.10792542,2022-12-16 15:27:46
Arbys,2408 S. Range Line Rd,,JOPLIN,MO,64804,US,37.06303406,-94.47872925,2022-12-16 15:27:51
Arbys,713 McCroskey St,,NIXA,MO,65714-9403,US,37.05359268,-93.30275726,2022-12-16 15:27:47
Arbys,1704 South Madison,,WEBB CITY,MO,64870,US,37.12733841,-94.47608948,2022-12-16 15:27:45
Arbys,1320 Us Highway 60 East,,REPUBLIC,MO,65738,US,37.13127136,-93.4575882,2022-12-16 15:27:47
Arbys,1501 W Central Ave,,CARTHAGE,MO,64836,US,37.17950058,-94.33214569,2022-12-16 15:27:45
Arbys,1833 W. Republic Road,,SPRINGFIELD,MO,65807,US,37.13888931,-93.3188858,2022-12-16 15:27:47
Arbys,2225 S Campbell Ave,,SPRINGFIELD,MO,65804,US,37.17417145,-93.29572296,2022-12-16 15:27:47
Arbys,735 S Glenstone Rd,,SPRINGFIELD,MO,65804,US,37.20096588,-93.26242828,2022-12-16 15:27:47
Arbys,230 S. West Bypass,,SPRINGFIELD,MO,65802,US,37.20882416,-93.34799957,2022-12-16 15:27:47
Arbys,1416 W Kearney St,,SPRINGFIELD,MO,65803,US,37.24047089,-93.30857849,2022-12-16 15:27:47
Arbys,888 South Jefferson Ave.,,LEBANON,MO,65536,US,37.67337036,-92.65516663,2022-12-16 15:27:47
Arbys,421 Marshall Dr,,ST. ROBERT,MO,65584,US,37.81378174,-92.14159393,2022-11-29 06:07:59
Arbys,1995 South Springfield Ave,,BOLIVAR,MO,65613,US,37.5955925,-93.40313721,2022-12-16 15:27:47
Arbys,1212 Paris Rd.,,MAYFIELD,KY,42066,US,36.72086716,-88.62588501,2022-12-16 15:27:45
Arbys,2134 Independence St,,CAPE GIRARDEAU,MO,63703-5826,US,37.30711365,-89.55077362,2022-12-16 15:27:50
Arbys,2975 E. Jackson Blvd.,,JACKSON,MO,63755,US,37.36483765,-89.63559723,2022-12-16 15:27:50
Arbys,409 N. 12th Street,,MURRAY,KY,42071,US,36.61638641,-88.31542969,2022-12-16 15:27:45
Arbys,1916 Lone Oak Rd,,PADUCAH,KY,42003-5300,US,37.04920197,-88.65280914,2022-12-16 15:27:45
Arbys,2935 James Sanders Blvd,,PADUCAH,KY,42001-9157,US,37.0760498,-88.6844635,2022-12-16 15:27:45
Arbys,559 W. Karsch Blvd.,,FARMINGTON,MO,63640,US,37.78944778,-90.42927551,2022-12-16 15:27:49
Arbys,58 Us Hwy 68 W,,BENTON,KY,42025,US,40.81851578,-83.65088654,2022-12-16 15:27:45
Arbys,2966 Us Hwy 62,,CALVERT CITY,KY,42029,US,37.00445175,-88.318367,2022-12-16 15:27:45
Arbys,129 Luyben Hills Rd,,KINGSTON SPRINGS,TN,37082-8967,US,36.08437347,-87.09983063,2022-12-16 15:27:43
Arbys,965 N Riverside Dr,,CLARKSVILLE,TN,37040-3133,US,36.53947449,-87.36546326,2022-12-16 15:27:43
Arbys,3325 Fort Campbell Blvd,,CLARKSVILLE,TN,37042-5601,US,36.63835907,-87.43583679,2022-12-16 15:27:48
Arbys,2237 Madison St,,CLARKSVILLE,TN,37043-5287,US,36.50939178,-87.27415466,2022-12-16 15:27:43
Arbys,7689 Highway 70 South,,NASHVILLE,TN,37221,US,36.07893372,-86.95339966,2022-12-16 15:27:43
Arbys,3920 Trenton Road,,Clarksville,TN,37040,US,36.62622833,-87.31825256,2022-12-16 15:27:43
Arbys,3067 Wilma Rudolph Blvd,,CLARKSVILLE,TN,37040-5006,US,36.59434509,-87.28747559,2022-12-16 15:27:43
Arbys,2326 S Broadway,,SANTA MARIA,CA,93454,US,34.91773224,-120.43565369,2022-12-18 06:25:15
Arbys,1408 East Los Angeles Ave.,,SIMI VALLEY,CA,93065,US,34.27132797,-118.77179718,2022-12-18 06:25:20
Arbys,1212 S Pacific Coast Hwy,,REDONDO BEACH,CA,90277,US,33.82382965,-118.38513947,2022-11-14 07:03:15
Arbys,6850 Reseda Blvd,,RESEDA,CA,91335-4204,US,34.19537735,-118.53568268,2022-12-18 06:25:20
Arbys,21948 Highway 46,,LOST HILLS,CA,93249-9733,US,35.61664581,-119.65888214,2022-12-18 06:25:14
Arbys,913 W Manchester Blvd,,INGLEWOOD,CA,90301,US,33.96121597,-118.37224579,2022-12-18 06:25:22
Arbys,5821 Dennis McCarthy Dr.,,LEBEC,CA,93243,US,34.98589706,-118.94794464,2022-12-18 06:25:21
Arbys,11010 Sepulveda Blvd,,MISSION HILLS,CA,91345,US,34.27048874,-118.46685791,2022-12-18 06:25:16
Arbys,12655 Glenoaks Blvd.,,SYLMAR,CA,91342,US,34.29957962,-118.44100189,2022-12-18 06:25:16
Arbys,5920 W Sunset Blvd,,HOLLYWOOD,CA,90028,US,34.09775162,-118.31873322,2022-12-18 06:25:16
Arbys,27590 Sierra Hwy,,CANYON COUNTRY,CA,91351-3091,US,34.41623688,-118.45557404,2022-12-18 06:25:16
Arbys,8290 Rosedale Hwy,,BAKERSFIELD,CA,93308,US,35.38388443,-119.09424591,2022-12-18 06:25:14
Arbys,2610 Buck Owens Blvd,,BAKERSFIELD,CA,93308,US,35.38376999,-119.04285431,2022-12-18 06:25:14
Arbys,601 S Bernardo Ave,,SUNNYVALE,CA,94087,US,37.37345505,-122.05690765,2022-12-18 06:25:14
Arbys,4225 W Noble Ave,,VISALIA,CA,93277-1633,US,36.32672882,-119.33821869,2022-12-18 06:25:14
Arbys,4181 E Ashlan Ave,,FRESNO,CA,93726,US,36.794487,-119.75550079,2022-12-18 06:25:16
Arbys,3175 Avenue 17,,MADERA,CA,93637,US,36.99642944,-120.21326447,2022-12-18 06:25:15
Arbys,6410 N Blackstone Ave,,FRESNO,CA,93710-3501,US,36.8305397,-119.7898941,2022-12-18 06:25:16
Arbys,745 W Clover Rd,,TRACY,CA,95376,US,37.76176071,-121.43635559,2022-12-18 06:25:15
Arbys,2100-F Standiford Ave,,MODESTO,CA,95350,US,37.68940735,-121.03216553,2022-12-18 06:25:19
Arbys,1553 Colony Rd,,RIPON,CA,95366-9419,US,37.75563812,-121.14170074,2022-12-18 06:25:19
Arbys,6248 Pacific Ave,,STOCKTON,CA,95207-3712,US,38.0072937,-121.318573,2022-12-18 06:25:17
Arbys,4445 Central Place,,FAIRFIELD,CA,94534,US,38.22105026,-122.12572479,2022-12-18 07:39:41
Arbys,4799 Redwood Dr,,ROHNERT PARK,CA,94928,US,38.36626053,-122.7140274,2022-12-18 07:39:41
Arbys,15244 N. Thornton Rd.,,LODI,CA,95242,US,38.11780548,-121.39199829,2022-12-18 06:25:15
Arbys,461 Skymaster Circle,BLDG 648,TRAVIS AIR FORCE BASE,CA,94535,US,38.26963043,-121.9493866,2022-12-18 07:39:41
Arbys,8511 Elk Grove Blvd.,,Elk Grove,CA,95624,US,38.40964508,-121.38755798,2022-12-18 06:25:16
Arbys,85 West Court St.,,Woodland,CA,95695,US,38.67849731,-121.78768158,2022-12-18 06:25:15
Arbys,2238 Arden Way,,SACRAMENTO,CA,95825,US,38.59574127,-121.41360474,2022-12-13 15:33:55
Arbys,3090 Sunrise Blvd,,RANCHO CORDOVA,CA,95670,US,38.59070206,-121.26613617,2022-12-13 15:33:55
Arbys,5845 Madison Ave,,SACRAMENTO,CA,95841-4803,US,38.66109085,-121.32810974,2022-12-18 06:25:16
Arbys,4301 Elkhorn Blvd,,SACRAMENTO,CA,95842,US,38.69513702,-121.36167145,2022-12-13 15:33:55
Arbys,4400 Rocklin Rd,,ROCKLIN,CA,95677,US,38.78816605,-121.22585297,2022-12-18 06:25:16
Arbys,2485 Notre Dame Blvd,,CHICO,CA,95928,US,39.71647263,-121.79412842,2022-12-18 07:39:41
Arbys,1122 S Carson St,,CARSON CITY,NV,89701-5232,US,39.15672302,-119.76732635,2022-12-18 06:25:17
Arbys,3524 S Hwy 99 W,,CORNING,CA,96021,US,39.90676498,-122.1975174,2022-12-18 07:39:41
Arbys,2899 Northtowne Lane,,RENO,NV,89512,US,39.55582047,-119.7841568,2022-12-18 06:25:17
Arbys,1065 S Main St,,RED BLUFF,CA,96080,US,40.16155243,-122.22907257,2022-12-18 07:39:41
Arbys,825 Commerce Center Dr,,FERNLEY,NV,89408,US,39.6179924,-119.26730347,2022-12-18 06:25:17
Arbys,41 E. Stewart Ave,,MEDFORD,OR,97501,US,42.3132515,-122.8600769,2022-12-18 06:25:16
Arbys,2233 Biddle Road,,Medford,OR,97504,US,42.34916306,-122.87439728,2022-12-18 06:25:16
Arbys,2759 S 6th St,,KLAMATH FALLS,OR,97603,US,42.21080399,-121.75506592,2022-12-18 06:25:16
Arbys,140 Ne Terry Ln,,GRANTS PASS,OR,97526,US,42.43514633,-123.3033905,2022-12-13 15:33:53
Arbys,280 Grant Smith Rd,,ROSEBURG,OR,97470-4560,US,43.14995956,-123.36676788,2022-12-16 15:27:38
Arbys,810 Row River Rd.,,COTTAGE GROVE,OR,97424,US,43.80084991,-123.03939056,2022-12-18 06:25:20
Arbys,3865 W 11th Ave,,EUGENE,OR,97402-3057,US,44.04850769,-123.15454102,2022-12-18 06:25:20
Arbys,4252 Main Street,,SPRINGFIELD,OR,97478,US,44.04615784,-122.96214294,2022-12-18 06:25:20
Arbys,35 Silver Lane,,EUGENE,OR,97402,US,44.09614182,-123.12877655,2022-12-18 06:25:18
Arbys,2411 Mountain City Hwy,,ELKO,NV,89801,US,40.8373642,-115.791008,2022-12-16 15:27:54
Arbys,1200 W Wendover Blvd,,WEST WENDOVER,NV,89883,US,40.74103546,-114.07798767,2022-12-16 15:27:55
Arbys,251 S Main St,,TOOELE,UT,84074-2743,US,40.52574539,-112.29803467,2022-12-18 07:39:41
Arbys,46 West Pioneer Crossing,,SARATOGA SPRINGS,UT,84045,US,40.37257004,-111.9175415,2022-12-18 07:39:41
Arbys,1420 Ivy St,,JUNCTION CITY,OR,97448,US,44.22629166,-123.20470428,2022-12-18 06:25:18
Arbys,535 Se 3rd St,,BEND,OR,97701,US,44.04441071,-121.30290222,2022-12-16 15:27:38
Arbys,2076 S Hwy 97,,REDMOND,OR,97756,US,44.25680542,-121.18047333,2022-12-18 06:25:21
Arbys,2503 Nw 9th St,,CORVALLIS,OR,97330,US,44.59296036,-123.25196075,2022-12-18 06:25:16
Arbys,910 S Geary St,,ALBANY,OR,97321,US,44.63300323,-123.08381653,2022-12-18 06:25:16
Arbys,6457 Old Salem Rd.,,ALBANY,OR,97321,US,44.69730759,-123.0565567,2022-12-18 06:25:16
Arbys,4990 Commercial St SE,,SALEM,OR,97306,US,44.88331985,-123.03046417,2022-12-18 06:25:16
Arbys,940 Lancaster Dr NE,,SALEM,OR,97301-2931,US,44.94297409,-122.9829483,2022-12-18 06:25:16
Arbys,4510 River Rd N,,KEIZER,OR,97303,US,44.99007797,-123.02610016,2022-12-18 06:25:16
Arbys,275 N Arney Rd,,WOODBURN,OR,97071-8455,US,45.15259552,-122.8815918,2022-12-18 06:25:16
Arbys,8580 Commerce Dr,,Lake Point,UT,84074,US,40.6849556,-112.27017212,2022-12-18 07:39:41
Arbys,3643 W. 13400 South,,RIVERTON,UT,84065,US,40.50736237,-111.97789001,2022-12-18 07:39:41
Arbys,3650 North Thanksgiving Way,,LEHI,UT,84043,US,40.4332695,-111.89363098,2022-12-18 07:39:41
Arbys,5414 West Daybreak Pkwy,SUITE C6,SOUTH JORDAN,UT,84009,US,40.53805542,-112.01992798,2022-12-18 07:39:41
Arbys,937 W State Rd,,AMERICAN FORK,UT,84003-3379,US,40.36676407,-111.75419617,2022-12-18 07:39:41
Arbys,450 E State Rd,,AMERICAN FORK,UT,84003-2559,US,40.37423325,-111.78668976,2022-12-18 07:39:41
Arbys,1150 S State St,,OREM,UT,84097-8230,US,40.276474,-111.68593597,2022-12-18 06:25:18
Arbys,3575 S. 8400 W,,MAGNA,UT,84044,US,40.69500351,-112.0909729,2022-12-18 07:39:41
Arbys,210 W 1230 N,,PROVO,UT,84604-2534,US,40.25088882,-111.66246033,2022-12-18 06:25:13
Arbys,6095 South 5600 West,,KEARNS,UT,84118,US,40.64037323,-112.02383423,2022-12-18 07:39:41
Arbys,910 State St,,OREM,UT,84057-3151,US,40.31352615,-111.70207214,2022-12-18 07:39:41
Arbys,593 N State St,,LINDON,UT,84042-1339,US,40.34948349,-111.72972107,2022-12-18 07:39:41
Arbys,2819 W 7800 S,,WEST JORDAN,UT,84088-3703,US,40.60865021,-111.96006775,2022-12-18 07:39:41
Arbys,1410 W 9000 S,,WEST JORDAN,UT,84088-9218,US,40.58824158,-111.93196106,2022-12-18 07:39:41
Arbys,1257 Draper Pkwy,,DRAPER,UT,84020-9098,US,40.52872086,-111.85552979,2022-12-18 07:39:41
Arbys,3535 S 5600 W,,WEST VALLEY CITY,UT,84120-2733,US,40.69579315,-112.02427673,2022-12-18 07:39:41
Arbys,129 W 9000 S,,SANDY,UT,84070-2004,US,40.58821869,-111.8864212,2022-12-18 07:39:41
Arbys,7121 Brigham Junction Blvd.,,MIDVALE,UT,84047,US,40.62208557,-111.91112518,2022-12-18 07:39:41
Arbys,10273 S 1300 E,,SANDY,UT,84091,US,40.56510925,-111.85254669,2022-12-18 07:39:41
Arbys,1870 W 5400 S,,TAYLORSVILLE,UT,84118-1458,US,40.65348053,-111.94223022,2022-12-18 07:39:41
Arbys,4663 S 2700 W,,TAYLORSVILLE,UT,84129,US,40.66856766,-111.95748138,2022-12-18 07:39:41
Arbys,3215 W 3500 S,,WEST VALLEY CITY,UT,84119-2631,US,40.69631958,-111.96804047,2022-12-18 07:39:41
Arbys,741 E Fort Union Blvd,,MIDVALE,UT,84047,US,40.6216507,-111.87034607,2022-12-18 07:39:41
Arbys,5830 S State St,,MURRAY,UT,84107-6135,US,40.62942886,-111.89027405,2022-12-18 07:39:41
Arbys,1685 S Redwood Rd,,SALT LAKE CITY,UT,84104-5115,US,40.73359299,-111.93834686,2022-12-18 07:39:41
Arbys,4673 S 900 E,,SALT LAKE CITY,UT,84117-4879,US,40.66851807,-111.86470795,2022-12-18 07:39:41
Arbys,3430 S State St,,SALT LAKE CITY,UT,84115-4516,US,40.69678497,-111.88892365,2022-12-18 07:39:41
Arbys,25 N. Redwood Rd,,SALT LAKE CITY,UT,84116,US,40.76991653,-111.94023132,2022-12-18 07:39:41
Arbys,1650 S State St,,SALT LAKE CITY,UT,84115-1906,US,40.73371506,-111.88863373,2022-12-18 07:39:41
Arbys,2284 E 3900 St S,,SALT LAKE CITY,UT,84124-1867,US,40.6867981,-111.82504272,2022-12-18 07:39:41
Arbys,420 E 400 S,,SALT LAKE CITY,UT,84111-3004,US,40.76031113,-111.87877655,2022-12-18 07:39:41
Arbys,2489 S Main St,,BOUNTIFUL,UT,84010,US,40.86261749,-111.89502716,2022-12-18 07:39:41
Arbys,1245 S Main St,,HEBER,UT,84032-3756,US,40.49252701,-111.4122467,2022-12-18 07:39:41
Arbys,355 N 800 W,,CENTERVILLE,UT,84014-1744,US,40.92055893,-111.8895874,2022-12-18 07:39:41
Arbys,6500 Landmark Dr,,PARK CITY,UT,84098-4500,US,40.72548676,-111.54594421,2022-12-13 15:33:58
Arbys,1766 South 2000 West,,SYRACUSE,UT,84075,US,41.08825302,-112.06512451,2022-12-18 07:39:41
Arbys,375 N Lagoon Drive,Lagoon Amsmt Pk #2 Op House Square,FARMINGTON,UT,84025,US,40.98502731,-111.89389801,2022-12-18 07:39:41
Arbys,375 Lagoon Dr,LAGOON AMUSEMENT PARK,FARMINGTON,UT,84025-2554,US,40.98502731,-111.89389801,2022-12-18 07:39:41
Arbys,225 N 400 W,,KAYSVILLE,UT,84037-1800,US,41.03855133,-111.94658661,2022-12-18 07:39:41
Arbys,2030 N Main St,ANTELOPE SQUARE,LAYTON,UT,84041-4942,US,41.09046173,-112.00192261,2022-12-18 07:39:41
Arbys,987 N Fairfield,,LAYTON,UT,84040,US,41.07419968,-111.95059204,2022-12-18 07:39:41
Arbys,1896 North 2000 West,,CLINTON,UT,84015,US,41.14147186,-112.06388092,2022-12-18 07:39:41
Arbys,5845 E Ave. Bldg. 412,,HILL AFB,UT,84056,US,41.1125679,-111.98448181,2022-12-18 07:39:41
Arbys,5424 S 1900 W,,ROY,UT,84067-2909,US,41.16442108,-112.0255127,2022-12-18 07:39:41
Arbys,4180 Midland Drive,,Roy,UT,84067,US,41.18792343,-112.05031586,2022-12-18 07:39:41
Arbys,760 W. Riverdale Road,,RIVERDALE,UT,84405,US,41.17988586,-111.99729156,2022-12-18 07:39:41
Arbys,4740 Harrison Blvd,,OGDEN,UT,84403-4305,US,41.17733002,-111.94873047,2022-12-18 07:39:41
Arbys,3385 Washington Blvd,,OGDEN,UT,84401-4105,US,41.20222092,-111.97133636,2022-12-18 07:39:41
Arbys,275 E. 12th Street,,OGDEN,UT,84404,US,41.24399948,-111.97315979,2022-12-18 07:39:41
Arbys,1814 W 2700 N,,FARR WEST,UT,84404-1268,US,41.30706787,-112.02262878,2022-12-18 06:25:14
Arbys,2575 Ne Highway 99 W,,MCMINNVILLE,OR,97128-9221,US,45.22943878,-123.17132568,2022-12-18 06:25:16
Arbys,8175 Sw Hall Blvd,,BEAVERTON,OR,97005,US,45.46094894,-122.79600525,2022-12-18 06:25:16
Arbys,10499 Se 82 Ave,,HAPPY VALLEY,OR,97266,US,45.44726562,-122.57933044,2022-12-18 06:25:16
Arbys,2820 Sw Cedar Hills Blvd.,,BEAVERTON,OR,97005,US,45.49958038,-122.80659485,2022-12-18 06:25:16
Arbys,7370 Ne Butler St,,HILLSBORO,OR,97124,US,45.53715134,-122.9019165,2022-12-18 06:25:16
Arbys,10071 Se Washington,,PORTLAND,OR,97216,US,45.51869965,-122.55943298,2022-12-18 06:25:16
Arbys,520 Ne Burnside,,GRESHAM,OR,97030,US,45.50717926,-122.42547607,2022-12-18 06:25:16
Arbys,12035 Ne Halsey,,PORTLAND,OR,97220,US,45.53381348,-122.53896332,2022-12-18 06:25:16
Arbys,3171 North Lombard Street,,PORTLAND,OR,97217,US,45.57740021,-122.69943237,2022-12-18 06:25:16
Arbys,1184 NW FRONTAGE RD,,TROUTDALE,OR,97060,US,45.54389954,-122.39900208,2022-12-18 06:25:16
Arbys,221 Ne 104 Avenue,,VANCOUVER,WA,98664,US,45.62264252,-122.56455231,2022-12-18 06:25:16
Arbys,7117 Ne Fourth Plain Blvd,,VANCOUVER,WA,98661-7322,US,45.64466476,-122.59970856,2022-12-18 06:25:16
Arbys,1156 Washington Way,,LONGVIEW,WA,98632-4034,US,46.14238739,-122.93267822,2022-12-18 06:25:20
Arbys,611 12th Avenue Road,,Nampa,ID,83686,US,43.56298065,-116.573349,2022-12-18 06:25:21
Arbys,1360 Nampa Caldwell Blvd,,NAMPA,ID,83651-1724,US,43.60216522,-116.59751129,2022-12-18 06:25:22
Arbys,1050 Hwy 20,,MOUNTAIN HOME,ID,83647,US,43.14178848,-115.66307831,2022-12-18 06:25:19
Arbys,1270 N Eagle Rd,,MERIDIAN,ID,83642,US,43.61645126,-116.35382843,2022-12-18 06:25:22
Arbys,989 N Milwaukee,,BOISE,ID,83704,US,43.61381531,-116.28472137,2022-12-18 06:25:22
Arbys,3500 S Findley Ave,,BOISE,ID,83705,US,43.57020187,-116.18780518,2022-12-18 06:25:22
Arbys,2892 East State St.,,EAGLE,ID,83616,US,43.68442154,-116.31803131,2022-12-18 06:25:18
Arbys,424 Blue Lakes Blvd. N,,TWIN FALLS,ID,83301,US,42.56889343,-114.45983124,2022-12-18 06:25:22
Arbys,594 N Overland Ave.,,BURLEY,ID,83318,US,42.56267166,-113.79294586,2022-12-16 15:27:55
Arbys,2560 North 400 East,,North Ogden,UT,84414,US,41.30294418,-111.96822357,2022-12-18 06:25:14
Arbys,774 South Main Street,,BRIGHAM CITY,UT,84302,US,41.49422455,-112.01659393,2022-12-18 06:25:14
Arbys,5175 W 9600 N,,ELWOOD,UT,84337,US,41.68254089,-112.14045715,2022-12-18 06:25:14
Arbys,1153 South 100 W.,,LOGAN,UT,84321,US,41.71125412,-111.8394165,2022-12-13 15:33:56
Arbys,1230 N Main St,CACHE VALLEY MALL,LOGAN,UT,84341-2220,US,41.75559235,-111.83382416,2022-12-18 06:25:14
Arbys,950  South Main St,,Smithfield,UT,84335,US,41.8173027,-111.83310699,2022-12-18 06:25:14
Arbys,158 Front St,,EVANSTON,WY,82930-3671,US,41.26275253,-110.95650482,2022-12-18 06:25:14
Arbys,166 N 200 E,,ROOSEVELT,UT,84066,US,40.301548,-109.98946381,2022-12-13 15:34:03
Arbys,653 E Idaho Ave,,ONTARIO,OR,97914,US,44.02574921,-116.95262909,2022-12-18 06:25:18
Arbys,1206 Belmont Ave,,CENTRALIA,WA,98531-1803,US,46.72999954,-122.97926331,2022-12-18 06:25:09
Arbys,"19615 Elderberry Street, Suite B",,ROCHESTER,WA,98579,US,46.80344772,-123.01226044,2022-12-18 06:25:09
Arbys,4002 Summitview Avenue,,YAKIMA,WA,98908,US,46.59959412,-120.5622406,2022-12-18 06:25:09
Arbys,2528 Harrison Ave NW,,OLYMPIA,WA,98502,US,47.04644394,-122.93320465,2022-12-18 06:25:09
Arbys,532 Sleater-Kinney Rd,,LACEY,WA,98503,US,47.04361343,-122.83337402,2022-12-18 06:25:09
Arbys,1310 N Columbia Center Blvd.,,KENNEWICK,WA,99336,US,46.22519684,-119.2230835,2022-12-18 06:25:20
Arbys,3506 W Clearwater Ave,,KENNEWICK,WA,99336-2729,US,46.21267319,-119.16912079,2022-12-18 06:25:20
Arbys,3746 Railroad Avenue,,JBLM,WA,98433,US,47.07661057,-122.59142303,2022-12-18 06:25:17
Arbys,20517 Mountain Hwy East,,SPANAWAY,WA,98387,US,47.07083511,-122.41702271,2022-12-18 06:25:17
Arbys,1051 George Washington Way,,RICHLAND,WA,99352-3515,US,46.28191757,-119.27436066,2022-12-18 06:25:20
Arbys,5115 Road 68,,PASCO,WA,99301,US,46.27383804,-119.18441772,2022-12-18 06:25:20
Arbys,12670 32nd Div Dr.,,FT. LEWIS,WA,98433,US,47.12901688,-122.60725403,2022-12-18 06:25:17
Arbys,504 Barnes Blvd,Bldg 5280-Bx,McChord AFB,WA,98438,US,47.12720108,-122.49578094,2022-12-18 06:25:17
Arbys,15021 Pacific Ave S,,TACOMA,WA,98444,US,47.12062073,-122.43434906,2022-12-18 06:25:17
Arbys,791 Yellowstone Ave,,POCATELLO,ID,83201,US,42.88937378,-112.45178986,2022-12-18 06:25:21
Arbys,4501 Yellowstone Avenue,,CHUBBUCK,ID,83202,US,42.91474915,-112.46684265,2022-12-18 06:25:21
Arbys,1243 Parkway Drive,,BLACKFOOT,ID,83221,US,43.19665527,-112.35848999,2022-12-18 07:39:41
Arbys,9824 Gravelly Lake Dr SW,,TACOMA,WA,98499-1704,US,47.16744995,-122.52099609,2022-12-13 15:33:53
Arbys,12528 Meridian E,,PUYALLUP,WA,98373-3414,US,47.14202499,-122.29315948,2022-12-18 06:25:17
Arbys,2612 S 38 St,,TACOMA,WA,98409,US,47.22224808,-122.47225189,2022-12-13 15:33:53
Arbys,5002 Pacific Hwy E,,FIFE,WA,98424-2608,US,47.24269104,-122.36187744,2022-12-18 06:25:17
Arbys,"34404 16th Avenue, South",,FEDERAL WAY,WA,98003,US,47.2932663,-122.31283569,2022-12-18 06:25:17
Arbys,140 15th St NE,,AUBURN,WA,98002-1606,US,47.32050323,-122.22756958,2022-12-18 06:25:17
Arbys,1404 South Canyon Road,,ELLENSBURG,WA,98926-9101,US,46.97940826,-120.54405975,2022-12-18 06:25:09
Arbys,1307 North Dolarway Rd,,Ellensburg,WA,98926,US,47.00536346,-120.58662415,2022-12-18 06:25:09
Arbys,17037 Se 272nd Street,,KENT,WA,98042-4948,US,47.3577919,-122.11390686,2022-12-18 06:25:17
Arbys,6610 South 211th St.,,KENT,WA,98032,US,47.41288376,-122.25205231,2022-12-13 15:33:53
Arbys,15822 First Ave S,,BURIEN,WA,98148,US,47.46130371,-122.33351135,2022-12-13 15:33:53
Arbys,248 Thain Rd,,LEWISTON,ID,83501,US,46.38370514,-116.98139191,2022-12-13 15:33:53
Arbys,517 2nd St,,CLARKSTON,WA,99403,US,46.41939163,-117.03984833,2022-12-13 15:33:53
Arbys,2117 8th Ave,,LEWISTON,ID,83501,US,46.41282654,-117.00100708,2022-12-13 15:33:53
Arbys,1547 W Broadway,,IDAHO FALLS,ID,83402,US,43.49631119,-112.0606308,2022-12-18 07:39:41
Arbys,2130 E 17th St,,IDAHO FALLS,ID,83404-6465,US,43.48189926,-111.99147034,2022-12-18 07:39:41
Arbys,445 N Farnsworth Way,Ste B,Rigby,ID,83442,US,43.68097687,-111.90818787,2022-12-13 15:33:59
Arbys,478 N 2nd E,,REXBURG,ID,83440,US,43.83614731,-111.777565,2022-12-13 15:33:59
Arbys,1899 Dewar Dr,,ROCK SPRINGS,WY,82901,US,41.57502747,-109.25055695,2022-12-18 06:25:21
Arbys,415 Clayton Hwy,,RATON,NM,87740,US,36.88538742,-104.43438721,2022-12-16 15:27:55
Arbys,101 MCCULLOCH BLVD.,,PUEBLO WEST,CO,81007,US,38.33259964,-104.74500275,2022-12-18 07:39:41
Arbys,3800 West Northern Avenue,,PUEBLO,CO,81005,US,38.23645782,-104.65991974,2022-12-18 07:39:41
Arbys,719 W Us Highway 50,,PUEBLO,CO,81008-1603,US,38.30840302,-104.61785889,2022-12-18 07:39:41
Arbys,1900 Mountain Rd,,TUCUMCARI,NM,88401,US,35.15883636,-103.70137024,2022-12-18 06:25:13
Arbys,1804 Prussman Blvd.,Bldg 1534,FORT CARSON,CO,80913,US,38.74025726,-104.78604889,2022-12-18 07:39:41
Arbys,1680 E Cheyenne Mountain Blvd,,COLORADO SPRINGS,CO,80906,US,38.79427719,-104.80166626,2022-12-18 07:39:41
Arbys,7010 Mesa Ridge Parkway,,FOUNTAIN,CO,80817,US,38.71845245,-104.69689178,2022-12-18 07:39:41
Arbys,393 S Eighth St,,COLORADO SPRINGS,CO,80905,US,38.8290329,-104.84025574,2022-12-18 07:39:41
Arbys,331 South Nevada Ave,,COLORADO SPRINGS,CO,80903,US,38.82852173,-104.82163239,2022-12-18 07:39:41
Arbys,407 E. Highway 24,,WOODLAND PARK,CO,80863,US,38.99088287,-105.04886627,2022-12-18 07:39:41
Arbys,328 E Fillmore St,,COLORADO SPRINGS,CO,80907,US,38.87467575,-104.81532288,2022-12-18 07:39:41
Arbys,615 Garden Of The Gods Rd.,,COLORADO SPRINGS,CO,80907,US,38.89629745,-104.83486938,2022-12-18 07:39:41
Arbys,1312 N Academy Blvd,,COLORADO SPRINGS,CO,80909,US,38.85172272,-104.75778961,2022-12-18 07:39:41
Arbys,5710 North Academy Blvd.,,COLORADO SPRINGS,CO,80918,US,38.91329575,-104.78844452,2022-12-18 07:39:41
Arbys,5870 Stetson Hills Blvd,,COLORADO SPRINGS,CO,80922-3563,US,38.91219711,-104.71805573,2022-12-18 07:39:41
Arbys,9657 Prominent Point,,COLORADO SPRINGS,CO,80924,US,38.97008133,-104.7423172,2022-12-18 07:39:41
Arbys,15455 Terazzo Drive,,MONUMENT,CO,80132,US,39.05580521,-104.85284424,2022-12-18 07:39:41
Arbys,540 Hwy 105,,MONUMENT,CO,80132,US,39.0933342,-104.83647919,2022-12-18 07:39:41
Arbys,742 Genoa Way,,CASTLE ROCK,CO,80109,US,39.409935,-104.8704071,2022-12-18 06:25:17
Arbys,8144 S Kipling Pkwy.,,LITTLETON,CO,80127-3974,US,39.56872559,-105.10938263,2022-12-18 06:25:17
Arbys,2111 N Prince St,,CLOVIS,NM,88101-4453,US,34.42064285,-103.19604492,2022-12-18 06:25:13
Arbys,161 W. Mineral Ave.,,LITTLETON,CO,80120,US,39.57381821,-104.9907074,2022-12-18 06:25:17
Arbys,12245 Lioness Way,,PARKER,CO,80134,US,39.53567886,-104.84676361,2022-12-18 06:25:17
Arbys,7455 Park Meadows Dr.,,LONE TREE,CO,80124,US,39.56175232,-104.90361786,2022-12-18 06:25:17
Arbys,5685 S Broadway,,LITTLETON,CO,80121,US,39.61381912,-104.98842621,2022-12-18 06:25:17
Arbys,9831 S Parker Rd,,PARKER,CO,80134,US,39.53881454,-104.7696228,2022-12-18 06:25:17
Arbys,6626 South Yosemite Court,,GREENWOOD VILLAGE,CO,80111,US,39.59636307,-104.88719177,2022-12-18 06:25:17
Arbys,7637 W Jewell,,LAKEWOOD,CO,80232,US,39.68252182,-105.0826416,2022-12-18 06:25:17
Arbys,14475 E. Arapahoe Rd.,,AURORA,CO,80016,US,39.59568787,-104.82067871,2022-12-18 06:25:17
Arbys,6925 W Alameda Avenue,,LAKEWOOD,CO,80226,US,39.71153259,-105.07359314,2022-12-18 06:25:17
Arbys,8850 E Hampden Ave,,DENVER,CO,80231,US,39.65265274,-104.88527679,2022-12-18 06:25:17
Arbys,11611 W Colfax Ave,,LAKEWOOD,CO,80215,US,39.74061966,-105.12875366,2022-12-18 06:25:17
Arbys,1480 S Colorado Blvd,,DENVER,CO,80222,US,39.68965149,-104.94002533,2022-12-18 06:25:17
Arbys,4350 S Buckley Rd,,AURORA,CO,80015-2728,US,39.63759232,-104.79104614,2022-12-18 06:25:17
Arbys,6441 W Colfax Ave,,LAKEWOOD,CO,80214,US,39.74074936,-105.06647491,2022-12-18 06:25:17
Arbys,2260 South Parker Rd.,,DENVER,CO,80247,US,39.67579651,-104.87135315,2022-12-18 06:25:17
Arbys,4363 Sheridan Blvd,,DENVER,CO,80212,US,39.77593231,-105.05357361,2022-12-18 06:25:17
Arbys,1099 S Blackhawk St,,AURORA,CO,80012,US,39.69721222,-104.82432556,2022-12-18 06:25:17
Arbys,5800 Wadsworth Blvd,,ARVADA,CO,80003,US,39.80222702,-105.08106232,2022-12-18 06:25:17
Arbys,3740 Quebec St,,DENVER,CO,80207-1600,US,39.76916504,-104.90154266,2022-12-18 06:25:17
Arbys,7990 Wadsworth Blvd,,ARVADA,CO,80003,US,39.84131241,-105.08117676,2022-12-18 06:25:17
Arbys,7055 N Federal,,WESTMINSTER,CO,80030,US,39.82400894,-105.02548981,2022-12-18 06:25:17
Arbys,5995 Dexter St,,COMMERCE CITY,CO,80022,US,39.80472565,-104.93217468,2022-12-18 06:25:17
Arbys,4390 N. Peoria St.,,DENVER,CO,80239,US,39.77642441,-104.84642029,2022-12-18 06:25:17
Arbys,5130 W 92 Ave,,WESTMINSTER,CO,80031,US,39.86325073,-105.05187988,2022-12-18 06:25:17
Arbys,501 E 84th Ave.,,THORNTON,CO,80229,US,39.84935379,-104.98117065,2022-12-18 06:25:17
Arbys,18408 East 47th Avenue,,DENVER,CO,80249,US,39.78156281,-104.77281189,2022-12-18 06:25:17
Arbys,2221 W 6th St,,LIMON,CO,80828,US,39.26889801,-103.70886993,2022-12-18 06:25:21
Arbys,8950 Metro Airport Ave.,,BROOMFIELD,CO,80020,US,39.90787888,-105.09697723,2022-12-18 06:25:17
Arbys,850 West 104th Ave.,,NORTHGLENN,CO,80234,US,39.88458633,-104.99816895,2022-12-18 06:25:17
Arbys,7222 I-40 West,,AMARILLO,TX,79108,US,35.93230057,-84.02579498,2022-12-16 15:27:50
Arbys,3903 E 120th Ave,,THORNTON,CO,80233,US,39.9143219,-104.94128418,2022-12-18 06:25:17
Arbys,5214 S Western St,,AMARILLO,TX,79109-6184,US,35.15181351,-101.88424683,2022-12-18 06:25:20
Arbys,200 East 144th Ave.,,THORNTON,CO,80023,US,39.95688248,-104.98347473,2022-12-18 06:25:17
Arbys,2020 S Ross St,,AMARILLO,TX,79103,US,35.1897316,-101.81710815,2022-12-18 06:25:20
Arbys,650 N. Highway 287,,LAFAYETTE,CO,80026,US,40.00424576,-105.10209656,2022-12-18 06:25:17
Arbys,2133 Prairie Center Pkwy,,BRIGHTON,CO,80601,US,39.9557991,-104.77732086,2022-12-18 06:25:17
Arbys,15190 Brighton Rd,,BRIGHTON,CO,80601-7304,US,39.97198105,-104.82797241,2022-12-18 06:25:17
Arbys,5711 19th Street,,LUBBOCK,TX,79407,US,33.57742691,-101.93730164,2022-12-18 06:25:17
Arbys,6910 82nd St,,Lubbock,TX,79424,US,33.52013016,-101.96552277,2022-12-18 06:25:16
Arbys,620 N Kansas Ave,,LIBERAL,KS,67901,US,37.04463959,-100.92271423,2022-12-16 15:27:54
Arbys,4020 82nd Street,,LUBBOCK,TX,79423,US,33.52016068,-101.90109253,2022-12-18 06:25:16
Arbys,1719 E Kansas Plaza,,GARDEN CITY,KS,67846,US,37.97537613,-100.85145569,2022-12-18 06:25:21
Arbys,300 S Lincoln St,,BURLINGTON,CO,80807,US,39.29820633,-102.27824402,2022-12-18 06:25:17
Arbys,10809 Turner Blvd,,LONGMONT,CO,80504,US,40.15862274,-104.98162079,2022-12-18 06:25:17
Arbys,2150 N Main St,,LONGMONT,CO,80501,US,40.19791794,-105.10193634,2022-12-18 06:25:17
Arbys,2301 Avenue F NW,,CHILDRESS,TX,79201,US,34.43515396,-100.23075104,2022-12-18 06:25:17
Arbys,805 W Wyatt Earp Blvd,,DODGE CITY,KS,67801-4251,US,37.75296402,-100.02541351,2022-12-18 06:25:21
Arbys,2323 Williams,,WOODWARD,OK,73801,US,36.42328262,-99.3901825,2022-12-16 15:27:48
Arbys,2515 Enterprise Rd,,GOODLAND,KS,67735,US,39.33035278,-101.72546387,2022-12-18 06:25:17
Arbys,2105 S Main St,,ELK CITY,OK,73644-9114,US,35.3910141,-99.40507507,2022-12-16 15:27:54
Arbys,1201 N Main St,,ALTUS,OK,73521,US,34.65006638,-99.33429718,2022-12-16 15:27:51
Arbys,2005 S Range Ave,,COLBY,KS,67701-4015,US,39.36679459,-101.05371857,2022-12-18 07:39:41
Arbys,905 E Main Street,,WEATHERFORD,OK,73096-5641,US,35.52627945,-98.69706726,2022-12-16 15:27:54
Arbys,1735 E 1st Street,,PRATT,KS,67124,US,37.6452446,-98.7168045,2022-12-16 15:27:54
Arbys,4002 Nw Cache Rd,,LAWTON,OK,73505-3634,US,34.62297058,-98.44339752,2022-12-16 15:27:49
Arbys,1 Nw Sheridan Rd,,LAWTON,OK,73505-6303,US,34.60918427,-98.42183685,2022-12-16 15:27:49
Arbys,1822 N Midland Dr,,MIDLAND,TX,79707,US,32.00358963,-102.13703156,2022-12-18 06:25:22
Arbys,3413 10th St,,GREAT BEND,KS,67530-3536,US,38.36135483,-98.78580475,2022-12-16 15:27:54
Arbys,3501 Vine Street,,HAYS,KS,67601-1952,US,38.89450455,-99.31858826,2022-12-16 15:27:40
Arbys,2300 S Country Club Rd,,EL RENO,OK,73036,US,35.51227951,-97.97314453,2022-12-16 15:27:48
Arbys,3836 W Owen K Garriott Rd,,ENID,OK,73703-4915,US,36.39128494,-97.92556763,2022-12-16 15:27:47
Arbys,9418 North I-20,,SWEETWATER,TX,79556,US,32.45093918,-100.44108582,2022-12-18 06:25:16
Arbys,3805 Andrews Hwy,,ODESSA,TX,79762,US,31.88061905,-102.38471985,2022-12-18 06:25:22
Arbys,1617 East Eisenhower Blvd.,,LOVELAND,CO,80537,US,40.40794373,-105.05286407,2022-12-18 06:25:17
Arbys,4806 Larimer Pkwy,,Johnstown,CO,80534,US,40.40567017,-104.97396088,2022-12-18 06:25:17
Arbys,6435 Crossroads Blvd.,,Windsor,CO,80550,US,40.43601608,-104.97921753,2022-12-18 06:25:17
Arbys,7601 Westgate Drive,,FORT COLLINS,CO,80528-9363,US,40.47889328,-104.98924255,2022-12-18 06:25:17
Arbys,3460 S College Ave,,FORT COLLINS,CO,80525,US,40.53984833,-105.07659149,2022-12-18 06:25:17
Arbys,4413 Centerplace Dr.,,GREELEY,CO,80634,US,40.39547348,-104.75047302,2022-12-18 06:25:17
Arbys,3010 W Tenth St,,GREELEY,CO,80634,US,40.42241669,-104.72953796,2022-12-18 06:25:17
Arbys,1872 North College Ave.,,FT. COLLINS,CO,80524,US,40.61275864,-105.07615662,2022-12-18 06:25:17
Arbys,1218 N Main St,,FORT MORGAN,CO,80701,US,40.26203537,-103.8004837,2022-12-13 15:34:02
Arbys,905 W Main St,,STERLING,CO,80751-2827,US,40.62491608,-103.22581482,2022-12-13 15:33:57
Arbys,900 West B St,,MCCOOK,NE,69001,US,40.19842529,-100.63887787,2022-12-18 07:39:41
Arbys,2148 Grand Ave,,LARAMIE,WY,82070,US,41.30918884,-105.56543732,2022-12-18 06:25:17
Arbys,3228 W. College Dr,,CHEYENNE,WY,82007,US,41.09977341,-104.84715271,2022-12-18 06:25:17
Arbys,310 E. Lincolnway,,CHEYENNE,WY,82001-4602,US,41.13444901,-104.81162262,2022-12-18 06:25:17
Arbys,5250 Yellowstone Rd,,CHEYENNE,WY,82009-4782,US,41.1680069,-104.82918549,2022-12-13 15:34:00
Arbys,829 Old Post Rd,,SIDNEY,NE,69162,US,41.11647034,-102.94802856,2022-12-18 07:39:41
Arbys,65 River Rd,,OGALLALA,NE,69153,US,41.1203804,-101.71490479,2022-12-18 06:25:19
Arbys,1101 S Dewey St,,NORTH PLATTE,NE,69101-6122,US,41.12400055,-100.76259613,2022-12-13 15:34:06
Arbys,2508 Plum Creek Pkwy,,LEXINGTON,NE,68850-2814,US,40.75000763,-99.73881531,2022-12-18 06:25:18
Arbys,91 16th St,,WHEATLAND,WY,82201,US,42.04799271,-104.96414185,2022-12-18 06:25:18
Arbys,128 West Valley Rd,,TORRINGTON,WY,82240,US,42.06342316,-104.18534851,2022-12-18 07:39:41
Arbys,601 W 27th St,,SCOTTSBLUFF,NE,69361,US,41.87435913,-103.67095947,2022-12-18 07:39:41
Arbys,355 N Russell Ave,,DOUGLAS,WY,82633,US,42.76251602,-105.40309906,2022-12-18 06:25:09
Arbys,2407 Cy Ave,,CASPER,WY,82604-3434,US,42.82922745,-106.35295868,2022-12-18 06:25:09
Arbys,80 Se Wyoming Blvd,,CASPER,WY,82609,US,42.85116959,-106.27149963,2022-12-18 06:25:09
Arbys,1324 West 3rd St,,ALLIANCE,NE,69301,US,42.09727859,-102.8915329,2022-12-18 07:39:41
Arbys,440 West 3rd St,,CHADRON,NE,69337,US,42.83012772,-103.00592804,2022-12-18 06:25:21
Arbys,819 S Second Ave,,KEARNEY,NE,68847,US,40.65857315,-99.08613586,2022-12-16 15:27:49
Arbys,100 W 56th St,,KEARNEY,NE,68847,US,40.72786713,-99.08205414,2022-12-16 15:27:49
Arbys,1140 W Main St,,RIVERTON,WY,82501,US,43.02494049,-108.40787506,2022-12-18 06:25:22
Arbys,1111 South 2nd Street,,ORD,NE,68862,US,41.59286118,-98.91255188,2022-12-16 15:27:55
Arbys,401 S Burlington Ave,,HASTINGS,NE,68901-5908,US,40.5802803,-98.39205933,2022-12-16 15:27:49
Arbys,3207 Osborne Dr. West,,Hastings,NE,68901,US,40.61817932,-98.38401794,2022-12-16 15:27:49
Arbys,7980 S Hwy 281,,GRAND ISLAND,NE,68801,US,40.81527328,-98.37969208,2022-12-16 15:27:49
Arbys,2333 N Webb Rd,,GRAND ISLAND,NE,68803-1743,US,40.94419861,-98.3782959,2022-12-16 15:27:49
Arbys,100 Sunrise Highway,,LINDENHURST,NY,11757,US,40.70215225,-73.37788391,2022-12-05 11:51:23
Arbys,409 E. Sunrise Hwy,,BELLMORE,NY,11710,US,40.66933441,-73.52301788,2022-12-05 11:51:23
Arbys,2080 Hempstead Turnpike,,EAST MEADOW,NY,11554,US,40.72447586,-73.55971527,2022-12-16 15:27:53
Arbys,1759 Middle Country Road,,Centereach,NY,11720,US,40.86048508,-73.07308197,2022-12-16 15:27:53
Arbys,358 B. Broadway Mall,Store #986,HICKSVILLE,NY,11801,US,40.77225113,-73.53204346,2022-12-16 15:27:53
Arbys,334 North Broadway,,JERICHO,NY,11753,US,40.7804718,-73.53196716,2022-12-05 11:51:23
Arbys,175-14 Horace Harding Expy,,FRESH MEADOWS,NY,11365-2121,US,40.7385025,-73.79360962,2022-12-05 11:51:23
Arbys,69-16 Metropolitan Avenue,,MIDDLE VILLAGE,NY,11379,US,40.71198273,-73.88568878,2022-12-05 11:51:23
Arbys,611 Eighth Ave.,,NEW YORK,NY,10018,US,40.75586319,-73.99124146,2022-12-16 15:27:53
Arbys,3452 Broidy Road,,FT. DIX,NJ,08641,US,40.03003693,-74.61460876,2022-12-16 15:27:43
Arbys,1701 Route 22,,WATCHUNG,NJ,07069,US,40.65110016,-74.40772247,2022-12-16 15:27:43
Arbys,674 White Horse Pike,,ABSECON,NJ,08201,US,39.43421936,-74.51354218,2022-12-16 15:27:45
Arbys,402 Rising Sun Square Rd,,BORDENTOWN,NJ,08505,US,40.12293625,-74.71368408,2022-12-16 15:27:43
Arbys,177 Levittown Pkwy,,Levittown,PA,19054,US,40.14081955,-74.82090759,2022-12-16 15:27:43
Arbys,267 Washington Ave,,NORTH HAVEN,CT,06473,US,41.40196228,-72.84976959,2022-12-16 15:27:53
Arbys,505 S. Oxford Valley Rd,,FAIRLESS HILLS,PA,19030,US,40.16905975,-74.84922791,2022-12-05 11:13:10
Arbys,207 Route 46,,ROCKAWAY,NJ,07866,US,40.89133072,-74.51222229,2022-12-16 15:27:50
Arbys,118 Federal Rd,,DANBURY,CT,06811-4021,US,41.42668152,-73.41938019,2022-12-16 15:27:53
Arbys,72 CENTERTON RD,,MOUNT LAUREL,NJ,08054,US,39.97169876,-74.91049957,2022-12-16 15:27:43
Arbys,4208 Us Route 130,,WILLINGBORO,NJ,08046-2551,US,40.03805161,-74.91580963,2022-12-16 15:27:43
Arbys,220 N. Maple Ave,,EVESHAM,NJ,08053,US,39.91378021,-74.92487335,2022-12-16 15:27:43
Arbys,299 Route 73 N,,WEST BERLIN,NJ,08091,US,39.80910873,-74.93035126,2022-12-16 15:27:43
Arbys,577 Franklin Mills Blvd,,PHILADELPHIA,PA,19154,US,40.08986282,-74.96417236,2022-12-16 15:27:43
Arbys,245 E Street Rd,,FEASTERVILLE-TREVOSE,PA,19053-6157,US,40.14725113,-74.99726868,2022-12-16 15:27:43
Arbys,789 Wolcott St,,WATERBURY,CT,06705-1313,US,41.5633316,-73.01031494,2022-12-16 15:27:45
Arbys,867 Meriden Waterbury Tpke,,PLANTSVILLE,CT,06479-2007,US,41.5631752,-72.87337494,2022-12-16 15:27:45
Arbys,804 White Horse Pike,,MAGNOLIA,NJ,08049,US,39.86260605,-75.03533936,2022-12-16 15:27:43
Arbys,5600 Rte 42,,TURNERSVILLE,NJ,08012,US,39.7583847,-75.04649353,2022-12-16 15:27:43
Arbys,100 Black Horse Pike,Suite E-1,AUDUBON,NJ,08106,US,39.8931427,-75.08876801,2022-12-16 15:27:43
Arbys,1335 Hurffville Rd,,DEPTFORD,NJ,08096,US,39.82070541,-75.0901947,2022-12-16 15:27:43
Arbys,1241 Farmington Avenue,,Berlin,CT,06037,US,41.62755966,-72.75402069,2022-12-16 15:27:45
Arbys,3206 Berlin Turnpike,,NEWINGTON,CT,06111,US,41.66109085,-72.72160339,2022-12-16 15:27:45
Arbys,405 N Route 9,,CAPE MAY COURT HOUSE,NJ,08210-1960,US,39.0896225,-74.81669617,2022-12-16 15:27:46
Arbys,3880 S Delsea Drive,,VINELAND,NJ,08360-7454,US,39.4308815,-75.04317474,2022-12-16 15:27:45
Arbys,239 Route 17K,"(I-84, EXIT 6)",NEWBURGH,NY,12550-8307,US,41.52033997,-74.11307526,2022-12-16 15:27:53
Arbys,618 Chester Pike,,NORWOOD,PA,19074,US,39.88516998,-75.30217743,2022-12-16 15:27:43
Arbys,523 W Baltimore Pike,,CLIFTON HEIGHTS,PA,19018,US,39.92654419,-75.30648041,2022-12-16 15:27:43
Arbys,16 E Germantown Pike,,NORRISTOWN,PA,19401,US,40.14035416,-75.31144714,2022-12-16 15:27:43
Arbys,2610 Egypt Rd,,AUDUBON,PA,19403-2302,US,40.13037491,-75.40262604,2022-12-16 15:27:43
Arbys,2445 Butler St,,EASTON,PA,18042-5302,US,40.68264389,-75.2481308,2022-12-16 15:27:43
Arbys,175 N Westend Blvd,,QUAKERTOWN,PA,18951,US,40.4485054,-75.36087036,2022-12-16 15:27:43
Arbys,3710 Easton Nazareth Hwy,NORTHAMPTON CROSSING,EASTON,PA,18045,US,40.7158432,-75.28453827,2022-12-16 15:27:43
Arbys,601 Conchester Hwy,,MARCUS HOOK,PA,19061,US,39.85056686,-75.44850159,2022-12-16 15:27:43
Arbys,3020 Easton Avenue,,Bethlehem,PA,18017,US,40.65027237,-75.33734894,2022-12-16 15:27:43
Arbys,2719 Philadelphia Pike,,CLAYMONT,DE,19703,US,39.79505539,-75.46753693,2022-12-16 15:27:43
Arbys,111 Brown St,,EAST STROUDSBURG,PA,18301-2824,US,40.99240494,-75.18502045,2022-12-16 15:27:43
Arbys,950 S Broadway,,WIND GAP,PA,18091-1649,US,40.83722687,-75.29682922,2022-12-16 15:27:43
Arbys,1305 Airport Rd,,ALLENTOWN,PA,18109-3506,US,40.63050079,-75.4410553,2022-12-16 15:27:43
Arbys,4000 Concord Pike N,,WILMINGTON,DE,19803,US,39.80802536,-75.54943848,2022-12-16 15:27:43
Arbys,1535 Lehigh St,PARKWAY SHOPPING CENTER,ALLENTOWN,PA,18103,US,40.5787468,-75.48012543,2022-12-16 15:27:43
Arbys,1229 Schadt Ave,,WHITEHALL,PA,18052-3847,US,40.64296722,-75.48812866,2022-12-16 15:27:43
Arbys,134 N Dupont Hwy,,NEW CASTLE,DE,19720,US,39.67079544,-75.59836578,2022-12-16 15:27:43
Arbys,3211 Kirkwood Hwy,,WILMINGTON,DE,19808,US,39.73770905,-75.62506104,2022-12-16 15:27:43
