company_name,address_line_1,address_line_2,city,state_alpha,postal_code,country_code,latitude,longitude,when_verified
Burger King,611 Sidney Baker St,,KERRVILLE,TX,78028-4555,US,30.05010033,-99.13703156,2022-12-18 06:25:16
Burger King,979 Main St,,BANDERA,TX,78003-3571,US,29.72961426,-99.0772934,2022-12-16 15:27:55
Burger King,1102 South State Highway 16,,Fredericksburg,TX,78624,US,30.26013947,-98.88415527,2022-12-18 06:25:16
Burger King,1327 South Main,,BOERNE,TX,78006-2821,US,29.78000641,-98.72859955,2022-12-18 06:25:13
Burger King,13045 Bandera RD,,HELOTES,TX,78023-4601,US,29.56418037,-98.68782806,2022-12-18 06:25:13
Burger King,"AAFES Mini-mall, BLDG 5184, RR2",,SAN ANTONIO,TX,78257-9544,US,29.63643456,-98.57706451,2022-12-18 06:25:13
Burger King,11006 FM 471,,SAN ANTONIO,TX,78253-0000,US,29.49570084,-98.71080017,2022-12-18 06:25:13
Burger King,5218 Dezavala Road,,SAN ANTONIO,TX,78249-1713,US,29.56443024,-98.58628082,2022-12-18 06:25:13
Burger King,7997 Bandera Rd.,,SAN ANTONIO,TX,78250-6511,US,29.51471138,-98.63457489,2022-12-18 06:25:13
Burger King,5562 Tezel Road,,SAN ANTONIO,TX,78250-4194,US,29.48706436,-98.66571045,2022-12-18 06:25:13
Burger King,334 Singing Oaks,,Spring Branch,TX,78070,US,29.80020714,-98.41963959,2022-12-18 06:25:13
Burger King,2002 N Loop 1604 W,,SAN ANTONIO,TX,78248-4547,US,29.60738945,-98.52384949,2022-12-18 06:25:13
Burger King,14235 Potranco Road,,San Antonio,TX,78254,US,29.42183685,-98.77747345,2022-12-18 06:25:15
Burger King,822 Evans Road Suite 107,,San Antonio,TX,78258,US,29.64301491,-98.48107147,2022-12-18 06:25:13
Burger King,10903 Potranco Rd.,,SAN ANTONIO,TX,78251-3340,US,29.43569565,-98.70606232,2022-12-18 06:25:13
Burger King,8767 SH 151,,San Antonio,TX,78245,US,29.44304466,-98.6636734,2022-12-18 06:25:13
Burger King,5007 North West Loop 410,,SAN ANTONIO,TX,78229-5313,US,29.48831177,-98.5861969,2022-12-18 06:25:09
Burger King,405 US Hwy 90 E,Suite A,Hondo,TX,78861,US,29.34879684,-99.11430359,2022-12-18 06:25:21
Burger King,22119 Bulverde Road,,San Antonio,TX,78259,US,29.6474781,-98.42549896,2022-12-18 06:25:13
Burger King,8296 Marbach Road,,SAN ANTONIO,TX,78227-1600,US,29.4178257,-98.65409851,2022-12-18 06:25:13
Burger King,6003 West Avenue,,SAN ANTONIO,TX,78213-0000,US,29.51600838,-98.52619171,2022-12-18 06:25:09
Burger King,3400 Fredricksburg,,SAN ANTONIO,TX,78201-3847,US,29.4744873,-98.53554535,2022-12-18 06:25:09
Burger King,8922 Airport Blvd,,San Antonio,TX,78216,US,29.52153397,-98.47681427,2022-12-18 06:25:09
Burger King,1530 Femoyer St,,LACKLAND AFB,TX,78236-5475,US,29.39253616,-98.62981415,2022-12-18 06:25:12
Burger King,420 Valley Hi,,SAN ANTONIO,TX,78227-4604,US,29.38044357,-98.64057922,2022-12-18 06:25:13
Burger King,4520 West Commerce,,SAN ANTONIO,TX,78237-1668,US,29.43009567,-98.55091095,2022-12-18 06:25:09
Burger King,Building 1286,,LACKLAND AFB,TX,78236-0000,US,29.38289452,-98.59449005,2022-12-18 06:25:09
Burger King,16711 Nacagdoches Road,,SAN ANTONIO,TX,78266-2801,US,29.59281731,-98.35093689,2022-12-18 06:25:15
Burger King,2449 Winfield Scott Rd,Ft Sam Houston-Building 382,San Antonio,TX,78234,US,29.44824791,-98.45072937,2022-12-18 06:25:09
Burger King,1515 North New Braunfels Ave,,SAN ANTONIO,TX,78208-2010,US,29.4373455,-98.46115112,2022-12-18 06:25:09
Burger King,1387 Hardee Road,,FORT SAM HOUSTON,TX,78234-0000,US,29.46246529,-98.43466187,2022-12-18 06:25:09
Burger King,5013 Walzem Rd,,WINDCREST,TX,78218-2118,US,29.51076508,-98.39031219,2022-12-18 06:25:09
Burger King,2732 Military Drive SW,,SAN ANTONIO,TX,78224-1001,US,29.35623932,-98.54105377,2022-12-18 06:25:09
Burger King,4618 Rittiman Road,,SAN ANTONIO,TX,78218-4628,US,29.48371887,-98.40119171,2022-12-18 06:25:09
Burger King,14710 I-H 35 South,,VON ORMY,TX,78073-3901,US,29.27762032,-98.66829681,2022-12-18 06:25:13
Burger King,19380 McDonald Street,,Lytle,TX,78052,US,29.23204041,-98.78888702,2022-12-18 06:25:21
Burger King,3600 George C Beach Ave,,FORT SAM HOUSTON,TX,78234-7511,US,29.45824814,-98.41555023,2022-12-18 06:25:09
Burger King,8131 Pat Booker Rd,,LIVE OAK,TX,78233-2600,US,29.56205559,-98.32929993,2022-12-18 06:25:09
Burger King,211 S. W. Military Drive,,SAN ANTONIO,TX,78221-1615,US,29.35710144,-98.49497986,2022-12-18 06:25:09
Burger King,6359 Rittiman Rd,,San Antonio,TX,78218,US,29.48020935,-98.36174774,2022-12-18 06:25:09
Burger King,103 Fisher Ave W,,Sabinal,TX,78881,US,29.31789207,-99.46668243,2022-12-16 15:27:53
Burger King,1872 South WW White Rd.,,SAN ANTONIO,TX,78220-4743,US,29.39887238,-98.40445709,2022-12-18 06:25:09
Burger King,6170 I.H. 10 East,,SAN ANTONIO,TX,78219-4507,US,29.44355583,-98.36127472,2022-12-18 06:25:09
Burger King,321 3rd St. West,Building 1038,UNIVERSAL CITY,TX,78148,US,29.53783989,-98.28896332,2022-12-18 06:25:15
Burger King,3102 Goliad Road,,SAN ANTONIO,TX,78223-4337,US,29.35164452,-98.43054199,2022-12-18 06:25:09
Burger King,904 US-281,,Marble Falls,TX,78654,US,30.57789612,-98.27330017,2022-12-16 15:27:54
Burger King,236 W I H 35,,NEW BRAUNFELS,TX,78130-3823,US,29.69054794,-98.10882568,2022-12-18 06:25:15
Burger King,101 FM 306,,NEW BRAUNFELS,TX,78130-2559,US,29.72966576,-98.07883453,2022-12-18 06:25:16
Burger King,20290 I. H. 37 South,,ELMENDORF,TX,78112-9700,US,29.2191143,-98.41093445,2022-12-18 06:25:19
Burger King,13542 W Highway 290,,AUSTIN,TX,78737-9399,US,30.19720078,-98.00046539,2022-12-18 06:25:14
Burger King,1012 Highway 123,,SAN MARCOS,TX,78666-7739,US,29.86702347,-97.93934631,2022-12-18 06:25:18
Burger King,1408 S Water Street,,Burnet,TX,78611,US,30.7451992,-98.23190308,2022-12-16 15:27:54
Burger King,14021 US Highway 87,,La Vernia,TX,78121,US,29.35697937,-98.12953186,2022-12-18 06:25:16
Burger King,1200 Hwy 46 N,,Seguin,TX,78155,US,29.58148956,-97.99121094,2022-12-18 06:25:16
Burger King,110 S Interstate 35,,Pearsall,TX,78061,US,28.8994236,-99.1158905,2022-12-18 06:25:19
Burger King,515 East Main St.,,UVALDE,TX,78801-5714,US,29.21235275,-99.77742004,2022-12-16 15:27:53
Burger King,18600 IH-35 Frontage Road,,BUDA,TX,78610-0000,US,30.03627014,-97.84637451,2022-12-18 06:25:18
Burger King,2007 S Bridge St.,,Brady,TX,76825,US,31.11522865,-99.33504486,2022-12-16 15:27:51
Burger King,2095 West Oaklawn,,PLEASANTON,TX,78064-4608,US,28.94029236,-98.51216125,2022-12-16 15:27:50
Burger King,15705 IH 35 S,,BUDA,TX,78610-3517,US,30.08008194,-97.82248688,2022-12-18 06:25:18
Burger King,1905 Slaughter,,AUSTIN,TX,78748-6218,US,30.17344093,-97.82322693,2022-12-18 06:25:14
Burger King,1001 East Ben White Boulevard,,AUSTIN,TX,78704-7409,US,30.21689224,-97.75493622,2022-12-18 06:25:14
Burger King,713 N Bell Blvd Apt 183,,CEDAR PARK,TX,78613-2209,US,30.51778984,-97.82879639,2022-12-18 06:25:14
Burger King,651 N US HWY 183,,Leander,TX,78641,US,30.58221245,-97.8579483,2022-12-18 06:25:14
Burger King,13450 Highway 183 North,,AUSTIN,TX,78750-3239,US,30.44786644,-97.79103851,2022-12-18 06:25:14
Burger King,2500 E Riverside Dr,,AUSTIN,TX,78741-3037,US,30.23537064,-97.723526,2022-12-18 06:25:14
Burger King,3001 Montopolis Dr,,AUSTIN,TX,78741-6400,US,30.21317291,-97.71109009,2022-12-18 06:25:14
Burger King,3906 Braker Lane,,AUSTIN,TX,78759-5300,US,30.39725113,-97.7339325,2022-12-18 06:25:14
Burger King,7105 N Interstate 35 Apt 35,,AUSTIN,TX,78752-3225,US,30.33221054,-97.70352173,2022-12-18 06:25:14
Burger King,404 N. Key Avenue,,Lampasas,TX,76550,US,31.06765175,-98.18334961,2022-12-16 15:27:45
Burger King,17585 South IH 35,,DILLEY,TX,78017-0000,US,28.66807747,-99.18159485,2022-12-18 06:25:19
Burger King,9523 North Lamar Boulevard,,AUSTIN,TX,78753-4107,US,30.36528778,-97.69545746,2022-12-18 06:25:14
Burger King,Farm-to-Market 969,,AUSTIN,TX,78724-0000,US,30.28624725,-97.66403198,2022-12-18 06:25:14
Burger King,1420 W Wells Branch Pkwy,,PFLUGERVILLE,TX,78660-3101,US,30.44143295,-97.66337585,2022-12-18 06:25:14
Burger King,2500 S I H 35,,ROUND ROCK,TX,78681-7906,US,30.48678017,-97.67749023,2022-12-18 06:25:14
Burger King,4410 Sunrise Rd,,ROUND ROCK,TX,78665-1257,US,30.56198692,-97.68110657,2022-12-18 06:25:14
Burger King,100 River Oaks Cove,,GEORGETOWN,TX,78626-5597,US,30.63923645,-97.68784332,2022-12-18 06:25:14
Burger King,1001 East Highway 190,,COPPERAS COVE,TX,76522-2228,US,31.11943817,-97.89271545,2022-12-18 06:25:18
Burger King,11710 N I H 35,,JARREL,TX,76537-0000,US,30.81167603,-97.6116333,2022-12-18 06:25:17
Burger King,2902 Clear Creek Rd,,Killeen,TX,76549,US,31.1081028,-97.80104828,2022-12-18 06:25:18
Burger King,123 S Sunset Strip Street,,Kenedy,TX,78119,US,28.81172752,-97.85729218,2022-12-16 15:27:51
Burger King,"Bldg 50000, Clear Creek Rd",,Fort Hood,TX,76544,US,31.13054466,-97.79857635,2022-12-18 06:25:18
Burger King,300 W State Highway 71,,Bastrop,TX,78602,US,30.10424423,-97.3298111,2022-12-18 06:25:17
Burger King,"Bldg 118, 761st Tank Battalion Ave",,FT HOOD,TX,76544-0000,US,31.13429832,-97.76769257,2022-12-18 06:25:18
Burger King,1029 S Fort Hood St,,Killeen,TX,76541,US,31.11208534,-97.74685669,2022-12-18 06:25:18
Burger King,3809 E. Stan Schlueter Loop,,Killeen,TX,76542,US,31.07235718,-97.70951843,2022-12-18 06:25:17
Burger King,3509 N Main Street,,Taylor,TX,76574,US,30.59824562,-97.41611481,2022-12-18 06:25:14
Burger King,505 East Rancier,,KILLEEN,TX,76541-3548,US,31.12521172,-97.72303772,2022-12-18 06:25:17
Burger King,680 E knights Way,,Harker Heights,TX,76548,US,31.05873871,-97.66081238,2022-12-18 06:25:17
Burger King,401 W Commerce St,,BROWNWOOD,TX,76801-1701,US,31.73160172,-98.98242188,2022-12-16 15:27:40
Burger King,33012 Battalion Ave,,FORT HOOD,TX,76544-4817,US,31.19503593,-97.74118805,2022-12-18 06:25:18
Burger King,424 Early Blvd.,,Early,TX,76802,US,31.73762703,-98.95777893,2022-12-16 15:27:40
Burger King,206 North IH-35,,BELTON,TX,76513-3602,US,31.05519485,-97.45285034,2022-12-18 06:25:17
Burger King,2733 State Highway 36 Business,,Gatesville,TX,76528,US,31.426754,-97.7171402,2022-12-16 15:27:40
Burger King,6934 West Adams Ave,,Temple,TX,76502,US,31.11672592,-97.4145813,2022-12-18 06:25:17
Burger King,2413 Del Rio Blvd,,Eagle Pass,TX,78852,US,28.73859596,-100.4956665,2022-12-18 06:25:18
Burger King,2110 S 31st St,Ste 120,Temple,TX,76504,US,31.07966423,-97.36610413,2022-12-18 06:25:17
Burger King,2280 Garrison Street,,EAGLE PASS,TX,78852-5038,US,28.70787048,-100.48485565,2022-12-18 06:25:18
Burger King,1302 E Gibbs St,,Del Rio,TX,78840,US,29.36834526,-100.88916779,2022-12-18 06:25:20
Burger King,2204 Veterans Blvd,,DEL RIO,TX,78840-3121,US,29.3892231,-100.90593719,2022-12-18 06:25:20
Burger King,Building 303,,GOODFELLOW AFB,TX,76908-0000,US,31.43012047,-100.40956116,2022-12-18 06:25:21
Burger King,2300 N St. Mary's St.,,Beeville,TX,78102,US,28.42137527,-97.7564621,2022-12-16 15:27:40
Burger King,4405 N. Bruce Drive,,Temple,TX,76501,US,31.14115906,-97.33108521,2022-12-18 06:25:17
Burger King,3333 Knickerbocker Road,,SAN ANGELO,TX,76904-6812,US,31.42232323,-100.46690369,2022-12-18 06:25:21
Burger King,102 North Abe,,SAN ANGELO,TX,76903-5767,US,31.46338081,-100.44469452,2022-12-18 06:25:21
Burger King,307 West Mcgregor Drive,,MC GREGOR,TX,76657-1328,US,31.44384193,-97.40840912,2022-12-18 06:25:20
Burger King,102 South Avenue G,,CLIFTON,TX,76634-2133,US,31.7822361,-97.57678986,2022-12-18 06:25:21
Burger King,1601 Hewitt Drive,,Waco,TX,76712,US,31.48130989,-97.20806122,2022-12-18 06:25:20
Burger King,1210 North Valley Mills Dr.,,WACO,TX,76710-4428,US,31.53030968,-97.18891907,2022-12-18 06:25:20
Burger King,2401 S New Rd,,WACO,TX,76711-1821,US,31.50772858,-97.14483643,2022-12-18 06:25:20
Burger King,719 Victoria Highway,,REFUGIO,TX,78377-0000,US,28.31636047,-97.27282715,2022-12-16 15:27:52
Burger King,103 East Loop 340,,WACO,TX,76705-0000,US,31.60421181,-97.10782623,2022-12-18 06:25:20
Burger King,1501 Gulf Shores Pkwy,,Gulf Shores,AL,36542,US,30.26520729,-87.68898773,2022-12-16 15:27:43
Burger King,910 South McKenzie,,Foley,AL,36535,US,30.39637184,-87.68417358,2022-12-18 06:25:12
Burger King,19755 Greeno Rd.,,Fairhope,AL,36532,US,30.51333237,-87.88696289,2022-12-18 06:25:12
Burger King,7050 Theodore Dawes Rd.,,Theodore,AL,36582,US,30.56101227,-88.2071228,2022-12-18 06:25:19
Burger King,5380 Hwy. 90 West,,Mobile,AL,36619,US,30.59236717,-88.16995239,2022-12-18 06:25:19
Burger King,21890 Hwy. 59 South,,Robertsdale,AL,36567,US,30.54393959,-87.70890808,2022-12-18 06:25:12
Burger King,2523 Denny Avenue,,PASCAGOULA,MS,39567-2412,US,30.37226677,-88.53777313,2022-12-18 06:25:19
Burger King,3949 Government Blvd.,,Mobile,AL,36609,US,30.63940048,-88.1394577,2022-12-18 06:25:19
Burger King,13392 Perdido Key Dr.,,Pensacola,FL,32507,US,30.31848717,-87.42492676,2022-12-18 06:25:16
Burger King,29295 U.S. Hwy. 98,,Daphne,AL,36526,US,30.65173912,-87.91316986,2022-12-18 06:25:12
Burger King,6403 Cottage Hill Rd.,,Mobile,AL,36695,US,30.63967514,-88.19172668,2022-12-18 06:25:19
Burger King,29685 Hwy. 181,,Daphne,AL,36526,US,30.65898514,-87.85282135,2022-12-18 06:25:12
Burger King,6527 Highway 63,,MOSS POINT,MS,39563-9598,US,30.43515015,-88.52697754,2022-12-18 06:25:19
Burger King,3004 Airport Blvd.,,Mobile,AL,36606,US,30.67678642,-88.1151886,2022-12-18 06:25:19
Burger King,659 Government St,,Mobile,AL,36602,US,30.68720436,-88.05014801,2022-12-18 06:25:12
Burger King,13051 N. Hickory St.,,Loxley,AL,36551,US,30.648283,-87.76121521,2022-12-18 06:25:12
Burger King,3875 Airport Blvd.,,Mobile,AL,36608,US,30.67585373,-88.14402008,2022-12-18 06:25:19
Burger King,3200 Springhill Ave.,,Mobile,AL,36607,US,30.70188522,-88.11625671,2022-12-18 06:25:19
Burger King,7701 Airport Blvd.,,Mobile,AL,36608,US,30.68428993,-88.22197723,2022-12-18 06:25:19
Burger King,2924 St. Stephens Rd.,,Prichard,AL,36612,US,30.74455452,-88.1102829,2022-12-18 06:25:19
Burger King,3001 U. S. Highway 90,,GAUTIER,MS,39553-5160,US,30.39242935,-88.65877533,2022-12-18 06:25:19
Burger King,8040 Hwy. 98 West,,Pensacola,FL,32506,US,30.40198517,-87.31873322,2022-12-18 06:25:16
Burger King,7775 Moffett Rd.,,Mobile,AL,36618,US,30.76129341,-88.22486115,2022-12-18 06:25:20
Burger King,2 S New Warrington Rd,,Pensacola,FL,32507,US,30.40646935,-87.27625275,2022-12-18 06:25:16
Burger King,310 Hwy. 43 North,,Saraland,AL,36571,US,30.82965088,-88.06855011,2022-12-18 06:25:12
Burger King,3210 West Michigan Ave.,,Pensacola,FL,32526,US,30.46167946,-87.29942322,2022-12-18 06:25:16
Burger King,4498 Mobile Hwy.,,Pensacola,FL,32506,US,30.43391037,-87.27516174,2022-12-18 06:25:16
Burger King,7960 Pine Forest Rd.,,Pensacola,FL,32526,US,30.51804352,-87.3119278,2022-12-18 06:25:16
Burger King,15 Brent Lane Ste. 1,,Pensacola,FL,32503,US,30.46698761,-87.24150085,2022-12-18 06:25:16
Burger King,700 McMeans Ave.,,Bay Minette,AL,36507,US,30.88498688,-87.78755951,2022-12-18 06:25:12
Burger King,1590 North Hwy 29,,Cantonement,FL,32533,US,30.57977867,-87.2959137,2022-12-18 06:25:16
Burger King,7210 N Davis Hwy,,Pensacola,FL,32504,US,30.49990082,-87.22119904,2022-12-18 06:25:16
Burger King,1005 Bienville Blvd,,OCEAN SPRINGS,MS,39564-2828,US,30.41642761,-88.82743835,2022-12-18 06:25:19
Burger King,1750 E Nine Mile Rd,,Pensacola,FL,32514,US,30.53270531,-87.22528076,2022-12-18 06:25:16
Burger King,6757 N 9th Ave,,Pensacola,FL,32504,US,30.49319077,-87.19232941,2022-12-18 06:25:16
Burger King,10591 Diberville Blvd,,DIBERVILLE,MS,39540-2403,US,30.44128799,-88.89949799,2022-12-18 06:25:19
Burger King,1641 Pass Road,,BILOXI,MS,39531-4312,US,30.40239525,-88.93548584,2022-12-18 06:25:19
Burger King,4120 Hwy. 90,,Pace,FL,32571,US,30.60334015,-87.15232849,2022-12-18 06:25:16
Burger King,2395 Pass Road,,BILOXI,MS,39531-2237,US,30.40150452,-88.97575378,2022-12-18 06:25:19
Burger King,11292 Old 63 S,,LUCEDALE,MS,39452-6632,US,30.90735054,-88.59755707,2022-12-16 15:27:54
Burger King,220 South Main Street,,ATMORE,AL,36502-2448,US,31.02165794,-87.49434662,2022-12-18 06:25:18
Burger King,6682 Caroline St. (Hwy. 90),,Milton,FL,32570,US,30.62233162,-87.04416656,2022-12-18 06:25:16
Burger King,2509 25th Avenue,,GULFPORT,MS,39501-4830,US,30.38089752,-89.0932312,2022-12-18 06:25:17
Burger King,9440 Highway 49 North,,GULFPORT,MS,39503-4258,US,30.42517662,-89.09190369,2022-12-18 06:25:17
Burger King,11433 Highway 49 North,,GULFPORT,MS,39503-3132,US,30.45422173,-89.1007843,2022-12-18 06:25:17
Burger King,310 East Beach Blvd.,,Longbeach,MS,39560,US,30.34770775,-89.14254761,2022-12-18 06:25:17
Burger King,8590 Navarre Parkway,,NAVARRE,FL,32566-6920,US,30.40201759,-86.86356354,2022-12-18 06:25:18
Burger King,120 LIELMANIS AVE,,HULBURT FIELD,FL,32544-5648,US,30.41966248,-86.69693756,2022-12-18 06:25:18
Burger King,699 US Hwy. 90,,Bay St. Louis,MS,39520,US,30.31736183,-89.34657288,2022-12-18 06:25:17
Burger King,201 Mary Esther Cut Off,,MARY ESTHER,FL,32569-1601,US,30.41380882,-86.65403748,2022-12-18 06:25:18
Burger King,5400 West Aloha Blvd.,,Diamondhead,MS,39525,US,30.37596703,-89.37776947,2022-12-18 06:25:17
Burger King,302 Racetrack Rd NW,,FORT WALTON BEACH,FL,32547-1511,US,30.44975471,-86.62628937,2022-12-18 06:25:18
Burger King,1701 Douglas Avenue,,BREWTON,AL,36426-1117,US,31.13552284,-87.06906128,2022-12-18 06:25:22
Burger King,1281 North Eglin Parkway,,SHALIMAR,FL,32579-1256,US,30.44764519,-86.57827759,2022-12-18 06:25:18
Burger King,2500 College Ave,,Jackson,AL,36545,US,31.53607368,-87.88812256,2022-12-16 15:27:50
Burger King,307 W VAN MATRE AVE,,EGLIN AFB,FL,32542-7665,US,30.46473885,-86.53061676,2022-12-18 06:25:18
Burger King,751 Highway 98 East,,DESTIN,FL,32541-2505,US,30.39040756,-86.48583221,2022-12-18 06:25:18
Burger King,297 John Sims Parkway,,NICEVILLE,FL,32578-0000,US,30.52057076,-86.48809052,2022-12-18 06:25:18
Burger King,3210 South Ferdon Boulevard,,CRESTVIEW,FL,32536-8481,US,30.72849464,-86.56855774,2022-12-18 06:25:18
Burger King,198 W James Lee Blvd,,CRESTVIEW,FL,32536-3522,US,30.76220512,-86.57348633,2022-12-18 06:25:18
Burger King,198 South Jackson St.,,Grove Hill,AL,36451,US,31.70256042,-87.77672577,2022-12-18 06:25:20
Burger King,105 Highway 26 West,,POPLARVILLE,MS,39470-3374,US,30.83576012,-89.53216553,2022-12-16 15:27:54
Burger King,798 Memorial Blvd.,,Picayune,MS,39466,US,30.51736832,-89.67172241,2022-12-18 06:25:17
Burger King,120 Brownswitch Rd.,,Slidell,LA,70458,US,30.31160545,-89.76838684,2022-12-18 06:25:21
Burger King,914 Mississippi Dr,,Waynesboro,MS,39367,US,31.68037033,-88.64501953,2022-12-16 15:27:55
Burger King,185 Gause Blvd.,,Slidell,LA,70458,US,30.28522491,-89.77806091,2022-12-18 06:25:21
Burger King,141 Northshore Blvd.,,Slidell,LA,70460,US,30.30529976,-89.82624817,2022-12-18 06:25:21
Burger King,806 Broadway Drive,,HATTIESBURG,MS,39401-7531,US,31.3113842,-89.31152344,2022-12-16 15:27:36
Burger King,6517 Highway 49 North,,HATTIESBURG,MS,39401-3006,US,31.34857559,-89.33669281,2022-12-16 15:27:36
Burger King,1000 Turtle Creek Dr. #5,,HATTIESBURG,MS,39402-1173,US,31.32498741,-89.37381744,2022-12-16 15:27:36
Burger King,5999 Bullard Ave,,New Orleans,LA,70128,US,30.0424099,-89.95739746,2022-12-18 06:25:17
Burger King,34355 Hwy. 43,,Thomasville,AL,36784,US,31.94069672,-87.73748779,2022-12-18 06:25:20
Burger King,200 E. Judge Perez Dr.,,Chalmette,LA,70043,US,29.94174957,-89.96234894,2022-12-18 06:25:17
Burger King,1303 US Highway 331 S,,DEFUNIAK SPRINGS,FL,32435-3424,US,30.69868469,-86.12313843,2022-12-16 15:27:55
Burger King,101 Cumberland Street,,BOGALUSA,LA,70427-3101,US,30.78632927,-89.86516571,2022-12-18 06:25:16
Burger King,1137 W Bypass,,ANDALUSIA,AL,36420-5203,US,31.31935692,-86.46253204,2022-12-18 06:25:11
Burger King,319 Beacon St.,,Laurel,MS,39440,US,31.6879673,-89.13569641,2022-12-16 15:27:55
Burger King,2130 Hwy. 15 North,,Laurel,MS,39440,US,31.71629333,-89.14958191,2022-12-16 15:27:55
Burger King,505 East Cummings Avenue,,OPP,AL,36467-2251,US,31.28016281,-86.24995422,2022-12-18 06:25:11
Burger King,920 Highway 98 Byp,,Columbia,MS,39429,US,31.23664093,-89.82545471,2022-12-16 15:27:47
Burger King,6 Westview Road,,COLLINS,MS,39428-3990,US,31.6293869,-89.55433655,2022-12-18 06:25:20
Burger King,100 Interstate Drive,,GREENVILLE,AL,36037-3764,US,31.85256958,-86.64167023,2022-12-16 15:27:53
Burger King,529 Claxton Avenue,,ELBA,AL,36323-1502,US,31.4176693,-86.068573,2022-12-18 07:39:41
Burger King,1570 Simpson Highway 49,,Magee,MS,39111,US,31.86830139,-89.73986816,2022-12-18 06:25:20
Burger King,17112 Panama City Beach Pkwy,,PANAMA CITY BEACH,FL,32413-5226,US,30.23091125,-85.88867188,2022-12-18 06:25:19
Burger King,11213 Front Beach Road,,PANAMA CITY BCH,FL,32407-3604,US,30.18421555,-85.81865692,2022-12-18 06:25:19
Burger King,7100 Coastal Palms Blvd.,,PANAMA CITY,FL,32408-4985,US,30.1750145,-85.76073456,2022-12-18 06:25:19
Burger King,1396 West 15th Street,,PANAMA CITY,FL,32401-2000,US,30.17558479,-85.68365479,2022-12-18 06:25:19
Burger King,4709 US Highway 231,,PANAMA CITY,FL,32404-9754,US,30.23280334,-85.58084869,2022-12-18 06:25:19
Burger King,123 Premier Drive,,Geneva,AL,36340,US,31.04959869,-85.8990097,2022-12-18 07:39:41
Burger King,2024 South Waukesha Street,,BONIFAY,FL,32425-3122,US,30.76843643,-85.68405914,2022-12-18 06:25:17
Burger King,1698 Main Street,,CHIPLEY,FL,32428-5991,US,30.75212288,-85.5515213,2022-12-18 06:25:17
Burger King,701 Boll Weevil Cir,,ENTERPRISE,AL,36330-2036,US,31.32385826,-85.83226013,2022-12-18 07:39:41
Burger King,453 S NOVASEL ST,,FORT RUCKER,AL,36362-5109,US,31.33631897,-85.7106781,2022-12-18 07:39:41
Burger King,4691 Highway 90 East,,MARIANNA,FL,32446-3505,US,30.76748085,-85.20415497,2022-12-18 06:25:22
Burger King,2247 Highway 71,,MARIANNA,FL,32448-2541,US,30.72809792,-85.18595886,2022-12-18 06:25:22
Burger King,"2203 Ross Clark Circle, S. W.",,DOTHAN,AL,36301-5059,US,31.19038773,-85.40305328,2022-12-18 06:25:20
Burger King,"3092 Ross Clark Circle, S. W.",,DOTHAN,AL,36301-1122,US,31.22806168,-85.43143463,2022-12-18 06:25:20
Burger King,20407 Central Ave W,,BLOUNTSTOWN,FL,32424-1947,US,30.44299316,-85.04956055,2022-12-16 15:27:40
Burger King,1165 Ross Clark Circle,,DOTHAN,AL,36301-3021,US,31.21229935,-85.36112976,2022-12-18 06:25:21
Burger King,832 US 231 S,,TROY,AL,36081-3167,US,31.78671646,-85.96471405,2022-12-18 06:25:18
Burger King,16752 US Highway 431 South,,Headland,AL,36345,US,31.35425568,-85.32855225,2022-12-18 06:25:21
Burger King,813 S Eufaula Ave,,Eufaula,AL,36027,US,31.88281441,-85.14563751,2022-12-16 15:27:53
Burger King,3314 Greensboro Highway,,QUINCY,FL,32351-9150,US,30.58159256,-84.69670868,2022-12-16 15:27:54
Burger King,1400 West Jefferson Street,,QUINCY,FL,32351-2130,US,30.58788872,-84.59448242,2022-12-18 06:25:17
Burger King,2185 Crawfordville Hwy,,CRAWFORDVILLE,FL,32327-1035,US,30.21170807,-84.36386108,2022-12-18 06:25:17
Burger King,1230 Shotwell Street,,BAINBRIDGE,GA,39819-4238,US,30.90346146,-84.55834198,2022-12-18 06:25:19
Burger King,4400 W Tennessee St,,TALLAHASSEE,FL,32304-1029,US,30.46159935,-84.35858917,2022-12-18 06:25:17
Burger King,703 N. Main Street,,HAVANA,FL,32333-1207,US,30.62988281,-84.41474915,2022-12-18 06:25:17
Burger King,5020 Capital Cir SW,,TALLAHASSEE,FL,32305-7667,US,30.37544441,-84.29238129,2022-12-18 06:25:17
Burger King,3102 North Monroe,,TALLAHASSEE,FL,32303-2820,US,30.48510361,-84.31404114,2022-12-18 06:25:17
Burger King,1060 W. Tennessee Street,,TALLAHASSEE,FL,32304-7719,US,30.44875336,-84.30262756,2022-12-18 06:25:17
Burger King,2626 South Monroe St.,,TALLAHASSEE,FL,32301-6364,US,30.41255569,-84.28096008,2022-12-18 06:25:17
Burger King,3107 East Mahan,,TALLAHASSEE,FL,32308-5507,US,30.46010017,-84.22657776,2022-12-18 06:25:17
Burger King,3570 Apalachee Parkway,,TALLAHASSEE,FL,32311-0000,US,30.42858315,-84.21324921,2022-12-18 06:25:17
Burger King,5500 Thomasville Rd,,TALLAHASSEE,FL,32312-3814,US,30.54545784,-84.2282486,2022-12-18 06:25:17
Burger King,540 Highway 84 East,,CAIRO,GA,39828-2286,US,30.88238335,-84.20068359,2022-12-16 15:27:53
Burger King,60 Us Highway 19 N,,CAMILLA,GA,31730-1405,US,31.23322487,-84.2006073,2022-12-16 15:27:38
Burger King,802 South Slappey Boulevard,,ALBANY,GA,31701-2616,US,31.56626511,-84.17579651,2022-12-18 06:25:12
Burger King,2411 Dawson Road,,ALBANY,GA,31707-1323,US,31.60882568,-84.2091217,2022-12-18 06:25:12
Burger King,1501 Radium Springs Rd.,,ALBANY,GA,31705-4092,US,31.55183411,-84.13744354,2022-12-18 06:25:12
Burger King,404 W. Oglethorpe Boulevard,,ALBANY,GA,31701-2836,US,31.57507515,-84.15687561,2022-12-18 06:25:12
Burger King,2805 North Slappey Boulevard,,ALBANY,GA,31701-1017,US,31.61891556,-84.17762756,2022-12-18 06:25:12
Burger King,2015 E. Oglethorpe Boulevard,,ALBANY,GA,31705-0000,US,31.57264709,-84.10033417,2022-12-18 06:25:12
Burger King,1209 South Jefferson Street,,MONTICELLO,FL,32344-1633,US,30.53567696,-83.87068176,2022-12-16 15:27:52
Burger King,2930 Pine Tree Blvd.,,THOMASVILLE,GA,31792-4841,US,30.85444069,-83.95158386,2022-12-18 06:25:22
Burger King,2144 S. Bryon Butler Pkwy.,,PERRY,FL,32348-6102,US,30.09699249,-83.58158112,2022-12-16 15:27:54
Burger King,1304 West Screven Street,,QUITMAN,GA,31643-0000,US,30.78506279,-83.57174683,2022-12-18 06:25:21
Burger King,"363 E BASE ST, STE B",,MADISON,FL,32340-2405,US,30.46981621,-83.41082764,2022-12-16 15:27:54
Burger King,1105 First Avenue S. E.,,MOULTRIE,GA,31768-5005,US,31.17918968,-83.77445221,2022-12-18 06:25:21
Burger King,4464 Shiloh Road,,VALDOSTA,GA,31602-2396,US,30.89538956,-83.35855865,2022-12-18 06:25:19
Burger King,2007 West Hill Avenue,,VALDOSTA,GA,31601-5113,US,30.81857491,-83.31468201,2022-12-18 06:25:21
Burger King,1164 North St Augustine Road,,VALDOSTA,GA,31601-3545,US,30.84142113,-83.32440186,2022-12-18 06:25:21
Burger King,1801 North Ashley Street,,VALDOSTA,GA,31602-3024,US,30.8544426,-83.28089142,2022-12-18 06:25:19
Burger King,508 East Franklin,,SYLVESTER,GA,31791-2224,US,31.529953,-83.82991791,2022-12-18 06:25:13
Burger King,1201 West 4th. Street,,ADEL,GA,31620-2912,US,31.13416672,-83.43907166,2022-12-18 06:25:19
Burger King,8215 STATE ROAD 6,,WEST JASPER,FL,32052-4309,US,30.51981163,-83.05673218,2022-12-16 15:27:53
Burger King,"904 Moody Rd,",,MOODY AFB,GA,31699-1711,US,30.97367287,-83.20828247,2022-12-18 06:25:19
Burger King,1504 U. S. Highway 82 West,,TIFTON,GA,31793-8039,US,31.4472847,-83.53782654,2022-12-18 06:25:21
Burger King,1608 Tift Ave,,TIFTON,GA,31794-3540,US,31.46932411,-83.50358582,2022-12-18 06:25:21
Burger King,1109 16th Avenue East,,CORDELE,GA,31015-1541,US,31.96328545,-83.76483154,2022-12-18 06:25:22
Burger King,278 Ocilla HWY,,FITZGERALD,GA,31750-8871,US,31.69294167,-83.2449646,2022-12-16 15:27:43
Burger King,1003 US Highway 80 E,,DEMOPOLIS,AL,36732-3711,US,32.50356293,-87.82524872,2022-12-18 06:25:21
Burger King,2100 North Frontage Rd.,,Meridian,MS,39301,US,32.35527802,-88.68902588,2022-12-16 15:27:53
Burger King,4825 8th St.,,Meridian,MS,39307,US,32.36432266,-88.72715759,2022-12-16 15:27:53
Burger King,639 Hwy. 28,,Livingston,AL,35470,US,32.6232605,-88.20571136,2022-12-16 15:27:52
Burger King,190 W. Third St.,,Forest,MS,39074,US,32.36477661,-89.4757309,2022-12-16 15:27:37
Burger King,7581 Mobile Hwy,,HOPE HULL,AL,36043-4300,US,32.27084351,-86.35622406,2022-12-18 06:25:18
Burger King,292A West Beacon St.,,Philadelphia,MS,39350,US,32.77141571,-89.12358856,2022-12-16 15:27:53
Burger King,945 W South Blvd,,MONTGOMERY,AL,36105-3020,US,32.32619476,-86.32927704,2022-12-18 06:25:18
Burger King,"25 W. Selfridge St., Bldg. 1114",,MAXWELL AFB,AL,36112-5987,US,32.37289047,-86.35095215,2022-12-18 06:25:18
Burger King,1780 East Main Street,,PRATTVILLE,AL,36066-5582,US,32.46022797,-86.42230225,2022-12-18 06:25:18
Burger King,650 Malwest St,,PRATTVILLE,AL,36066-7229,US,32.48489761,-86.41194916,2022-12-18 06:25:18
Burger King,2232 East South Blvd,,MONTGOMERY,AL,36116-2404,US,32.3266716,-86.26763153,2022-12-18 06:25:18
Burger King,1621 Carter Hill Road,,MONTGOMERY,AL,36106-1527,US,32.35918427,-86.28465271,2022-12-18 06:25:18
Burger King,601 Madison Avenue,,MONTGOMERY,AL,36104-3633,US,32.38050079,-86.30103302,2022-12-18 06:25:18
Burger King,819 Ann St,,MONTGOMERY,AL,36107-2803,US,32.37102509,-86.27044678,2022-12-18 06:25:18
Burger King,1630 Federal Drive,,Montgomery,AL,36107,US,32.40394592,-86.26669312,2022-12-18 06:25:18
Burger King,4010 Atlanta Hwy,,MONTGOMERY,AL,36109-2921,US,32.38173676,-86.24344635,2022-12-18 06:25:18
Burger King,5525 Carmichael Road,,MONTGOMERY,AL,36117-1840,US,32.36027145,-86.21369934,2022-12-18 06:25:18
Burger King,3190 Taylor Road,,MONTGOMERY,AL,36116-0000,US,32.33603287,-86.17972565,2022-12-18 06:25:18
Burger King,850 North East Blvd,,Montgomery,AL,36117,US,32.40604019,-86.21408081,2022-12-18 06:25:18
Burger King,6621 Atlanta Highway,,MONTGOMERY,AL,36117-4233,US,32.38303375,-86.18064117,2022-12-18 06:25:18
Burger King,2127 7th Street South,,CLANTON,AL,35045-8791,US,32.80200958,-86.58306122,2022-12-18 06:25:21
Burger King,10065 Chantilly Pkwy,,MONTGOMERY,AL,36117-7589,US,32.36470032,-86.1363678,2022-12-18 06:25:18
Burger King,503 Highway 16 West,,Carthage,MS,39051,US,32.73099899,-89.54067993,2022-12-16 15:27:36
Burger King,5179 Us Highway 231,,WETUMPKA,AL,36092-3127,US,32.51609039,-86.21237183,2022-12-18 06:25:18
Burger King,12560 County Road 42,,Jemison,AL,35085,US,32.97878265,-86.68967438,2022-12-18 06:25:21
Burger King,395 Main St,,Shorter,AL,36075,US,32.40649414,-85.95845032,2022-12-18 06:25:21
Burger King,504 North Main Street,,TUSKEGEE,AL,36083-1728,US,32.42745209,-85.6934433,2022-12-16 15:27:49
Burger King,1740 South College Street,,AUBURN,AL,36832-5872,US,32.57141876,-85.50006104,2022-12-16 15:27:49
Burger King,4250 Highway 280,,ALEXANDER CITY,AL,35010-3365,US,32.92119217,-85.95898438,2022-12-16 15:27:55
Burger King,415 Second Avenue,,OPELIKA,AL,36801-4313,US,32.6530304,-85.37677002,2022-12-16 15:27:49
Burger King,1400 Columbus Parkway,,OPELIKA,AL,36804-5950,US,32.64381027,-85.34719086,2022-12-18 06:25:20
Burger King,1135 280 Bypass,,PHENIX CITY,AL,36867-5447,US,32.46920776,-85.02958679,2022-12-18 06:25:16
Burger King,1820 Stadium Drive,,PHENIX CITY,AL,36867-3100,US,32.49568176,-85.01907349,2022-12-18 06:25:16
Burger King,2910 20th Avenue,,VALLEY,AL,36872-2842,US,32.84672928,-85.18395233,2022-12-18 06:25:18
Burger King,Building 107 Ingersoll Street Main Post,,FORT BENNING,GA,31995,US,32.36196518,-84.96305084,2022-12-18 06:25:16
Burger King,Ft. Benning Mall,,FORT BENNING,GA,31905-0000,US,32.37579346,-84.92334747,2022-12-18 06:25:16
Burger King,3715 Victory Drive,,COLUMBUS,GA,31903-3217,US,32.41708755,-84.94337463,2022-12-18 06:25:16
Burger King,1218 Veterans Parkway,,COLUMBUS,GA,31901-2510,US,32.4691925,-84.9870224,2022-12-18 06:25:16
Burger King,4126 Buena Vista Road,,COLUMBUS,GA,31907-3806,US,32.46402359,-84.92371368,2022-12-18 06:25:16
Burger King,4312 Veterans Parkway,,COLUMBUS,GA,31904-6553,US,32.50576019,-84.97327423,2022-12-18 06:25:16
Burger King,3520 Macon Road,,COLUMBUS,GA,31907-0000,US,32.48479462,-84.93650818,2022-12-18 06:25:16
Burger King,3103 Gentian Boulevard,,COLUMBUS,GA,31907-0000,US,32.50619125,-84.94039154,2022-12-18 06:25:16
Burger King,2550 Airport Thruway,,COLUMBUS,GA,31904-9011,US,32.51878357,-84.9561615,2022-12-18 06:25:16
Burger King,1514 Bradley Park Drive,,Columbus,GA,31904,US,32.53166199,-84.97020721,2022-12-18 06:25:16
Burger King,7310 Veterans Parkway,,COLUMBUS,GA,31909-3198,US,32.55236816,-84.94778442,2022-12-18 06:25:16
Burger King,5901 Miller Road,,COLUMBUS,GA,31907-1357,US,32.52297592,-84.89025879,2022-12-18 06:25:16
Burger King,922 East Lamar Street,,AMERICUS,GA,31709-3741,US,32.07144547,-84.22124481,2022-12-18 06:25:17
Burger King,313 North Center Street,,THOMASTON,GA,30286-3636,US,32.89257812,-84.32647705,2022-12-18 06:25:22
Burger King,302 Commercial Heights,,FORT VALLEY,GA,31030-3364,US,32.55794525,-83.88293457,2022-12-18 06:25:09
Burger King,1000 St. Patrick's Drive,,PERRY,GA,31069-2145,US,32.47164917,-83.74281311,2022-12-18 06:25:20
Burger King,851 Warren Drive,,WARNER ROBINS,GA,31088-0714,US,32.55516052,-83.66739655,2022-12-18 06:25:09
Burger King,313 Ga Highway 49 N,,BYRON,GA,31008-4010,US,32.66264343,-83.7408905,2022-12-18 06:25:09
Burger King,201 Russell Parkway,,WARNER ROBINS,GA,31088-6166,US,32.59339523,-83.62778473,2022-12-18 06:25:09
Burger King,2010 Watson Boulevard,,WARNER ROBINS,GA,31093-3624,US,32.6187439,-83.64717865,2022-12-18 06:25:09
Burger King,982 Macon St,,ROBINS AFB,GA,31098-2440,US,32.59928894,-83.58563232,2022-12-18 06:25:09
Burger King,927 Congo Lane Connector,,Eastman,GA,31023,US,32.1805687,-83.18140411,2022-12-16 15:27:55
Burger King,4964 Romeiser Road,,MACON,GA,31206-5339,US,32.80776978,-83.72769165,2022-12-18 06:25:09
Burger King,3773 Bloomfield Road,,MACON,GA,31206-3611,US,32.81903458,-83.69765472,2022-12-18 06:25:09
Burger King,3025 Pio Nono Avenue,,MACON,GA,31206-3025,US,32.80836868,-83.66311646,2022-12-18 06:25:09
Burger King,4459 Forsyth Road,,MACON,GA,31210-4525,US,32.87036514,-83.70109558,2022-12-18 06:25:09
Burger King,853 Riverside Drive 11,,MACON,GA,31201-2662,US,32.84328842,-83.62941742,2022-12-18 06:25:09
Burger King,5441 Bowman Rd,,Macon,GA,31210,US,32.92530823,-83.73425293,2022-12-18 06:25:09
Burger King,3820 Riverside Drive,,MACON,GA,31210-1813,US,32.90146255,-83.68791962,2022-12-18 06:25:09
Burger King,1188 Gray Highway,,MACON,GA,31211-1849,US,32.85695648,-83.61761475,2022-12-18 06:25:09
Burger King,3808 McFarland Blvd. East,,Tuscaloosa,AL,35405,US,33.17390823,-87.52532196,2022-12-18 06:25:17
Burger King,2515 Stillman Blvd.,,Tuscaloosa,AL,35401,US,33.20528793,-87.56858826,2022-12-18 06:25:17
Burger King,4900 Skyland Blvd. East,,Tuscaloosa,AL,35405,US,33.17692184,-87.47138214,2022-12-18 06:25:17
Burger King,3820 McFarland Blvd. Hwy. 82 W.,,Northport,AL,35476,US,33.2400322,-87.59437561,2022-12-18 06:25:17
Burger King,1601 McFarland Blvd. North,,Tuscaloosa,AL,35406,US,33.23345947,-87.5383606,2022-12-18 06:25:17
Burger King,119 Alabama Street,,COLUMBUS,MS,39702-5220,US,33.49668884,-88.38544464,2022-12-18 06:25:18
Burger King,14860 W Main St,,Louisville,MS,39339,US,33.12485504,-89.08433533,2022-12-18 06:25:21
Burger King,22182 Hwy 216,,McCalla,AL,35111,US,33.27872467,-87.09890747,2022-12-18 06:25:22
Burger King,602 North 18th Avenue,,Columbus,MS,39701,US,33.51407242,-88.42603302,2022-12-18 06:25:18
Burger King,409 Highway 12 East,,Starkville,MS,39759,US,33.45481873,-88.8083725,2022-12-18 06:25:18
Burger King,5001 Bond Blvd,,BESSEMER,AL,35022-7301,US,33.33313751,-86.99331665,2022-12-18 06:25:21
Burger King,740 Academy Drive,,BESSEMER,AL,35022-5200,US,33.3622551,-86.99912262,2022-12-18 06:25:21
Burger King,5076 Hwy 31,,CALERA,AL,35040,US,33.14791489,-86.74967957,2022-12-18 06:25:21
Burger King,681 1st Street South West,,ALABASTER,AL,35007-8802,US,33.23709869,-86.81916809,2022-12-18 06:25:21
Burger King,5454 Highway 45 Alt S,,West Point,MS,39773,US,33.58550644,-88.65866852,2022-12-18 06:25:18
Burger King,3076 Pelham Parkway,,PELHAM,AL,35124,US,33.29277039,-86.81250763,2022-12-18 06:25:21
Burger King,3016 Allison Bonnett Memorial Dr.,,HUEYTOWN,AL,35023-2360,US,33.4518013,-86.97852325,2022-12-18 06:25:09
Burger King,100 Weibel Dr,,MIDFIELD,AL,35228-2123,US,33.46362686,-86.9126358,2022-12-18 06:25:09
Burger King,1555 Montgomery Highway,,HOOVER,AL,35216-4501,US,33.40602493,-86.80583191,2022-12-18 06:25:09
Burger King,2229 Bessemer Road,,BIRMINGHAM,AL,35208-4711,US,33.49567795,-86.87815094,2022-12-18 06:25:09
Burger King,290 Oxmoor Road,,BIRMINGHAM,AL,35209-0000,US,33.46522141,-86.82260132,2022-12-18 06:25:09
Burger King,801 3rd Avenue West,,BIRMINGHAM,AL,35204-4606,US,33.50511551,-86.84952545,2022-12-18 06:25:09
Burger King,401 Hwy. 12 East,,Kosciusko,MS,39090,US,33.06555557,-89.5823822,2022-12-18 06:25:21
Burger King,1484 Forestdale Blvd,,Birmingham,AL,35214,US,33.56497955,-86.89630127,2022-12-18 06:25:09
Burger King,"1524 - 6th Avenue, South",,BIRMINGHAM,AL,35233-1602,US,33.50446701,-86.8069458,2022-12-18 06:25:09
Burger King,517 Cahaba Park Circle,,BIRMINGHAM,AL,35242-5011,US,33.43000412,-86.70838165,2022-12-18 06:25:09
Burger King,2700 University Blvd,,BIRMINGHAM,AL,35233-3422,US,33.50980759,-86.78922272,2022-12-18 06:25:09
Burger King,15622 Highway 280,,CHELSEA,AL,35043-8312,US,33.35150146,-86.61239624,2022-12-18 06:25:15
Burger King,122 Carl Cannon Blvd,,Jasper,AL,35501,US,33.79218674,-87.24215698,2022-12-18 06:25:21
Burger King,"708 Highway 78, East",,JASPER,AL,35501-3953,US,33.84841537,-87.26656342,2022-12-18 06:25:21
Burger King,7757 Crestwood Blvd,,IRONDALE,AL,35210-1927,US,33.53043747,-86.71910095,2022-12-18 06:25:09
Burger King,1500 Pinson Valley Pkwy,,BIRMINGHAM,AL,35217-2326,US,33.58384705,-86.77418518,2022-12-18 06:25:09
Burger King,1701 Fulton Road,,FULTONDALE,AL,35068-1669,US,33.60934448,-86.80503845,2022-12-18 06:25:09
Burger King,500 FIELDSTOWN RD,,GARDENDALE,AL,35071-2486,US,33.6526947,-86.81982422,2022-12-18 06:25:09
Burger King,904 US 278,,Amory,MS,38821,US,33.98151016,-88.47859192,2022-12-18 06:25:21
Burger King,9248 Parkway E,,BIRMINGHAM,AL,35206-1509,US,33.58976746,-86.70054626,2022-12-18 06:25:09
Burger King,5482 HWY 280,,Harpersville,AL,35078,US,33.34483337,-86.44023895,2022-12-18 06:25:19
Burger King,9528 Parkway East,,BIRMINGHAM,AL,35215-8311,US,33.5960083,-86.69483185,2022-12-18 06:25:09
Burger King,33944 U.S. Highway 280,,CHILDERSBURG,AL,35044-3038,US,33.26193619,-86.34968567,2022-12-18 06:25:21
Burger King,202 West Fort Williams,,SYLACAUGA,AL,35150-2432,US,33.1676445,-86.25449371,2022-12-16 15:27:52
Burger King,5961 Chalkville Mountain Hwy,,BIRMINGHAM,AL,35235-3318,US,33.64036179,-86.62367249,2022-12-18 06:25:09
Burger King,4520 Pinson Blvd,,Pinson,AL,35126,US,33.69018173,-86.68314362,2022-12-18 06:25:09
Burger King,311 Old Hwy 82 W,,Winona,MS,38967,US,33.48657608,-89.75782013,2022-12-16 15:27:50
Burger King,1407 Parkhill Parkway,,PELL CITY,AL,35125-1371,US,33.60427475,-86.28314972,2022-12-18 06:25:19
Burger King,30024 State Hwy 79,,Locust Fork,AL,35097,US,33.90444946,-86.61993408,2022-12-18 06:25:09
Burger King,40 Springville Station Lane,,Springville,AL,35146,US,33.77867889,-86.43192291,2022-12-18 06:25:19
Burger King,318 East Battle Street,,TALLADEGA,AL,35160-2422,US,33.43574905,-86.09649658,2022-12-18 06:25:17
Burger King,75366 AL HIGHWAY 77,,LINCOLN,AL,35096-5034,US,33.58843613,-86.12398529,2022-12-18 06:25:17
Burger King,916  2nd Avenue East,,ONEONTA,AL,35121-2506,US,33.95493317,-86.46642303,2022-12-18 06:25:21
Burger King,1250 Sunset Dr.,,Grenada,MS,38901,US,33.77457428,-89.8221817,2022-12-18 06:25:20
Burger King,1980 Highway 77,,Southside,AL,35907,US,33.92504883,-86.02288818,2022-12-18 06:25:19
Burger King,3322 B Rainbow Drive,,RAINBOW CITY,AL,35906-6200,US,33.95793152,-86.03699493,2022-12-18 06:25:19
Burger King,"1003 Highway 21, South",,OXFORD,AL,36203-2421,US,33.60863113,-85.82736969,2022-12-18 06:25:17
Burger King,3194 Highway 431,,ROANOKE,AL,36274-1735,US,33.15080643,-85.35836029,2022-12-16 15:27:53
Burger King,1351 Golden Springs Rd,,Anniston,AL,36207,US,33.6297493,-85.78610992,2022-12-18 06:25:17
Burger King,1818 Quintard Avenue,,ANNISTON,AL,36201-3853,US,33.66804504,-85.82713318,2022-12-18 06:25:17
Burger King,1703 Roanoke Road,,LAGRANGE,GA,30240-3819,US,33.03190994,-85.06838989,2022-12-18 06:25:18
Burger King,801 New Franklin Street,,LAGRANGE,GA,30240-1843,US,33.05810547,-85.02894592,2022-12-18 06:25:18
Burger King,906 South Park Street,,CARROLLTON,GA,30117-4426,US,33.56523132,-85.0754776,2022-12-18 06:25:12
Burger King,515 Carrollton St,,Temple,GA,30179,US,33.7230835,-85.02848053,2022-12-18 06:25:12
Burger King,1528 Lafayette Parkway,,LAGRANGE,GA,30241,US,33.04167557,-84.97534943,2022-12-18 06:25:18
Burger King,1945 E Main St,,Hogansville,GA,30230,US,33.15899277,-84.86488342,2022-12-18 06:25:18
Burger King,"856 Poplar Rd,",,Newnan,GA,30265,US,33.359375,-84.75106812,2022-12-18 06:25:12
Burger King,415 Bullsboro Drive,,NEWNAN,GA,30263-5840,US,33.39448166,-84.7616272,2022-12-18 06:25:12
Burger King,2814 Hwy 34 East,,Newnan,GA,30265,US,33.40909195,-84.68981934,2022-12-18 06:25:21
Burger King,9215 US 19,,Zebulon,GA,30295,US,33.11323929,-84.3394165,2022-12-18 06:25:15
Burger King,584 Hwy 61,,VILLA RICA,GA,30180-4978,US,33.71878052,-84.93757629,2022-12-18 06:25:12
Burger King,3261 Highway 5,,DOUGLASVILLE,GA,30135-2384,US,33.71768188,-84.76668549,2022-12-18 06:25:12
Burger King,655 North Glynn Street,,FAYETTEVILLE,GA,30214-1110,US,33.46165466,-84.45056915,2022-12-18 06:25:14
Burger King,1412 North Expressway,,Griffin,GA,30223,US,33.27047348,-84.28991699,2022-12-18 06:25:15
Burger King,216 W Taylor St,,Griffin,GA,30223,US,33.24677658,-84.26557922,2022-12-18 06:25:15
Burger King,4636 Jonesboro Rd,,Union City,GA,30291,US,33.56818771,-84.53910828,2022-12-18 06:25:14
Burger King,5700 Fairburn Rd,,Douglasville,GA,30134,US,33.75032425,-84.71933746,2022-12-18 06:25:16
Burger King,11120 Tara Blvd,,Hampton,GA,30228,US,33.45185471,-84.32533264,2022-12-18 06:25:14
Burger King,5068 Old National Highway,,COLLEGE PARK,GA,30349-3216,US,33.61719131,-84.47232056,2022-12-18 06:25:14
Burger King,7512 Lee Rd,,Lithia Springs,GA,30122,US,33.77179337,-84.65266418,2022-12-18 06:25:16
Burger King,6910 Highway 85,,Riverdale,GA,30274,US,33.56613922,-84.41268158,2022-12-18 06:25:14
Burger King,875 Smith St,,Jonesboro,GA,30236,US,33.5227356,-84.36319733,2022-12-18 06:25:14
Burger King,1073 Merchants Dr,,Dallas,GA,30132,US,33.91054535,-84.80684662,2022-12-18 06:25:16
Burger King,989 Thornton Rd,,Lithia Springs,GA,30122,US,33.77872086,-84.60712433,2022-12-18 06:25:16
Burger King,6000 N TERMINAL PKWY,,ATLANTA,GA,30320-7400,US,33.64015579,-84.44488525,2022-12-18 06:25:14
Burger King,4235 Jimmy Lee Smith Parkway,,HIRAM,GA,30141-2638,US,33.89289856,-84.75739288,2022-12-18 06:25:16
Burger King,2760 Greenbriar Pkwy SW,,Atlanta,GA,30331,US,33.68816376,-84.48921204,2022-12-18 06:25:14
Burger King,6457 Tara Blvd,,Jonesboro,GA,30236,US,33.57835388,-84.37419891,2022-12-18 06:25:14
Burger King,2735 Veterans Memorial Hwy,,AUSTELL,GA,30168,US,33.81286621,-84.63345337,2022-12-18 06:25:16
Burger King,2781 hwy 16 w,,Jackson,GA,30233,US,33.26089478,-84.09738922,2022-12-18 06:25:15
Burger King,247 Forest Parkway,,FOREST PARK,GA,30297-2156,US,33.61971283,-84.38201904,2022-12-18 06:25:14
Burger King,809 Veterans Memorial Pkwy,,Mableton,GA,30126,US,33.81813049,-84.57740784,2022-12-18 06:25:16
Burger King,5141 Jonesboro Road,,LAKE CITY,GA,30260-3402,US,33.61528778,-84.35028839,2022-12-18 06:25:14
Burger King,1770 Jonesboro Rd,,Mcdonough,GA,30253,US,33.46474838,-84.21482849,2022-12-18 06:25:14
Burger King,4860 Bill Gardner Parkway,,LOCUST GROVE,GA,30248-3643,US,33.35338974,-84.121315,2022-12-18 06:25:14
Burger King,2701 Stewart Avenue S. W.,,ATLANTA,GA,30315-7913,US,33.68170166,-84.40795135,2022-12-18 06:25:14
Burger King,1086 Highway 20 West,,MCDONOUGH,GA,30253-6518,US,33.43088531,-84.1789093,2022-12-18 06:25:14
Burger King,26 Peyton Rd SW,,Atlanta,GA,30311,US,33.7511673,-84.46788788,2022-12-18 06:25:17
Burger King,119 Highway 138,,STOCKBRIDGE,GA,30281-4254,US,33.55338287,-84.26348114,2022-12-18 06:25:14
Burger King,3740 Austell Rd SW,,Marietta,GA,30008,US,33.86259842,-84.5970993,2022-12-18 06:25:16
Burger King,3195 Donald Lee Hollowell Parkway N,,ATLANTA,GA,30318-4407,US,33.7867775,-84.49136353,2022-12-18 06:25:17
Burger King,199 SW Northside Dr,,ATLANTA,GA,30313-1339,US,33.74932098,-84.40480042,2022-12-18 06:25:14
Burger King,1675 Gaylor St SE,,Smyrna,GA,30082,US,33.84244537,-84.5043869,2022-12-18 06:25:15
Burger King,2495 Dallas Hwy SW,,Marietta,GA,30064,US,33.94562531,-84.62473297,2022-12-18 06:25:16
Burger King,1130 Moreland Ave. SE,,ATLANTA,GA,30316-3256,US,33.7234993,-84.34919739,2022-12-18 06:25:14
Burger King,1122 Northside Dr Nw,,Atlanta,GA,30318,US,33.78554916,-84.40737915,2022-12-18 06:25:15
Burger King,50 Eastlake Rd,,McDonough,GA,30252,US,33.50719452,-84.14051056,2022-12-18 06:25:14
Burger King,81 Fairview Road,,ELLENWOOD,GA,30294-2779,US,33.62023544,-84.23605347,2022-12-18 06:25:14
Burger King,2112 S Cobb Dr SE,,Smyrna,GA,30080,US,33.90155029,-84.54187775,2022-12-18 06:25:15
Burger King,386 North Ave NE,,ATLANTA,GA,30308,US,33.77136612,-84.37454987,2022-12-18 06:25:15
Burger King,2610 Spring Rd SE,,Smyrna,GA,30080,US,33.88282013,-84.47737122,2022-12-18 06:25:15
Burger King,3928 Flat Shoals Parkway,,DECATUR,GA,30034-0000,US,33.6941185,-84.26134491,2022-12-18 06:25:14
Burger King,2682 Candler Road,,DECATUR,GA,30034-1405,US,33.71102905,-84.27127075,2022-12-18 06:25:14
Burger King,650 S Marietta Pkwy SE,,Marietta,GA,30060,US,33.94299316,-84.53404236,2022-12-18 06:25:15
Burger King,1190 Barrett Pkwy NW,,Kennesaw,GA,30144,US,33.99983978,-84.58571625,2022-12-18 06:25:16
Burger King,1201 Cobb Pkwy N,,Marietta,GA,30062,US,33.98057938,-84.55835724,2022-12-18 06:25:15
Burger King,3542 Memorial Drive,,DECATUR,GA,30032-2710,US,33.75492096,-84.26859283,2022-12-18 06:25:14
Burger King,2304 North Druid Hills Road,,ATLANTA,GA,30329-3109,US,33.8276329,-84.32959747,2022-12-18 06:25:15
Burger King,571 DeKalb Industrial Way,,DECATUR,GA,30030-1704,US,33.7925415,-84.27558899,2022-12-18 06:25:14
Burger King,2807 Panola Road,,LITHONIA,GA,30058,US,33.70555496,-84.16934967,2022-12-18 06:25:14
Burger King,4622 Memorial Drive,,DECATUR,GA,30032-1412,US,33.78018188,-84.23936462,2022-12-18 06:25:14
Burger King,222 Hammond Dr,,Atlanta,GA,30328,US,33.91942978,-84.38011932,2022-12-18 06:25:15
Burger King,2773 Evans Mill Rd,,Lithonia,GA,30058,US,33.70411682,-84.1155777,2022-12-18 06:25:14
Burger King,6038 Memorial Drive,,STONE MOUNTAIN,GA,30083-2852,US,33.80329895,-84.19287872,2022-12-18 06:25:14
Burger King,4537 Chamblee Dunwoody Rd,,Dunwoody,GA,30338,US,33.92361832,-84.3141098,2022-12-18 06:25:15
Burger King,4094 Lawrenceville Highway,,TUCKER,GA,30084-4621,US,33.85095978,-84.21447754,2022-12-18 06:25:15
Burger King,5654 Buford Hwy NE,,Doraville,GA,30340,US,33.90589523,-84.27094269,2022-12-18 06:25:15
Burger King,1491 Highway 138 Se,,CONYERS,GA,30013-1286,US,33.6508255,-84.00936127,2022-12-18 06:25:14
Burger King,3994 Pleasantdale Road,,DORAVILLE,GA,30340-4208,US,33.8988266,-84.24333954,2022-12-18 06:25:15
Burger King,7140 Peachtree Industrial Blvd,,Norcross,GA,30071,US,33.93062592,-84.26386261,2022-12-18 06:25:15
Burger King,1600 Highway 20 NE,,Conyers,GA,30012,US,33.68274307,-84.00033569,2022-12-18 06:25:14
Burger King,3215 Peachtree Corners Circle,,Norcross,GA,30092,US,33.94128036,-84.24939728,2022-12-18 06:25:15
Burger King,5267 Highway 78,,STONE MOUNTAIN,GA,30087-3414,US,33.82352829,-84.11302948,2022-12-18 06:25:14
Burger King,6137 Buford Hwy,,Norcross,GA,30071,US,33.93239975,-84.222229,2022-12-18 06:25:15
Burger King,1600 Indian Trail Rd,,Norcross,GA,30093,US,33.92256927,-84.17150879,2022-12-18 06:25:15
Burger King,5325 Peachtree Industrial Blvd,,Norcross,GA,30092,US,33.96202469,-84.20808411,2022-12-18 06:25:15
Burger King,4734 Lawrenceville Highway,,LILBURN,GA,30047-3813,US,33.8967514,-84.1385498,2022-12-18 06:25:15
Burger King,3580 Centerville Highway,,SNELLVILLE,GA,30039-6406,US,33.80168152,-84.04184723,2022-12-18 06:25:14
Burger King,1690 Pleasant Hill,,DULUTH,GA,30096-4620,US,33.94722366,-84.12594604,2022-12-18 06:25:15
Burger King,2111 Pleasant Hill Road,,DULUTH,GA,30096-4629,US,33.95757675,-84.13415527,2022-12-18 06:25:15
Burger King,3040 Five Forks Trickum Rd,,LILBURN,GA,30047-1807,US,33.88549805,-84.06084442,2022-12-18 06:25:14
Burger King,2357 Main Street East,,SNELLVILLE,GA,30078-3334,US,33.85602188,-84.01152802,2022-12-18 06:25:14
Burger King,1840 Cruse Road,,LAWRENCEVILLE,GA,30044-2323,US,33.95296097,-84.05738068,2022-12-18 06:25:15
Burger King,1939 Duluth Hwy,,Lawrenceville,GA,30043,US,33.97767639,-84.08084869,2022-12-18 06:25:19
Burger King,5900 SUGARLOAF PKWY,,LAWRENCEVILLE,GA,30043-7836,US,33.98065186,-84.08094025,2022-12-18 06:25:19
Burger King,544 West Pike Street,,LAWRENCEVILLE,GA,30045-7677,US,33.9630928,-84.00756073,2022-12-18 06:25:19
Burger King,179 North Lee Street,,FORSYTH,GA,31029-2176,US,33.04038239,-83.9382019,2022-12-18 06:25:09
Burger King,472 East Third Street,,JACKSON,GA,30233-2043,US,33.2940712,-83.96206665,2022-12-18 06:25:15
Burger King,53 Highway 81 South,,COVINGTON,GA,30016-8609,US,33.56493759,-83.90271759,2022-12-18 06:25:14
Burger King,2230 Salem Road,,CONYERS,GA,30013-1843,US,33.63128281,-83.97822571,2022-12-18 06:25:14
Burger King,5300 Hwy 278,,Covington,GA,30014,US,33.60356522,-83.8657608,2022-12-18 06:25:14
Burger King,2478 North Columbia St.,,MILLEDGEVILLE,GA,31061-2066,US,33.11180878,-83.2587204,2022-12-18 06:25:18
Burger King,100 Sara Lee Blvd,,Eatonton,GA,31024,US,33.34789276,-83.39308167,2022-12-18 06:25:16
Burger King,4740 Highway 78,,Loganville,GA,30052,US,33.8338623,-83.88549042,2022-12-18 06:25:14
Burger King,1990 Grayson Hwy,,Grayson,GA,30017,US,33.89716721,-83.95881653,2022-12-18 06:25:15
Burger King,1950 Eatonton Road,,MADISON,GA,30650-4603,US,33.55955124,-83.47635651,2022-12-18 06:25:16
Burger King,445 Grayson Hwy,,Lawrenceville,GA,30046,US,33.94018173,-83.98253632,2022-12-18 06:25:19
Burger King,2060 W Spring St,,Monroe,GA,30655,US,33.79805374,-83.74506378,2022-12-18 06:25:14
Burger King,942 Buford Dr,,Lawrenceville,GA,30043,US,33.98803711,-83.98435974,2022-12-18 06:25:18
Burger King,7 E May St,,Winder,GA,30680,US,33.99028397,-83.72291565,2022-12-18 06:25:18
Burger King,1010 Hospitality Drive,,Greensboro,GA,30642,US,33.54306793,-83.20760345,2022-12-18 06:25:16
Burger King,2271 Hog Mountain Road,,Watkinsville,GA,30677,US,33.87503052,-83.43991089,2022-12-18 06:25:18
Burger King,3740 Atlanta Highway,,Athens,GA,30606,US,33.94134903,-83.4691925,2022-12-18 06:25:18
Burger King,999 Hawthorne Ave,,Athens,GA,30606,US,33.9709053,-83.41294861,2022-12-18 06:25:18
Burger King,1960 Barnett Shoals Rd,,Athens,GA,30605,US,33.92422485,-83.34059906,2022-12-18 06:25:18
Burger King,600 US 29,,Athens,GA,30601,US,33.99433899,-83.33707428,2022-12-18 06:25:18
Burger King,643 Athens Rd,,Lexington,GA,30648,US,33.87854767,-83.11880493,2022-12-18 06:25:18
Burger King,1546 Military Street South,,HAMILTON,AL,35570-5006,US,34.12179184,-87.99025726,2022-12-18 06:25:22
Burger King,42425 Highway 195,,HALEYVILLE,AL,35565-7052,US,34.23859787,-87.59830475,2022-12-16 15:27:52
Burger King,1506 South Adams Street,,FULTON,MS,38843-8498,US,34.25012207,-88.40497589,2022-12-18 06:25:13
Burger King,3820 South Eason Boulevard,,Tupelo,MS,38804,US,34.23618698,-88.70523071,2022-12-18 06:25:13
Burger King,840 West Main Street,,TUPELO,MS,38801-3631,US,34.25756073,-88.71668243,2022-12-18 06:25:13
Burger King,847 Barnes Crossing,,TUPELO,MS,38804-0000,US,34.31490707,-88.70585632,2022-12-18 06:25:13
Burger King,426 AL-69,,Hanceville,AL,35077,US,34.05070114,-86.87260437,2022-12-18 06:25:19
Burger King,15455 Highway 43,,RUSSELLVILLE,AL,35653-8063,US,34.51506424,-87.71777344,2022-12-18 06:25:17
Burger King,207 Highway 15 North,,PONTOTOC,MS,38863-0000,US,34.25736237,-89.01850128,2022-12-18 06:25:13
Burger King,1605 Town Square,,CULLMAN,AL,35055-5262,US,34.16194153,-86.83654022,2022-12-18 06:25:19
Burger King,11157 AL HIGHWAY 157,,MOULTON,AL,35650-1909,US,34.47785187,-87.27158356,2022-12-18 06:25:21
Burger King,5940 AL HIGHWAY 157,,CULLMAN,AL,35058-5919,US,34.20746231,-86.87422943,2022-12-18 06:25:19
Burger King,105 Highway 72 West,,TUSCUMBIA,AL,35674-4440,US,34.71557999,-87.69599915,2022-12-18 06:25:17
Burger King,3105 Woodward Avenue,,MUSCLE SHOALS,AL,35661-3319,US,34.7324295,-87.66744232,2022-12-18 06:25:17
Burger King,1207 North Second Street,,Booneville,MS,38829,US,34.67968369,-88.56072998,2022-12-18 06:25:21
Burger King,601 Highway 31 N. W.,,HARTSELLE,AL,35640-4408,US,34.44667435,-86.94508362,2022-12-18 06:25:21
Burger King,106 Park Plaza,,NEW ALBANY,MS,38652-3122,US,34.49581909,-89.03289032,2022-12-18 06:25:13
Burger King,1244 Florence Boulevard,,FLORENCE,AL,35630-2725,US,34.81763458,-87.65895844,2022-12-18 06:25:17
Burger King,2057 Beltline Road Sw,,DECATUR,AL,35601-5515,US,34.57979965,-87.02127838,2022-12-18 06:25:21
Burger King,2313 6th Ave.,,DECATUR,AL,35601-6513,US,34.56619263,-86.97402954,2022-12-18 06:25:21
Burger King,807 Cox Creek Parkway,,FLORENCE,AL,35630-1068,US,34.84353638,-87.66757202,2022-12-18 06:25:17
Burger King,3215 Point Mallard Parkway,,DECATUR,AL,35603-5769,US,34.53753281,-86.91316986,2022-12-18 06:25:17
Burger King,102 City Ave North,,Ripley,MS,38663,US,34.73118591,-88.94570923,2022-12-18 06:25:21
Burger King,1105 South Cass Street,,CORINTH,MS,38834-6438,US,34.92244339,-88.51533508,2022-12-18 06:25:21
Burger King,554 N Brindlee Mountain Pkwy,,ARAB,AL,35016-1069,US,34.32418823,-86.50244141,2022-12-18 06:25:19
Burger King,1741 University Drive East,,OXFORD,MS,38655-4109,US,34.36315918,-89.51074219,2022-12-16 15:27:53
Burger King,1111 Se Jefferson,,ATHENS,AL,35611-3553,US,34.79039383,-86.97129822,2022-12-18 06:25:17
Burger King,1600 Highway 72 East,,ATHENS,AL,35611-4412,US,34.78119278,-86.93545532,2022-12-18 06:25:17
Burger King,8895 Madison Boulevard West,,MADISON,AL,35758-1807,US,34.67655945,-86.75046539,2022-12-18 06:25:17
Burger King,376 Hughes Road,,MADISON,AL,35758-0000,US,34.70888138,-86.74145508,2022-12-18 06:25:17
Burger King,5215 Martin Rd,,Redstone Arsenal,AL,35898,US,34.64574051,-86.64536285,2022-12-18 06:25:17
Burger King,8670 Highway 72 West,,Madison,AL,35758,US,34.74783325,-86.77685547,2022-12-18 06:25:17
Burger King,1929 Gunter Avenue,,GUNTERSVILLE,AL,35976-2111,US,34.33895874,-86.31143951,2022-12-18 06:25:19
Burger King,11925 South Memorial Parkway,,HUNTSVILLE,AL,35803-3305,US,34.61215973,-86.56621552,2022-12-18 06:25:17
Burger King,Building 3228 LaCrosse Dr,,HUNTSVILLE,AL,35898-0001,US,34.69548798,-86.63336945,2022-12-18 06:25:17
Burger King,6363 University Dr. NW,,HUNTSVILLE,AL,35806-1713,US,34.74565125,-86.68444824,2022-12-18 06:25:17
Burger King,7300 Highway 431 North,,ALBERTVILLE,AL,35950-1128,US,34.2771759,-86.2061615,2022-12-18 06:25:21
Burger King,308 Jordan Lane,,HUNTSVILLE,AL,35805-2622,US,34.72375107,-86.6270752,2022-12-18 06:25:17
Burger King,100 Peter Lane,,New Hope,AL,35760,US,34.55069733,-86.43304443,2022-12-18 06:25:19
Burger King,1752 US Highway 431,,Boaz,AL,35957,US,34.21094513,-86.15457916,2022-12-18 06:25:21
Burger King,2331 Jordan Lane,,HUNTSVILLE,AL,35805-0000,US,34.75285339,-86.63743591,2022-12-18 06:25:17
Burger King,2116 Whitesburg Drive,,HUNTSVILLE,AL,35801-4544,US,34.71881866,-86.57866669,2022-12-18 06:25:17
Burger King,1004 North Memorial Parkway,,HUNTSVILLE,AL,35801-5926,US,34.74110413,-86.59992981,2022-12-18 06:25:17
Burger King,3035 Jeff Road,,Harvest,AL,35749,US,34.84723663,-86.71156311,2022-12-18 06:25:17
Burger King,3541 North Memorial Pkwy,,HUNTSVILLE,AL,35810-2414,US,34.77310944,-86.58589172,2022-12-18 06:25:17
Burger King,145 Clarice Dr,,Holly Springs,MS,38635,US,34.74968338,-89.45282745,2022-12-16 15:27:54
Burger King,26383 Main Street,,Ardmore,TN,38449,US,34.99301529,-86.84868622,2022-12-18 06:25:17
Burger King,925 Winchester Road,,HUNTSVILLE,AL,35811-1048,US,34.79829788,-86.53710938,2022-12-18 06:25:17
Burger King,101 Lakewood Drive,,BATESVILLE,MS,38606-3011,US,34.3106842,-89.9272995,2022-12-16 15:27:52
Burger King,5960 Hwy 72 East,,Gurley,AL,35748,US,34.69909286,-86.38510895,2022-12-18 06:25:17
Burger King,14637 Highway 231 431 N,,HAZEL GREEN,AL,35750-8022,US,34.94598007,-86.57241058,2022-12-18 06:25:17
Burger King,3204 South Broad,,SCOTTSBORO,AL,35769-7511,US,34.63104248,-86.04841614,2022-12-18 06:25:21
Burger King,5101 Highway 51,,SENATOBIA,MS,38668-1725,US,34.62741852,-89.96906281,2022-12-18 06:25:21
Burger King,7370 Hacks Crossing,,Olive Branch,MS,38654,US,34.96773911,-89.79492188,2022-12-18 06:25:16
Burger King,7485 Goodman Road,,OLIVE BRANCH,MS,38654-2001,US,34.96154404,-89.85631561,2022-12-18 06:25:16
Burger King,4872 Goodman Rd,,OLIVE BRANCH,MS,38654-7950,US,34.96311951,-89.90393066,2022-12-18 06:25:16
Burger King,150 Goodman Road West,,SOUTHAVEN,MS,38671-9405,US,34.96312714,-89.99172974,2022-12-18 07:39:41
Burger King,414 East Meighan,,GADSDEN,AL,35903-1051,US,34.00956726,-85.98794556,2022-12-18 06:25:19
Burger King,5615 Alabama Highway 68,,Collinsville,AL,35961,US,34.27560806,-85.88074493,2022-12-18 06:25:19
Burger King,323 Main Street West,,RAINSVILLE,AL,35986-5909,US,34.49661255,-85.85212708,2022-12-18 06:25:21
Burger King,1506 Glenn Blvd SW,,FORT PAYNE,AL,35968-3521,US,34.43734741,-85.75324249,2022-12-18 06:25:21
Burger King,616 North Main Street,,CEDARTOWN,GA,30125-2304,US,34.02270508,-85.25054169,2022-12-18 06:25:21
Burger King,2207 Shorter Ave SW,,Rome,GA,30165,US,34.27125168,-85.22743225,2022-12-18 06:25:18
Burger King,43137 US Hwy 72,,Stevenson,AL,35772,US,34.87411118,-85.8118515,2022-12-18 06:25:21
Burger King,1313 Turner McCall Blvd SE,,Rome,GA,30161,US,34.25288391,-85.16305542,2022-12-18 06:25:18
Burger King,11245 Highway 27,,Summerville,GA,30747,US,34.49435806,-85.33657837,2022-12-18 06:25:21
Burger King,831 Battlefield Parkway,,FORT OGLETHORPE,GA,30742-3925,US,34.95433807,-85.25022888,2022-12-18 06:25:17
Burger King,5865 Alabama Hwy,,Ringgold,GA,30736,US,34.90763474,-85.12805939,2022-12-18 06:25:17
Burger King,6404 Ringgold Road,,East Ridge,TN,37412-3836,US,34.9894371,-85.21042633,2022-12-18 06:25:17
Burger King,3630 Cobb Parkway Nw,,Acworth,GA,30101,US,34.04499054,-84.69589996,2022-12-18 06:25:16
Burger King,4 N Dixie Ave,,Cartersville,GA,30120,US,34.16859818,-84.78898621,2022-12-18 06:25:16
Burger King,2775 Cobb Pkwy NW,,Kennesaw,GA,30152,US,34.02095032,-84.62397003,2022-12-18 06:25:16
Burger King,5620 Canton Hwy,,Cartersville,GA,30121,US,34.20427704,-84.76502991,2022-12-18 06:25:21
Burger King,981 Cassville-White Road N.W.,,CARTERSVILLE,GA,30121-7204,US,34.2735405,-84.80768585,2022-12-18 06:25:18
Burger King,7871 Adairsville Hwy,,Adairsville,GA,30103,US,34.37749863,-84.91474152,2022-12-18 06:25:18
Burger King,3280 Barrett Lakes Blvd,,Kennesaw,GA,30024,US,34.03250885,-84.57879639,2022-12-18 06:25:16
Burger King,4410 Wade Green Rd NW,,Kennesaw,GA,30144,US,34.06111908,-84.592453,2022-12-18 06:25:16
Burger King,164 Barrett Pkwy,,Marietta,GA,30066,US,34.01409531,-84.55488586,2022-12-18 06:25:16
Burger King,4285 Bells Ferry Rd NW,,Kennesaw,GA,30144,US,34.05540466,-84.55722809,2022-12-18 06:25:16
Burger King,1081 Belwood Rd SE,,Calhoun,GA,30701,US,34.44308472,-84.91576385,2022-12-18 06:25:18
Burger King,905 South Wall Street,,CALHOUN,GA,30701-2619,US,34.48500061,-84.94450378,2022-12-18 06:25:18
Burger King,2925 Eagle Dr,,Woodstock,GA,30189,US,34.11224747,-84.55688477,2022-12-18 06:25:18
Burger King,9590 Main St,,Woodstock,GA,30188,US,34.08618546,-84.51964569,2022-12-18 06:25:18
Burger King,860 Woodstock Road,,ROSWELL,GA,30075-2248,US,34.05925369,-84.38474274,2022-12-18 06:25:15
Burger King,1700 Marietta Highway,,CANTON,GA,30114-3901,US,34.22349167,-84.50238037,2022-12-18 06:25:21
Burger King,6185 Hickory Flat Highway,,CANTON,GA,30115-7254,US,34.17624283,-84.41834259,2022-12-18 06:25:19
Burger King,2310 Mansell Road,,ALPHARETTA,GA,30022-4865,US,34.03788757,-84.30498505,2022-12-18 06:25:15
Burger King,1512 W Walnut St,,Dalton,GA,30720,US,34.76057434,-84.99580383,2022-12-18 06:25:17
Burger King,890 North Main Street,,ALPHARETTA,GA,30009-2332,US,34.09395218,-84.2795639,2022-12-18 06:25:19
Burger King,1908 Chattanooga Rd,,Dalton,GA,30720,US,34.79580688,-84.996315,2022-12-18 06:25:17
Burger King,310 Northgate Dr,,Dalton,GA,30721,US,34.79803848,-84.9599762,2022-12-18 06:25:17
Burger King,5025 Abbotts Bridge Rd,,Alpharetta,GA,30005,US,34.06439209,-84.21194458,2022-12-18 06:25:19
Burger King,5665 ATLANTA HWY,,ALPHARETTA,GA,30004-3959,US,34.14444351,-84.25093079,2022-12-18 06:25:19
Burger King,34 Sammy Mcghee Blvd,,Jasper,GA,30143,US,34.46526718,-84.45085144,2022-12-18 06:25:21
Burger King,3085 Ronald Reagan Blvd,,Cumming,GA,30041,US,34.15095901,-84.17188263,2022-12-18 06:25:18
Burger King,1105 N 3rd Ave,,Chatsworth,GA,30705,US,34.7875061,-84.77271271,2022-12-18 06:25:17
Burger King,1045 Peachtree Industrial Blvd,,Suwanee,GA,30024,US,34.05116653,-84.0918045,2022-12-18 06:25:18
Burger King,598 Atlanta Hwy,,Cumming,GA,30040,US,34.18778992,-84.14057159,2022-12-18 06:25:18
Burger King,3141 Lawrenceville-Suwanee Rd,,Suwanee,GA,30024,US,34.03393555,-84.05077362,2022-12-18 06:25:18
Burger King,"Hwy 5, Appalachian Parkway",,EAST ELLIJAY,GA,30539-0000,US,34.67670059,-84.47805786,2022-12-18 06:25:21
Burger King,3635 Browns Bridge Rd,,Cumming,GA,30028,US,34.26499176,-84.08986664,2022-12-18 06:25:18
Burger King,21 Medical Center Dr,,Dawsonville,GA,30534,US,34.36584091,-84.03870392,2022-12-18 06:25:18
Burger King,3960 Appalachian Highway,,BLUE RIDGE,GA,30513-4405,US,34.87118912,-84.32524872,2022-12-18 06:25:21
Burger King,1725 Mall of Georgia Blvd,,Buford,GA,30519,US,34.06197357,-83.99285889,2022-12-18 06:25:18
Burger King,700-B Dacula Rd,,Dacula,GA,30019,US,34.00193405,-83.91168976,2022-12-18 06:25:18
Burger King,4105 Hwy 20,,Buford,GA,30518,US,34.09230423,-83.99980164,2022-12-18 06:25:18
Burger King,3470 Braselton Hwy,,Dacula,GA,30019,US,34.07146072,-83.91407776,2022-12-18 06:25:18
Burger King,4778 Lanier Island Parkway,,Buford,GA,30518,US,34.14160538,-83.95280457,2022-12-18 06:25:18
Burger King,"983 Hwy 124, Suite B",,Hoschton,GA,30548,US,34.09505081,-83.8097229,2022-12-18 06:25:18
Burger King,3703 Mundy Mill Rd,,Oakwood,GA,30566,US,34.22891617,-83.86881256,2022-12-18 06:25:18
Burger King,6095 Hwy 124 W,,Hoschton,GA,30548,US,34.10773468,-83.7032547,2022-12-18 06:25:18
Burger King,403 Pearl Nix Pkwy,,Gainesville,GA,30501,US,34.28828049,-83.84090424,2022-12-18 06:25:18
Burger King,806 Athens St,,Gainesville,GA,30501,US,34.29394913,-83.81569672,2022-12-18 06:25:18
Burger King,1337 Thompson Bridge Rd,,Gainesville,GA,30501,US,34.31957245,-83.83242035,2022-12-18 06:25:18
Burger King,5388 Hwy 129 N,,Jefferson,GA,30549,US,34.15320969,-83.65171814,2022-12-18 06:25:18
Burger King,30504 Us Hwy 441 S,,Commerce,GA,30529,US,34.25893021,-83.46551514,2022-12-18 06:25:19
Burger King,323 South Main Street,,CLEVELAND,GA,30528-1406,US,34.59239197,-83.76181793,2022-12-18 06:25:18
Burger King,32 Mama B Drive,,Danielsville,GA,30633,US,34.12687683,-83.21928406,2022-12-18 06:25:18
Burger King,1145 Highway 441 North,,CORNELIA,GA,30531-0000,US,34.54080582,-83.54192352,2022-12-18 06:25:18
Burger King,Us 76 At Us 19 & Hwy 129,,BLAIRSVILLE,GA,30514-0535,US,34.87237167,-83.96418762,2022-12-18 06:25:20
Burger King,936 Big A Road,,Tocooa,GA,30577,US,34.57120514,-83.30778503,2022-12-18 06:25:18
Burger King,191 Jones Street,,LAVONIA,GA,30553-0000,US,34.44816971,-83.1244812,2022-12-18 06:25:15
Burger King,73 Rickman Street,,CLAYTON,GA,30525-5141,US,34.87852478,-83.39600372,2022-12-18 06:25:18
Burger King,1101 e main st,,Westminster,SC,29693,US,34.65869141,-83.08699799,2022-12-18 06:25:15
Burger King,3820 Blue Ridge Boulevard,,WALHALLA,SC,29691-2429,US,34.76314926,-83.05584717,2022-12-18 06:25:15
Burger King,160 Florence Road,,SAVANNAH,TN,38372-2504,US,35.22184372,-88.24188995,2022-12-18 06:25:18
Burger King,645 Mulberry Avenue,,SELMER,TN,38375-3242,US,35.15307617,-88.57816315,2022-12-18 06:25:18
Burger King,"1214 N, Locust Avenue",,Lawrenceburg,TN,38464,US,35.25530243,-87.32508087,2022-12-16 15:27:46
Burger King,334 West College Street,,PULASKI,TN,38478-3712,US,35.19812393,-87.0353241,2022-12-18 06:25:22
Burger King,471 East Main Street,,Hohenwald,TN,38462,US,35.55170059,-87.54100037,2022-12-16 15:27:55
Burger King,620 West Church Street,,LEXINGTON,TN,38351-1710,US,35.65796661,-88.41246033,2022-12-16 15:27:52
Burger King,462 South Highland Avenue,,JACKSON,TN,38301-6891,US,35.60918045,-88.8167572,2022-12-18 06:25:19
Burger King,2553 Christmasville Cove,,Jackson,TN,38305,US,35.67315674,-88.78057098,2022-12-18 06:25:19
Burger King,2115 North Highland Avenue,,JACKSON,TN,38305-4920,US,35.65991974,-88.82884216,2022-12-18 06:25:19
Burger King,1235 Trotwood Avenue,,COLUMBIA,TN,38401-4801,US,35.60538864,-87.06571198,2022-12-18 06:25:11
Burger King,639 Old Hickory Boulevard,,JACKSON,TN,38305-2966,US,35.65719986,-88.8523941,2022-12-18 06:25:19
Burger King,38 Stonebrook Place,,JACKSON,TN,38305-3643,US,35.68883896,-88.85654449,2022-12-18 06:25:19
Burger King,960 North Ellington Parkway,,LEWISBURG,TN,37091-2225,US,35.4631424,-86.78431702,2022-12-18 06:25:11
Burger King,1114 Nashville Hwy,,COLUMBIA,TN,38401-2106,US,35.63912201,-87.01503754,2022-12-18 06:25:11
Burger King,6670 HWY 64,,Oakland,TN,38060,US,35.22825623,-89.52519989,2022-12-16 15:27:53
Burger King,1564 Bear Creek Pike,,COLUMBIA,TN,38401-7651,US,35.64282608,-86.89716339,2022-12-18 06:25:11
Burger King,2540 Nashville Highway,,COLUMBIA,TN,38401-7237,US,35.7095108,-86.97406006,2022-12-18 06:25:11
Burger King,1250 West Poplar Ave,,COLLIERVILLE,TN,38017-3103,US,35.04714203,-89.70388794,2022-12-18 06:25:16
Burger King,318 East Main Street,,BROWNSVILLE,TN,38012-4114,US,35.59347153,-89.25812531,2022-12-18 06:25:18
Burger King,3053 South First Street,,MILAN,TN,38358-3109,US,35.91575623,-88.75417328,2022-12-16 15:27:51
Burger King,4883 Port Royal Rd,,Spring Hill,TN,37174,US,35.7413826,-86.89385223,2022-12-18 06:25:11
Burger King,1153 N. Houston Levee Rd,,MEMPHIS,TN,38130-0000,US,35.15671158,-89.72784424,2022-12-18 06:25:19
Burger King,10013 Hwy 64,,Arlington,TN,38002,US,35.20565033,-89.72848511,2022-12-18 06:25:19
Burger King,6428 East Shelby Road,,MEMPHIS,TN,38141-7703,US,35.02066422,-89.84928131,2022-12-18 06:25:16
Burger King,6869 Winchester,,MEMPHIS,TN,38115-4401,US,35.04873276,-89.83496857,2022-12-18 06:25:16
Burger King,1765 N. Germantown Parkway,,CORDOVA,TN,38016-5092,US,35.17426682,-89.79373932,2022-12-18 06:25:16
Burger King,8535 Highway 64,,MEMPHIS,TN,38133-4111,US,35.20370102,-89.77817535,2022-12-18 06:25:19
Burger King,2884 Hickory Hill Road,,MEMPHIS,TN,38115,US,35.06964874,-89.8651123,2022-12-18 06:25:15
Burger King,1100 North Main St,,SHELBYVILLE,TN,37160-2310,US,35.49879837,-86.45749664,2022-12-18 06:25:18
Burger King,5305 Winchester Road,,MEMPHIS,TN,38118-5580,US,35.04989243,-89.88677216,2022-12-18 06:25:15
Burger King,1920 Kirby-Whitten Parkway,,MEMPHIS,TN,38134-0000,US,35.17845535,-89.83586884,2022-12-18 06:25:15
Burger King,1350 Sycamore View,,MEMPHIS,TN,38134-0000,US,35.16207123,-89.85882568,2022-12-18 06:25:15
Burger King,6700 Stage Road,,BARTLETT,TN,38134-2837,US,35.20508957,-89.8399353,2022-12-18 06:25:15
Burger King,2009 Columbia Avenue,,FRANKLIN,TN,37064-3923,US,35.89581299,-86.87552643,2022-12-18 06:25:11
Burger King,3591 Lamar Avenue,,MEMPHIS,TN,38118-2845,US,35.06822968,-89.94463348,2022-12-18 06:25:15
Burger King,3966 Park Avenue,,MEMPHIS,TN,38111-7402,US,35.10803223,-89.93032837,2022-12-18 06:25:15
Burger King,250 Dina Shore Boulevard,,WINCHESTER,TN,37398-1418,US,35.18702698,-86.11083984,2022-12-18 06:25:21
Burger King,4430 Summer Ave,,MEMPHIS,TN,38122-4037,US,35.1492157,-89.91260529,2022-12-18 06:25:15
Burger King,1704 North Jackson Street,,TULLAHOMA,TN,37388-2232,US,35.38092041,-86.22817993,2022-12-18 06:25:18
Burger King,3951 New Covington Pike,,MEMPHIS,TN,38128-2509,US,35.23321533,-89.89407349,2022-12-18 06:25:15
Burger King,1985 East Brooks Road,,MEMPHIS,TN,38116-3601,US,35.06025696,-89.99784088,2022-12-18 07:39:41
Burger King,1662 Hwy 51 S.,,COVINGTON,TN,38019-3223,US,35.54343033,-89.66377258,2022-12-18 06:25:21
Burger King,2348 Lamar Avenue,,MEMPHIS,TN,38114-3707,US,35.10448074,-89.98361206,2022-12-18 07:39:41
Burger King,1911 Mallory Lane,,FRANKLIN,TN,37067-8224,US,35.95616531,-86.81771851,2022-12-18 06:25:09
Burger King,2090 Union Avenue,,MEMPHIS,TN,38104-4234,US,35.13455963,-89.99191284,2022-12-18 07:39:41
Burger King,10750 Hwy 51 South,,ATOKA,TN,38004-6880,US,35.45056534,-89.78012085,2022-12-18 06:25:21
Burger King,2641 North Holywood,,MEMPHIS,TN,38127-8803,US,35.19726944,-89.97609711,2022-12-18 07:39:41
Burger King,4663 Navy Road,,MILLINGTON,TN,38053-1944,US,35.34118652,-89.90813446,2022-12-18 06:25:19
Burger King,2209 Frayser Boulevard,,MEMPHIS,TN,38127-5754,US,35.21689606,-89.9901886,2022-12-18 07:39:41
Burger King,628 Us-51,,Ripley,TN,38063,US,35.76435089,-89.5421524,2022-12-18 06:25:18
Burger King,2407 New Salem Hwy,,MURFREESBORO,TN,37128-5249,US,35.8129921,-86.44638824,2022-12-18 06:25:19
Burger King,2748 Old Fort Parkway,,Murfreesboro,TN,37128,US,35.84543228,-86.44712067,2022-12-18 06:25:19
Burger King,2462 S Church St,,MURFREESBORO,TN,37127-5508,US,35.80729675,-86.39805603,2022-12-18 06:25:19
Burger King,1533 Joe B Jackson Parkway,,Murfreesboro,TN,37127,US,35.78721619,-86.36811829,2022-12-18 06:25:19
Burger King,56 Expressway Drive,,MANCHESTER,TN,37355-7300,US,35.45933533,-86.05415344,2022-12-18 06:25:21
Burger King,Almaville Road,,SMYRNA,TN,37167-0000,US,35.93745041,-86.52896118,2022-12-18 06:25:19
Burger King,833 Industrial Blvd,,Smyrna,TN,37167,US,35.97838974,-86.56906891,2022-12-18 06:25:12
Burger King,1661 Middle Tennessee Blvd,,MURFREESBORO,TN,37130-5114,US,35.83368301,-86.37519836,2022-12-18 06:25:19
Burger King,819 Memorial Blvd,,MURFREESBORO,TN,37129-2761,US,35.85389709,-86.39646912,2022-12-18 06:25:19
Burger King,1524 N Rutherford Blvd,,MURFREESBORO,TN,37130-8126,US,35.87219238,-86.35480499,2022-12-18 06:25:19
Burger King,3800 East Highway 18,,BLYTHEVILLE,AR,72315-6880,US,35.92916107,-89.86875153,2022-12-16 15:27:55
Burger King,2119 East 23rd Street,,CHATTANOOGA,TN,37404-5809,US,35.01859283,-85.28043365,2022-12-18 06:25:17
Burger King,676 Signal Mountain Road,,CHATTANOOGA,TN,37405-1932,US,35.09764862,-85.32715607,2022-12-18 06:25:18
Burger King,4850 Brainerd Rd,,CHATTANOOGA,TN,37411-3831,US,35.01282883,-85.22866058,2022-12-18 06:25:17
Burger King,3401 Amnicola Highway,,CHATTANOOGA,TN,37406-1761,US,35.08106995,-85.26499939,2022-12-18 06:25:18
Burger King,4827 Hixson Pike,,HIXSON,TN,37343-4448,US,35.12712479,-85.24723816,2022-12-18 06:25:18
Burger King,6236 Lee Hwy,,CHATTANOOGA,TN,37421-0000,US,35.0306282,-85.18410492,2022-12-18 06:25:17
Burger King,7950 East Brainerd Road,,CHATTANOOGA,TN,37421-4246,US,35.00509644,-85.15328217,2022-12-18 06:25:17
Burger King,1402 Sparta St,,MCMINNVILLE,TN,37110-1728,US,35.69455338,-85.74834442,2022-12-18 06:25:21
Burger King,10180 Dayton Pike,,SODDY DAISY,TN,37379-5408,US,35.25468826,-85.18146515,2022-12-18 06:25:18
Burger King,5605 Little Debbie Parkway,,OOLTEWAH,TN,37363-8399,US,35.084198,-85.06453705,2022-12-18 06:25:18
Burger King,3600 Rhea County Hwy,,Dayton,TN,37321,US,35.46593475,-85.03958893,2022-12-18 06:25:20
Burger King,554 West Bockman Way,,SPARTA,TN,38583-1542,US,35.93378067,-85.47892761,2022-12-18 06:25:16
Burger King,1060 North Main Street,,CROSSVILLE,TN,38555-4091,US,35.96155548,-85.03523254,2022-12-18 06:25:16
Burger King,1186 Perimeter Dr SE,,Cleveland,TN,37323,US,35.13039017,-84.8742981,2022-12-18 06:25:18
Burger King,1445 25th Street,,CLEVELAND,TN,37311-3608,US,35.18945312,-84.88049316,2022-12-18 06:25:12
Burger King,960 Paul Huff Pkwy - NW,,Cleveland,TN,37312,US,35.21369934,-84.8687973,2022-12-18 06:25:12
Burger King,2635 Decatur Pike,,ATHENS,TN,37303-4940,US,35.46405792,-84.64686584,2022-12-18 06:25:12
Burger King,160 New Highway 68,,SWEETWATER,TN,37874-2793,US,35.59760666,-84.51271057,2022-12-18 06:25:12
Burger King,4521 US  Highway 411,,Madisonville,TN,37354,US,35.51766968,-84.35897064,2022-12-18 06:25:12
Burger King,1510 Andrews Road,,MURPHY,NC,28906-5113,US,35.10844803,-84.00984192,2022-12-16 15:27:54
Burger King,12000 TN-72,,Loudon,TN,37774,US,35.73182678,-84.3888092,2022-12-18 06:25:12
Burger King,120 Simpson Road East,,LENOIR CITY,TN,37772-6426,US,35.81672287,-84.26442719,2022-12-18 06:25:20
Burger King,615 Watt Road,,KNOXVILLE,TN,37934-1112,US,35.87343216,-84.23718262,2022-12-18 06:25:20
Burger King,1605 Schaeffer Drive,,KNOXVILLE,TN,37932-1522,US,35.93644333,-84.14525604,2022-12-18 06:25:15
Burger King,9615 Kroger Park Dr,,KNOXVILLE,TN,37922,US,35.8613205,-84.06967163,2022-12-18 06:25:15
Burger King,8412 Kingston Pike,,KNOXVILLE,TN,37919-5351,US,35.92225647,-84.0593338,2022-12-18 06:25:15
Burger King,127 Northshore Drive,,KNOXVILLE,TN,37919-4048,US,35.93429947,-84.00319672,2022-12-18 06:25:15
Burger King,5310 North Middlebrook Pike,,KNOXVILLE,TN,37921-5910,US,35.95696259,-84.0032196,2022-12-18 06:25:15
Burger King,130 Westgate Plaza Road,,FRANKLIN,NC,28734-1315,US,35.16567612,-83.400383,2022-12-18 06:25:09
Burger King,730 Foothills Boulevard,,MARYVILLE,TN,37801-0000,US,35.75007629,-83.99815369,2022-12-18 06:25:19
Burger King,115 Lindsay Street,,ALCOA,TN,37701-2469,US,35.76498032,-83.97164917,2022-12-18 06:25:15
Burger King,195 Veterans Blvd,,BRYSON CITY,NC,28713-8817,US,35.42350769,-83.44584656,2022-12-18 06:25:09
Burger King,7216 South Chapman Highway,,KNOXVILLE,TN,37920-6610,US,35.91031647,-83.85092163,2022-12-18 06:25:15
Burger King,Highway 441,,CHEROKEE,NC,28719-0000,US,35.47396469,-83.31529999,2022-12-18 06:25:09
Burger King,11423 Chapman Hwy,,SEYMOUR,TN,37865-5043,US,35.86986542,-83.75657654,2022-12-18 06:25:15
Burger King,Highway 107 - 3 Webster Road,,SYLVA,NC,28779-0000,US,35.35223389,-83.20120239,2022-12-18 06:25:09
Burger King,2806 North Broadway,,KNOXVILLE,TN,37917-3807,US,35.99817657,-83.92375946,2022-12-18 06:25:15
Burger King,2560 Parkway Blvd.,,PIGEON FORGE,TN,37863-3224,US,35.80496597,-83.57718658,2022-12-18 06:25:19
Burger King,"Burger King, 2550 Veterans Blvd.",,Pigeon Forge,TN,37863,US,35.81201935,-83.53775024,2022-12-18 06:25:19
Burger King,412 Forks Of The River,,SEVIERVILLE,TN,37862-3423,US,35.86330414,-83.56674957,2022-12-18 06:25:15
Burger King,1231 Dolly Parton Pkwy,,SEVIERVILLE,TN,37862-3712,US,35.86343765,-83.5271759,2022-12-18 06:25:19
Burger King,2942 Winfield Dunn Pkwy,,KODAK,TN,37764-0000,US,35.96242905,-83.59379578,2022-12-18 06:25:15
Burger King,836 Cosby Hwy,,NEWPORT,TN,37821-3346,US,35.94981766,-83.20097351,2022-12-18 06:25:21
Burger King,11235 Fortuna Road,,YUMA,AZ,85367-5626,US,32.66775894,-114.44340515,2022-12-18 06:25:18
Burger King,620 E. Main St.,,Somerton,AZ,85350,US,32.5970459,-114.70397949,2022-12-18 06:25:18
Burger King,581 E.  16th Street,,Yuma,AZ,85365,US,32.69842911,-114.61389923,2022-12-18 06:25:18
Burger King,1501 Avenue B,,YUMA,AZ,85364-4324,US,32.70014954,-114.64990997,2022-12-18 06:25:18
Burger King,501 West Pima,,GILA BEND,AZ,85337-0000,US,32.94568634,-112.72389984,2022-12-18 06:25:21
Burger King,2901 S. Dogwood,,EL CENTRO,CA,92243-9601,US,32.76890564,-115.53430176,2022-12-18 06:25:14
Burger King,5310 S. Sunland Gin Road,,ELOY,AZ,85131-9050,US,32.81351089,-111.67190552,2022-12-18 06:25:14
Burger King,810 East Florence Boulevard,,CASA GRANDE,AZ,85122-4601,US,32.87994003,-111.74368286,2022-12-18 06:25:14
Burger King,2233 East Florence Boulevard,,CASA GRANDE,AZ,85122-9113,US,32.87922668,-111.69094086,2022-12-18 06:25:14
Burger King,1681 W. Valencia Road,,TUCSON,AZ,85746-6028,US,32.13341904,-111.00072479,2022-12-18 06:25:11
Burger King,2753 N. Pinal Ave.,,Casa Grande,AZ,85122,US,32.93764114,-111.75734711,2022-12-18 06:25:14
Burger King,8328 N Cortaro Rd,,TUCSON,AZ,85743-9305,US,32.35742188,-111.09015656,2022-12-18 06:25:11
Burger King,1960 W. River Rd.,,TUCSON,AZ,85704-1691,US,32.30575943,-111.00927734,2022-12-18 06:25:11
Burger King,47 North Sonoita,,NOGALES,AZ,85621-2520,US,31.33419037,-110.9437027,2022-12-18 06:25:20
Burger King,19110 South I-19 Frontage Rd.,,GREEN VALLEY,AZ,85614-5088,US,31.90317535,-110.9866333,2022-12-18 06:25:20
Burger King,1370 West Ajo,,TUCSON,AZ,85713-5702,US,32.17817688,-110.99449158,2022-12-18 06:25:11
Burger King,2520 East Valencia Road,,TUCSON,AZ,85706-5911,US,32.13364029,-110.93395996,2022-12-18 06:25:11
Burger King,2040 East Irvington Road,,TUCSON,AZ,85714-1825,US,32.16278839,-110.9416275,2022-12-18 06:25:11
Burger King,3002 South 6th Ave,,Tucson,AZ,85713,US,32.18832779,-110.96893311,2022-12-18 06:25:11
Burger King,871 W. Saint Mary's Road,,TUCSON,AZ,85745-2439,US,32.22888947,-110.98342133,2022-12-18 06:25:11
Burger King,3485 East Ajo Way,,TUCSON,AZ,85713-5234,US,32.17837906,-110.91822052,2022-12-18 06:25:11
Burger King,454 West Grant,,TUCSON,AZ,85705-5419,US,32.25040817,-110.97969818,2022-12-18 06:25:11
Burger King,9175 S. Rita Road,,Tucson,AZ,85747,US,32.08639145,-110.80123901,2022-12-18 06:25:11
Burger King,4303 E. 22nd st,,TUCSON,AZ,85711-5705,US,32.20740509,-110.90061951,2022-12-18 06:25:11
Burger King,2720 S CRAYCROFT RD,,DAVIS-MONTHAN AFB,AZ,85707-6004,US,32.18794632,-110.86363983,2022-12-18 06:25:11
Burger King,7006 East Golf Links Road,,TUCSON,AZ,85730-1064,US,32.19146729,-110.84301758,2022-12-18 06:25:11
Burger King,10 North Wilmot Road,,TUCSON,AZ,85711-3326,US,32.22230148,-110.8572998,2022-12-18 06:25:11
Burger King,7150 East Speedway Boulevard,,Tucson,AZ,85710,US,32.23456955,-110.84024048,2022-12-18 06:25:11
Burger King,7880 East Speedway,,TUCSON,AZ,85710-1649,US,32.23516083,-110.82469177,2022-12-18 06:25:11
Burger King,8702 E Broadway Blvd,,TUCSON,AZ,85710-4016,US,32.22051239,-110.80628967,2022-12-18 06:25:11
Burger King,10200 East Golf Links Road,,Tucson,AZ,85730,US,32.1917305,-110.77197266,2022-12-18 06:25:11
Burger King,5100 SMITH AVE,BLDG 51004,FORT HUACHUCA,AZ,85613,US,31.55515289,-110.35747528,2022-12-18 06:25:20
Burger King,415 Highway 90 Bypass,,SIERRA VISTA,AZ,85635-2241,US,31.55891991,-110.25663757,2022-12-18 06:25:20
Burger King,15320 North Oracle Road,,TUCSON,AZ,85739-9426,US,32.48413849,-110.92169189,2022-12-18 06:25:11
Burger King,101 Naco Highway,,BISBEE,AZ,85603-9729,US,31.40062714,-109.91892242,2022-12-18 06:25:20
Burger King,99th East 5th. Avenue,,DOUGLAS,AZ,85607-2871,US,31.33851242,-109.5610733,2022-12-16 15:27:55
Burger King,1205 W Rex Allen Dr,,WILLCOX,AZ,85643-1032,US,32.26612854,-109.84238434,2022-12-16 15:27:55
Burger King,2103 W Highway 70,,THATCHER,AZ,85552-5446,US,32.83675766,-109.73524475,2022-12-16 15:27:39
Burger King,1395 West Main,,QUARTZSITE,AZ,85346-2804,US,33.66127777,-114.24079132,2022-12-16 15:27:52
Burger King,379 South Lovekin,,BLYTHE,CA,92225-2709,US,33.60494614,-114.6056366,2022-12-18 06:25:21
Burger King,1552 South Miller Road,,BUCKEYE,AZ,85326-6428,US,33.43186188,-112.59143829,2022-12-18 06:25:19
Burger King,1315 S. Watson Rd.,,Buckeye,AZ,85326,US,33.43443298,-112.55564117,2022-12-18 06:25:19
Burger King,19590 W. Indian School Rd.,,Buckeye,AZ,85396,US,33.49359894,-112.47874451,2022-12-18 06:25:19
Burger King,16364 W. Yuma Rd.,,GOODYEAR,AZ,85338-3100,US,33.43618774,-112.41074371,2022-12-18 06:25:19
Burger King,15250 W Mcdowell Rd,,GOODYEAR,AZ,85395-2530,US,33.46490097,-112.38683319,2022-12-18 06:25:19
Burger King,394 N. Litchfield Road,,GOODYEAR,AZ,85338-1224,US,33.45132065,-112.35871887,2022-12-18 06:25:19
Burger King,3490 North Litchfield Road,,GOODYEAR,AZ,85395-9200,US,33.48705292,-112.3632431,2022-12-18 06:25:19
Burger King,11445 W. Buckeye Rd.,,AVONDALE,AZ,85323-6810,US,33.4349823,-112.30564117,2022-12-18 06:25:19
Burger King,20699 N. John Wayne Pkwy,,Maricopa,AZ,85139,US,33.06672287,-112.04534149,2022-12-18 06:25:14
Burger King,12337 W. Camelback Rd,,Litchfield Park,AZ,85340,US,33.50709152,-112.32443237,2022-12-18 06:25:09
Burger King,9920 W Van Buren,,Avondale,AZ,85323,US,33.45054626,-112.27297974,2022-12-18 06:25:16
Burger King,16790 W Waddell RD,,Surprise,AZ,85388,US,33.61037827,-112.42005157,2022-12-18 06:25:09
Burger King,1124 Thunderbird St,,GLENDALE,AZ,85307-2100,US,33.54117966,-112.35100555,2022-12-18 06:25:09
Burger King,14719 W Cactus Rd,,Surprise,AZ,85379,US,33.59453964,-112.37680054,2022-12-18 06:25:09
Burger King,7545 W. Lower Buckeye Rd.,,PHOENIX,AZ,85043-3450,US,33.42250443,-112.22286987,2022-12-18 06:25:16
Burger King,15475 West Greenway Road,,Surprise,AZ,85379,US,33.62372208,-112.39347839,2022-12-18 06:25:09
Burger King,1610 N 83rd Ave,,PHOENIX,AZ,85035-4301,US,33.46579361,-112.2385025,2022-12-18 06:25:16
Burger King,12280 West Olive Ave,,EL MIRAGE,AZ,85335-9776,US,33.56583786,-112.32407379,2022-12-18 06:25:09
Burger King,9680 W. Camelback Road.,,GLENDALE,AZ,85305-3103,US,33.5088768,-112.26686859,2022-12-18 06:25:09
Burger King,5055 West Southern Ave,,LAVEEN,AZ,85339-6307,US,33.39162445,-112.16759491,2022-12-18 06:25:16
Burger King,13775 N Dysart Rd,,El Mirage,AZ,85335,US,33.60755157,-112.34117889,2022-12-18 06:25:09
Burger King,14535 West Grand Avenue,,SURPRISE,AZ,85374-4295,US,33.65495682,-112.37207031,2022-12-18 06:25:09
Burger King,7405 W Indian School Rd,,Phoenix,AZ,85033,US,33.49432373,-112.21861267,2022-12-18 06:25:16
Burger King,12601 West Bell Road,,SURPRISE,AZ,85374-9509,US,33.63871384,-112.33207703,2022-12-18 06:25:09
Burger King,5102 West Mcdowell Road,,PHOENIX,AZ,85035-3862,US,33.46563721,-112.16939545,2022-12-18 06:25:16
Burger King,1970 W. Baseline Rd,,PHOENIX,AZ,85041-6505,US,33.37841034,-112.10166168,2022-12-18 06:25:21
Burger King,10243 NW Grand Avenue,,Sun City,AZ,85351,US,33.59955215,-112.28044891,2022-12-18 06:25:09
Burger King,520 E Wickenburg Way,,Wickenburg,AZ,85390,US,33.96980286,-112.72072601,2022-12-16 15:27:55
Burger King,7490 West Glendale Avenue,,GLENDALE,AZ,85303-3000,US,33.53842163,-112.21983337,2022-12-18 06:25:09
Burger King,9119 West Peoria,,PEORIA,AZ,85345-6309,US,33.58041763,-112.25540161,2022-12-18 06:25:09
Burger King,5834 W. Camelback Rd.,,GLENDALE,AZ,85301-7409,US,33.50984955,-112.18515015,2022-12-18 06:25:12
Burger King,3521 West Van Buren,,PHOENIX,AZ,85009-4106,US,33.45122147,-112.1357193,2022-12-18 06:25:16
Burger King,665 E Baseline Rd,,PHOENIX,AZ,85042-6551,US,33.37704086,-112.06661987,2022-12-18 06:25:21
Burger King,4302 West Indian School Road,,PHOENIX,AZ,85031-2936,US,33.49560165,-112.15221405,2022-12-18 06:25:12
Burger King,1901 W Buckeye Rd,,Phoenix,AZ,85009,US,33.43621445,-112.0994873,2022-12-18 06:25:16
Burger King,8425 West Thunderbird Road,,PEORIA,AZ,85381-4821,US,33.60940933,-112.24047089,2022-12-18 06:25:09
Burger King,709 East Broadway R.,,PHOENIX,AZ,85040-2205,US,33.40680313,-112.06449127,2022-12-18 06:25:21
Burger King,6698 West Peoria Avenue,,GLENDALE,AZ,85302-1012,US,33.58179474,-112.2022934,2022-12-18 06:25:09
Burger King,4422 West Glendale Avenue,,GLENDALE,AZ,85301-2805,US,33.53862381,-112.15426636,2022-12-18 06:25:12
Burger King,21551 N LAKE PLEASANT PKWY,,PEORIA,AZ,85382-7438,US,33.67969131,-112.27868652,2022-12-18 06:25:09
Burger King,5090 West Olive Avenue,,GLENDALE,AZ,85302-3507,US,33.5677681,-112.16838837,2022-12-18 06:25:09
Burger King,2337 E Southern Ave,,Phoenix,AZ,85040,US,33.39331055,-112.03009033,2022-12-18 06:25:17
Burger King,4102 North 19th ave,,phoenix,AZ,85015,US,33.49505234,-112.09994507,2022-12-18 06:25:12
Burger King,1545 East Buckeye,,PHOENIX,AZ,85034-4108,US,33.43656921,-112.04880524,2022-12-18 06:25:17
Burger King,2640 W. Bethany Home Road,,PHOENIX,AZ,85017-2104,US,33.52428818,-112.11603546,2022-12-18 06:25:12
Burger King,5841 West Th-Bird Road,,GLENDALE,AZ,85306-4628,US,33.61056519,-112.18492126,2022-12-18 06:25:09
Burger King,2318 West Northern Avenue,,PHOENIX,AZ,85021-4935,US,33.55345154,-112.10940552,2022-12-18 06:25:12
Burger King,1611 East Thomas Road,,PHOENIX,AZ,85016-7601,US,33.48009109,-112.04735565,2022-12-18 06:25:17
Burger King,20197 North 67th. Avenue,,GLENDALE,AZ,85308-7001,US,33.66637421,-112.20253754,2022-12-18 06:25:09
Burger King,2755 W. Peoria Avenue,,PHOENIX,AZ,85029-5215,US,33.58150482,-112.12072754,2022-12-18 06:25:12
Burger King,5120 W. Bell Rd.,,Glendale,AZ,85308,US,33.63957596,-112.16963959,2022-12-18 06:25:09
Burger King,13635 North 35th Avenue,,PHOENIX,AZ,85029-1267,US,33.60988235,-112.13340759,2022-12-18 06:25:12
Burger King,3164 East Mcdowell Road,,PHOENIX,AZ,85008-3742,US,33.46601486,-112.01338959,2022-12-18 06:25:17
Burger King,2436 East Indian School Road,,Phoenix,AZ,85016,US,33.49481201,-112.03020477,2022-12-18 06:25:17
Burger King,9802 N 7th St,,PHOENIX,AZ,85020-1741,US,33.57523727,-112.06561279,2022-12-18 06:25:12
Burger King,"20035 N. 35th Ave,",,Phoenix,AZ,85027,US,33.66858673,-112.13459778,2022-12-18 06:25:12
Burger King,1615 W. Bell Rd,,Phoenix,AZ,85023,US,33.63895798,-112.09451294,2022-12-18 06:25:12
Burger King,3840 W Happy Valley Rd,,GLENDALE,AZ,85310-3280,US,33.71343613,-112.14176178,2022-12-18 06:25:13
Burger King,20039 N 19th Ave,,Phoenix,AZ,85027,US,33.66787338,-112.09947205,2022-12-18 06:25:12
Burger King,1375 E Bell Road,,Phoenix,AZ,85022,US,33.64007187,-112.052742,2022-12-18 06:25:12
Burger King,12002 North 32nd Street,,PHOENIX,AZ,85028-1219,US,33.59538651,-112.01373291,2022-12-18 06:25:12
Burger King,2207 W Happy Valley Rd,,PHOENIX,AZ,85085-2849,US,33.71244049,-112.10662079,2022-12-18 06:25:13
Burger King,2337 E Quail Ave,,Phoenix,AZ,85024,US,33.67848969,-112.03148651,2022-12-18 06:25:13
Burger King,33100 N North Valley Pkwy,,Phoenix,AZ,85335,US,33.78492737,-112.11816406,2022-12-18 06:25:13
Burger King,9668 East Riggs Road,,SUN LAKES,AZ,85248-7401,US,33.2183075,-111.87491608,2022-12-18 06:25:21
Burger King,4805 E. Warner Road,,PHOENIX,AZ,85044-3355,US,33.33041382,-111.98017883,2022-12-18 06:25:17
Burger King,4979 West Ray Road,,CHANDLER,AZ,85226-2050,US,33.31971741,-111.92734528,2022-12-18 06:25:17
Burger King,1220 W. Elliott Road,,TEMPE,AZ,85284-1100,US,33.34958649,-111.95909882,2022-12-18 06:25:17
Burger King,1945 South Alma School Road,,CHANDLER,AZ,85286-6905,US,33.2779274,-111.85791016,2022-12-18 06:25:21
Burger King,2260 W. Baseline Rd.,,Tempe,AZ,85282,US,33.37837982,-111.97102356,2022-12-18 06:25:17
Burger King,4002 East Broadway,,PHOENIX,AZ,85040-8802,US,33.40742874,-111.99519348,2022-12-18 06:25:17
Burger King,6402 South Rural Road,,TEMPE,AZ,85283-2908,US,33.36319733,-111.92913818,2022-12-18 06:25:17
Burger King,1990 West Ray Road,,CHANDLER,AZ,85224-9008,US,33.32107925,-111.87585449,2022-12-18 06:25:17
Burger King,2865 E Ocotillo Rd,,Chandler,AZ,85249,US,33.24783707,-111.79199982,2022-12-18 06:25:16
Burger King,5 East Southern Avenue,,TEMPE,AZ,85282-5129,US,33.39251328,-111.93888855,2022-12-18 06:25:17
Burger King,1001 North Arizona Avenue,,CHANDLER,AZ,85225-6693,US,33.3212204,-111.84119415,2022-12-18 06:25:18
Burger King,2972 North Alma School,,CHANDLER,AZ,85224-1955,US,33.3475914,-111.85942078,2022-12-18 06:25:17
Burger King,175 N 44th St,,Phoenix,AZ,85008,US,33.45033264,-111.9868927,2022-12-18 06:25:17
Burger King,222 N Cooper Rd,,Chandler,AZ,85225,US,33.30699158,-111.80764008,2022-12-18 06:25:16
Burger King,Arizona State University,,TEMPE,AZ,85287-0002,US,33.4176445,-111.93453217,2022-12-18 06:25:17
Burger King,2011 S. McClintock Drive,,TEMPE,AZ,85282-1605,US,33.40703964,-111.90826416,2022-12-18 06:25:17
Burger King,"2834 N. 44th St,",,Phoenix,AZ,85008,US,33.47970581,-111.98756409,2022-12-18 06:25:17
Burger King,23682 Power Road S.,,QUEEN CREEK,AZ,85142-6146,US,33.2337532,-111.68637848,2022-12-18 06:25:16
Burger King,1440 S. Country Club Drive,,MESA,AZ,85210-9701,US,33.38919067,-111.84017181,2022-12-18 06:25:17
Burger King,1201 West Main Street,,MESA,AZ,85201-7018,US,33.41435623,-111.85720825,2022-12-18 06:25:17
Burger King,6737 East Thomas Road,,SCOTTSDALE,AZ,85251-6011,US,33.4799118,-111.93558502,2022-12-18 06:25:17
Burger King,695 South Val Vista Road,,GILBERT,AZ,85296-3134,US,33.337677,-111.75513458,2022-12-18 06:25:16
Burger King,7455 South Power Road,,QUEEN CREEK,AZ,85142-6219,US,33.28131866,-111.68556976,2022-12-18 06:25:16
Burger King,1741 West Hunt Highway,,QUEEN CREEK,AZ,85143-5203,US,33.17894745,-111.58454132,2022-12-18 06:25:16
Burger King,4073 E. Williams Field Rd,,Gilbert,AZ,85295,US,33.30688858,-111.69831848,2022-12-18 06:25:16
Burger King,2024 East Southern Avenue,,MESA,AZ,85204-5303,US,33.3940506,-111.78775024,2022-12-18 06:25:18
Burger King,353 E. Brown Rd.,,Mesa,AZ,85201,US,33.43557739,-111.82266998,2022-12-18 06:25:17
Burger King,1710 S Greenfield Rd,,MESA,AZ,85206-3481,US,33.38449097,-111.74020386,2022-12-18 06:25:16
Burger King,7302 S. Ellsworth Rd.,,Mesa,AZ,85212,US,33.28456116,-111.63562012,2022-12-18 06:25:16
Burger King,2708 East University,,MESA,AZ,85213-8452,US,33.42289352,-111.77216339,2022-12-18 06:25:18
Burger King,1730 N Higley Rd,,Gilbert,AZ,85234,US,33.38242722,-111.72133636,2022-12-18 06:25:16
Burger King,91 West Combs Road,,QUEEN CREEK,AZ,85140-9160,US,33.21946716,-111.56469727,2022-12-18 06:25:16
Burger King,80 West Highway 287,,FLORENCE,AZ,85132-0000,US,33.02008057,-111.3886795,2022-12-18 06:25:14
Burger King,6820 E. Superstition S. Blvd.,,MESA,AZ,85209-4000,US,33.38415909,-111.68411255,2022-12-18 06:25:16
Burger King,8355 E Guadalupe Road,,Mes,AZ,85212,US,33.36450195,-111.65369415,2022-12-18 06:25:16
Burger King,6758 E. University Dr.,,Mesa,AZ,85205,US,33.42282867,-111.68449402,2022-12-18 06:25:16
Burger King,5859 E. McKellips Rd.,,MESA,AZ,85215-2741,US,33.45147324,-111.70353699,2022-12-18 06:25:19
Burger King,10726 E. Guadalupe Rd,,Mesa,AZ,85209,US,33.36500168,-111.60240936,2022-12-18 06:25:16
Burger King,10025 E Southern Ave,,MESA,AZ,85209,US,33.39269638,-111.61489105,2022-12-18 06:25:16
Burger King,15355 N Northsight Blvd,,SCOTTSDALE,AZ,85260-2603,US,33.62465286,-111.89322662,2022-12-18 06:25:20
Burger King,9154 E. Main St.,,Mesa,AZ,85207,US,33.41576004,-111.63324738,2022-12-18 06:25:16
Burger King,530 West Apache Trail,,APACHE JUNCTION,AZ,85120-3907,US,33.41547012,-111.55184174,2022-12-18 06:25:20
Burger King,13725 N. Fountain Hills Blvd.,,FOUNTAIN HILLS,AZ,85268-3778,US,33.61030197,-111.72874451,2022-12-16 15:27:52
Burger King,34193 N Cave Creek Rd,,CAVE CREEK,AZ,85331-0000,US,33.79539871,-111.96577454,2022-12-18 06:25:13
Burger King,55 West Fatco Road,,WHITE RIVER,AZ,85041-0000,US,33.82120895,-109.98165131,2022-12-08 05:05:42
Burger King,701 Riverside Drive,,PARKER,AZ,85344-5129,US,34.15101242,-114.28672791,2022-12-16 15:27:54
Burger King,55 Lake Havasu Ave N,,LAKE HAVASU CITY,AZ,86403-5626,US,34.47582245,-114.34479523,2022-12-18 06:25:20
Burger King,1240 Gail Gardner Way,,PRESCOTT,AZ,86305-1641,US,34.56407928,-112.48648834,2022-12-18 06:25:14
Burger King,7780 E State Route 69 Apt 3,,PRESCOTT VALLEY,AZ,86314-2229,US,34.58546066,-112.33019257,2022-12-18 06:25:14
Burger King,"1090 N. State Route 89,",,Chino Valley,AZ,86323,US,34.76104736,-112.45384979,2022-12-18 06:25:14
Burger King,365 N GOSWICK WAY,,CAMP VERDE,AZ,86322-5201,US,34.57430649,-111.88252258,2022-12-16 15:27:39
Burger King,301 South Beeline Highway,,PAYSON,AZ,85541-4987,US,34.23789597,-111.32186127,2022-12-16 15:27:54
Burger King,100 West Deuce Of Clubs,,SHOW LOW,AZ,85901-4704,US,34.24997711,-110.04334259,2022-12-18 07:39:41
Burger King,697 N. Main Street,,TAYLOR,AZ,85939-0000,US,34.47586823,-110.08786774,2022-12-18 07:39:41
Burger King,2096 Navajo Blvd,,HOLBROOK,AZ,86025-2100,US,34.92334366,-110.14561462,2022-12-18 06:25:17
Burger King,1851A Highway 77,,HOLBROOK,AZ,86025-2100,US,34.97421646,-110.08979034,2022-12-18 06:25:17
Burger King,365 East White Mountain Blvd.,,PINETOP,AZ,85935-0000,US,34.13570023,-109.95056915,2022-12-16 15:27:37
Burger King,4753 S Highway 95,,Fort Mohave,AZ,86440,US,35.01834106,-114.59868622,2022-12-18 06:25:11
Burger King,3250 East Andy Devine Street,,KINGMAN,AZ,86401-3702,US,35.21793747,-114.00930023,2022-12-16 15:27:53
Burger King,1751 Hwy 95 #5,,Bullhead City,AZ,86442,US,35.12164688,-114.58728027,2022-12-18 06:25:11
Burger King,3830 Saint Rose Pkwy,,LAS VEGAS,NV,89044-8702,US,35.97765732,-115.15671539,2022-12-18 06:25:15
Burger King,1651 South Milton,,FLAGSTAFF,AZ,86001-6310,US,35.18376541,-111.66186523,2022-12-16 15:27:51
Burger King,3520 East Route 66,,FLAGSTAFF,AZ,86004-4033,US,35.21525574,-111.59766388,2022-12-16 15:27:51
Burger King,US Highway 89 @ State Route 64,,CAMERON,AZ,86020-0000,US,35.85491943,-111.42494965,2022-12-08 05:05:43
Burger King,Highway 264 & Highway 191,,GANADO,AZ,86505-0000,US,35.75499725,-109.62614441,2022-12-13 15:34:10
Burger King,801 North Highway 666,,GALLUP,NM,87301-5389,US,35.53372192,-108.75935364,2022-12-16 15:27:51
Burger King,2400 East Highway 66,,GALLUP,NM,87301-4767,US,35.5290947,-108.70766449,2022-12-16 15:27:51
Burger King,550 South Boulder Highway,,HENDERSON,NV,89015-7512,US,36.03186798,-114.97244263,2022-12-18 06:25:16
Burger King,1270 West Warm Springs Road,,HENDERSON,NV,89014-8739,US,36.05638885,-115.04055786,2022-12-18 06:25:16
Burger King,2180 East Serene Avenue,,LAS VEGAS,NV,89123-3223,US,36.02080154,-115.12185669,2022-12-18 06:25:15
Burger King,209 North Pecos Road,,HENDERSON,NV,89074-7309,US,36.0434494,-115.10105896,2022-12-18 06:25:15
Burger King,5536 S. Boulder Crossing Hwy,,LAS VEGAS,NV,89122-0000,US,36.10147858,-115.05227661,2022-12-18 06:25:16
Burger King,3401 East Tropicana,,LAS VEGAS,NV,89121-7333,US,36.09971237,-115.10097504,2022-12-18 06:25:16
Burger King,2599 South Nellis Boulevard,,LAS VEGAS,NV,89121-2042,US,36.14280319,-115.0659256,2022-12-18 06:25:19
Burger King,4111 Boulder Highway,,LAS VEGAS,NV,89121-2510,US,36.13351059,-115.08490753,2022-12-18 06:25:16
Burger King,7810 Las Vegas Blvd S,,LAS VEGAS,NV,89123-1012,US,36.04764938,-115.17182159,2022-12-18 06:25:15
Burger King,5757 WAYNE NEWTON BLVD,,LAS VEGAS,NV,89111-8037,US,36.08039093,-115.14971924,2022-12-18 06:25:15
Burger King,8050 Dean Martin Dr,,LAS VEGAS,NV,89139-6624,US,36.0430069,-115.18762207,2022-12-18 06:25:15
Burger King,4455 E. Charleston Boulevard,,LAS VEGAS,NV,89104-5537,US,36.15858078,-115.07788849,2022-12-18 06:25:16
Burger King,5185 Blue Diamond Road,,Las Vegas,NV,89139,US,36.03023911,-115.21199799,2022-12-18 06:25:15
Burger King,1915 North Nellis Boulevard,,LAS VEGAS,NV,89115-6603,US,36.19468689,-115.06241608,2022-12-18 06:25:15
Burger King,2201 East Sahara Avenue,,LAS VEGAS,NV,89104-4105,US,36.14481354,-115.11798096,2022-12-18 06:25:16
Burger King,3355 South Maryland Parkway,,LAS VEGAS,NV,89169-3010,US,36.12816238,-115.13768768,2022-12-18 06:25:15
Burger King,3620 West Tropicana Avenue,,LAS VEGAS,NV,89103-5601,US,36.10122681,-115.18822479,2022-12-18 06:25:15
Burger King,2390 East Bonanza Boulevard,,LAS VEGAS,NV,89101-3451,US,36.17366028,-115.1167984,2022-12-18 06:25:15
Burger King,4200 N Washington Blvd,,LAS VEGAS,NV,89191-7027,US,36.23560715,-115.04979706,2022-12-18 06:25:15
Burger King,1125 East Charleston Boulevard,,LAS VEGAS,NV,89104-1516,US,36.1591568,-115.13801575,2022-12-18 06:25:15
Burger King,8005 Blue Diamond Road,,Las Vegas,NV,89178,US,36.01977539,-115.26618958,2022-12-18 06:25:15
Burger King,4815 West Flamingo Rd.,,LAS VEGAS,NV,89103-3740,US,36.11505508,-115.20620728,2022-12-18 06:25:15
Burger King,2044 Las Vegas Blvd N,,NORTH LAS VEGAS,NV,89030-5802,US,36.19714355,-115.12691498,2022-12-18 06:25:15
Burger King,3831 East Craig Road,,NORTH LAS VEGAS,NV,89030-7503,US,36.23999786,-115.09546661,2022-12-18 06:25:15
Burger King,8475 W Warm Springs Rd,,LAS VEGAS,NV,89113-3616,US,36.05522156,-115.2766571,2022-12-18 06:25:15
Burger King,820 North Rancho,,LAS VEGAS,NV,89106-3709,US,36.18012238,-115.17765808,2022-12-18 06:25:15
Burger King,5200 West Charleston Blvd,,LAS VEGAS,NV,89146-1345,US,36.15952301,-115.21218109,2022-12-18 06:25:15
Burger King,3485 Rainbow Boulevard,,LAS VEGAS,NV,89146-6584,US,36.12616348,-115.24340057,2022-12-18 06:25:15
Burger King,5240 South Fort Apache Road,,LAS VEGAS,NV,89148-1722,US,36.09408951,-115.29683685,2022-12-18 06:25:15
Burger King,1709 West Craig Road,,NORTH LAS VEGAS,NV,89032-0225,US,36.23912811,-115.16625214,2022-12-18 06:25:15
Burger King,105 South Rainbow Blvd.,,LAS VEGAS,NV,89145-5357,US,36.17273331,-115.24372864,2022-12-18 06:25:15
Burger King,2021 North Jones Boulevard,,LAS VEGAS,NV,89108-3348,US,36.19665909,-115.22351837,2022-12-18 06:25:15
Burger King,8699 West Sahara Avenue,,LAS VEGAS,NV,89117-5830,US,36.14363098,-115.28155518,2022-12-18 06:25:15
Burger King,3004 W Ann Rd,,NORTH LAS VEGAS,NV,89031-7259,US,36.26169205,-115.18044281,2022-12-18 06:25:15
Burger King,6677 W. Cheyenne Avenue,,LAS VEGAS,NV,89108-4930,US,36.21788025,-115.24211121,2022-12-18 06:25:15
Burger King,6080 W Craig Rd,,LAS VEGAS,NV,89130-2559,US,36.23960495,-115.22862244,2022-12-18 06:25:15
Burger King,6091 N Decatur Blvd,,LAS VEGAS,NV,89130-1406,US,36.27065277,-115.20731354,2022-12-18 06:25:15
Burger King,8564 West Lake Mead Boulevard,,LAS VEGAS,NV,89128-7630,US,36.19927216,-115.28074646,2022-12-18 06:25:15
Burger King,1280 North Town Center Drive,,LAS VEGAS,NV,89144-6351,US,36.18411255,-115.30888367,2022-12-18 06:25:20
Burger King,10880 West Charleston Blvd,,LAS VEGAS,NV,89135-1102,US,36.1601181,-115.33345795,2022-12-18 06:25:15
Burger King,8600 West Cheyenne,,LAS VEGAS,NV,89129-7260,US,36.21912384,-115.2809906,2022-12-18 06:25:15
Burger King,6780 N. Durango Drive,,LAS VEGAS,NV,89149-4408,US,36.28419113,-115.28735352,2022-12-18 06:25:15
Burger King,9640 West Skye Canyon Park Dr,,Las Vegas,NV,89124,US,36.31439972,-115.3082962,2022-12-18 06:25:15
Burger King,667 South Highway 160,,PAHRUMP,NV,89048-4632,US,36.21128464,-115.985672,2022-12-16 15:27:54
Burger King,807 Highway South,,PAGE,AZ,86040-6600,US,36.9070015,-111.48175049,2022-12-18 06:25:15
Burger King,Highway 160,,KAYENTA,AZ,86033-0000,US,36.70751572,-110.25248718,2022-12-16 15:27:54
Burger King,Highway 191,,CHINLE,AZ,86503-0000,US,36.16200256,-109.58446503,2022-12-18 06:25:20
Burger King,Shiprock Burger King,,SHIPROCK,NM,87420-0000,US,36.77882004,-108.69503784,2022-12-16 15:27:55
Burger King,2210 West Main Street,,Farmington,NM,87401,US,36.73257828,-108.23697662,2022-12-16 15:27:38
Burger King,948 E. Main St.,,FARMINGTON,NM,87401-2720,US,36.73636246,-108.18731689,2022-12-16 15:27:38
Burger King,4450 East Main Street,,FARMINGTON,NM,87402-8654,US,36.76413727,-108.15437317,2022-12-16 15:27:38
Burger King,2841 South 60 East,,SAINT GEORGE,UT,84790-7903,US,37.06015015,-113.58184052,2022-12-18 06:25:15
Burger King,1185 South Main,,SAINT GEORGE,UT,84770-5239,US,37.08797836,-113.58304596,2022-12-18 06:25:15
Burger King,975 West Red Cliff Drive,,WASHINGTON,UT,84780-1580,US,37.1263237,-113.52603912,2022-12-18 06:25:15
Burger King,1215 West 200 North,,CEDAR CITY,UT,84720-2367,US,37.68057632,-113.07846832,2022-12-16 15:27:39
Burger King,520 West Main Street,,CORTEZ,CO,81321-3113,US,37.34856796,-108.59270477,2022-12-16 15:27:47
Burger King,299 U.S. 59,,Atlanta,TX,75551,US,33.11542892,-94.18240356,2022-12-16 15:27:37
Burger King,4621 South Lake Drive,,TEXARKANA,TX,75501-8123,US,33.38866043,-94.10787201,2022-12-18 06:25:20
Burger King,802 North Stateline Avenue,,TEXARKANA,AR,71854-5243,US,33.42900848,-94.0429306,2022-12-18 06:25:20
Burger King,2631 New Boston Road,,TEXARKANA,TX,75501-3280,US,33.43497849,-94.07525635,2022-12-18 06:25:20
Burger King,2626 Richmond Road,,TEXARKANA,TX,75503-2327,US,33.45914078,-94.08907318,2022-12-18 06:25:20
Burger King,5025 North Stateline Avenue,,TEXARKANA,TX,75503-2956,US,33.46707916,-94.04415131,2022-12-18 06:25:20
Burger King,1970 N. Kings Hwy,,NASH,TX,75569-2104,US,33.45236969,-94.13020325,2022-12-18 06:25:20
Burger King,1733 N Market St,,SHREVEPORT,LA,71107-5209,US,32.54137802,-93.77463531,2022-12-18 06:25:17
Burger King,580 Lone Star Drive,,Hooks,TX,75561,US,33.46723938,-94.23639679,2022-12-18 06:25:20
Burger King,2830 Airline Drive,,BOSSIER CITY,LA,71111-5804,US,32.55467987,-93.70999146,2022-12-18 06:25:17
Burger King,825 Spur 156,,WASKOM,TX,75692-9104,US,32.46895981,-94.05523682,2022-12-18 06:25:20
Burger King,1985 Airline Drive,,BOSSIER CITY,LA,71112-2448,US,32.52785873,-93.70180511,2022-12-18 06:25:17
Burger King,3717 Greenwood Road,,SHREVEPORT,LA,71109-5109,US,32.47357559,-93.79878998,2022-12-18 06:25:17
Burger King,1733 Line Avenue,,SHREVEPORT,LA,71101-4609,US,32.49554443,-93.74596405,2022-12-18 06:25:17
Burger King,6703 Pines Road,,SHREVEPORT,LA,71129-2511,US,32.44799042,-93.86444092,2022-12-18 06:25:17
Burger King,1625 Kings Highway,,SHREVEPORT,LA,71103-4127,US,32.48178482,-93.76415253,2022-12-18 06:25:17
