company_name,address_line_1,address_line_2,city,state_alpha,postal_code,country_code,latitude,longitude,when_verified
Dunkin,2519 Commerce Dr NW, ,Rochester,MN,55901,US,44.05044556,-92.52136993,2022-12-18 06:25:19
Dunkin,15 1st Ave SW,Kahler Grand Hotel,Rochester,MN,55902,US,44.02301025,-92.46466064,2022-12-18 06:25:19
Dunkin,6650 Mesa Ridge Pky, ,Fountain,CO,80817,US,38.72009277,-104.70233917,2022-12-18 06:25:17
Dunkin,2905 Hancock Expy, ,Colorado Springs,CO,80916,US,38.78943253,-104.75589752,2022-12-18 06:25:17
Dunkin,980 O'Connell Blvd, ,Fort Carson,CO,80913,US,38.75418091,-104.78714752,2022-12-18 06:25:17
Dunkin,5940 Ellis St, ,Fort Carson,CO,80913,US,38.74560165,-104.80150604,2022-12-18 06:25:17
Dunkin,201 N. Circle Dr, ,Colorado Springs,CO,80909,US,38.83605194,-104.77553558,2022-12-18 06:25:17
Dunkin,106 Route 32,Bestway Gas & Convenience,North Franklin,CT,06254,US,41.57472992,-72.13256073,2022-12-18 06:25:11
Dunkin,154 W Town St,Global Gas Station,Norwich,CT,06360,US,41.55392838,-72.10679626,2022-12-18 06:25:11
Dunkin,538 West Main St, ,Norwich,CT,06360,US,41.51734543,-72.09766388,2022-12-18 06:25:11
Dunkin,113 Salem Tpke,Norwich Plaza,Norwich,CT,06360,US,41.51145172,-72.11417389,2022-12-18 06:25:11
Dunkin,737 N Main St, ,Norwich,CT,06360,US,41.54321289,-72.05345154,2022-12-18 06:25:11
Dunkin,132 Taftville Occum Rd, ,Norwich,CT,06360,US,41.58648682,-72.04725647,2022-12-18 06:25:11
Dunkin,1 Mohegan Sun Blvd,Mohegan Sun,Uncasville,CT,06382,US,41.4916687,-72.09114075,2022-12-18 06:25:11
Dunkin,1 Mohegan Sun Blvd,Mohegan Sun,Uncasville,CT,06382,US,41.49139023,-72.09171295,2022-12-18 06:25:11
Dunkin,37 Route 2, ,Preston,CT,06365,US,41.51322937,-72.04695892,2022-12-18 06:25:11
Dunkin,2210 Route 32, ,Montville,CT,06353,US,41.48467636,-72.10043335,2022-12-18 06:25:11
Dunkin,Rt 395 Southbound,CT Turnpike,Uncasville,CT,06382,US,41.47121048,-72.11683655,2022-12-18 06:25:11
Dunkin,107 River Rd,Mobil Gas Station,Lisbon,CT,06351,US,41.59064484,-71.99144745,2022-12-18 06:25:11
Dunkin,114 River Rd,Henny Penny/Shell Station,Lisbon,CT,06351,US,41.59070969,-71.9912796,2022-12-18 06:25:11
Dunkin,875 Windham Rd, ,South Windham,CT,06266,US,41.67732239,-72.168396,2022-12-18 06:25:18
Dunkin,"641 Norwich, New London Tpk", ,Montville,CT,06353,US,41.44316101,-72.10430145,2022-12-18 06:25:11
Dunkin,568 Norwich Tpke, ,Uncasville,CT,06370,US,41.44145584,-72.10638428,2022-12-18 06:25:11
Dunkin,1 New London Rd, ,Salem,CT,06420,US,41.47544098,-72.26391602,2022-12-18 06:25:16
Dunkin,492 Ct Rte 2, ,Preston,CT,06365,US,41.48730087,-71.97364044,2022-12-18 06:25:11
Dunkin,1662 Route 12, ,Gales Ferry,CT,06335,US,41.4286232,-72.08200836,2022-12-18 06:25:11
Dunkin,832 Voluntown Rd,Valero Gas Station,Griswold,CT,06351,US,41.58478165,-71.93954468,2022-12-18 06:25:11
Dunkin,440 S Main St, ,Colchester,CT,06415,US,41.56629562,-72.32421112,2022-12-18 06:25:18
Dunkin,164 Linwood Ave, ,Colchester,CT,06415,US,41.57159805,-72.33730316,2022-12-18 06:25:18
Dunkin,39 Norwich-Westerly Rd,Foxwoods Casino,Ledyard,CT,06339,US,41.47357941,-71.95516968,2022-12-18 06:25:11
Dunkin,39 Norwich Westerly Rd,Foxwoods Casino,Ledyard,CT,06339,US,41.47357941,-71.95516968,2022-12-18 06:25:11
Dunkin,1015 Main St, ,Willimantic,CT,06226,US,41.71308899,-72.21884155,2022-12-18 06:25:18
Dunkin,407 Jackson St,Mobil Gas Station,Willimantic,CT,06226,US,41.72058868,-72.20276642,2022-12-18 06:25:18
Dunkin,1575 Main St, ,Willimantic,CT,06226,US,41.72136307,-72.23774719,2022-12-18 06:25:18
Dunkin,5 Westminster Rd, ,Canterbury,CT,06331,US,41.69841385,-71.97197723,2022-12-18 06:25:11
Dunkin,307 Boston Post Rd, ,Windham,CT,06256,US,41.7383194,-72.18102264,2022-12-18 06:25:18
Dunkin,970 Hartford Tpke, ,Waterford,CT,06385,US,41.38653183,-72.15943146,2022-12-18 06:25:15
Dunkin,5200 S 9th St,Suite A,Kalamazoo,MI,49009,US,42.24205017,-85.67799377,2022-12-18 06:25:17
Dunkin,3102 S Westnedge Ave, ,Kalamazoo,MI,49008,US,42.26013184,-85.59062958,2022-12-18 06:25:17
Dunkin,43119 Woodward Ave, ,Bloomfield Hills,MI,48302,US,42.60455704,-83.26590729,2022-12-18 06:25:09
Dunkin,6490 Telegraph Rd, ,Bloomfield Hills,MI,48301,US,42.54508972,-83.28561401,2022-12-18 06:25:09
Dunkin,2907 Orchard Lake Rd, ,Keego Harbor,MI,48320,US,42.60593796,-83.3423233,2022-12-18 06:25:09
Dunkin,3690 W Maple Rd, ,Bloomfield Hills,MI,48301,US,42.54577637,-83.26324463,2022-12-18 06:25:09
Dunkin,600 S Opdyke Rd, ,Pontiac,MI,48341,US,42.62145996,-83.24933624,2022-12-18 06:25:09
Dunkin,31080 Orchard Lake Rd, ,Farmington,MI,48334,US,42.52588272,-83.35921478,2022-12-18 07:39:41
Dunkin,33588 Woodward Ave,Marathon Gas,Birmingham,MI,48009,US,42.53586578,-83.20323944,2022-12-18 06:25:09
Dunkin,7400 Farmington Rd, ,West Bloomfield,MI,48322,US,42.52817154,-83.38079834,2022-12-18 07:39:41
Dunkin,28777 Northwestern Highway, ,Southfield,MI,48034,US,42.49882889,-83.30571747,2022-12-18 07:39:41
Dunkin,4399 Highland Rd, ,Waterford,MI,48328,US,42.6542244,-83.37382507,2022-12-18 06:25:09
Dunkin,2701 University Dr, ,Auburn Hills,MI,48326,US,42.66981506,-83.23473358,2022-12-18 06:25:09
Dunkin,1700 W 14 Mile Rd, ,Royal Oak,MI,48073,US,42.53314209,-83.16616821,2022-12-18 06:25:09
Dunkin,3050 Union Lake Rd, ,Commerce Township,MI,48382,US,42.59010696,-83.4467392,2022-12-18 06:25:09
Dunkin,24740 Telegraph Rd, ,Southfield,MI,48034,US,42.47071457,-83.28040314,2022-12-18 07:39:41
Dunkin,3433 E West Maple Rd, ,Commerce Township,MI,48390,US,42.54210663,-83.4389267,2022-12-18 06:25:09
Dunkin,4775 Dixie Hwy, ,Waterford Township,MI,48329,US,42.68846893,-83.38417053,2022-12-18 06:25:09
Dunkin,25170 Greenfield Rd, ,Oak Park,MI,48237,US,42.47439957,-83.20088959,2022-12-18 07:39:41
Dunkin,1321 W 14 Mile Rd, ,Madison Heights,MI,48071,US,42.53339005,-83.12249756,2022-12-18 06:25:09
Dunkin,23113 Greenfield Rd, ,Southfield,MI,48075,US,42.46152878,-83.2016449,2022-12-18 07:39:41
Dunkin,27919 Grand River Ave, ,Farmington Hills,MI,48336,US,42.44244385,-83.32316589,2022-12-18 07:39:41
Dunkin,2969 E Big Beaver Rd, ,Troy,MI,48083,US,42.56446075,-83.09029388,2022-12-18 06:25:09
Dunkin,20788 Farmington Rd, ,Farmington,MI,48336,US,42.44128799,-83.37480927,2022-12-18 07:39:41
Dunkin,39415 W 10 Mile Rd, ,Novi,MI,48375,US,42.467556,-83.43533325,2022-12-18 07:39:41
Dunkin,6365 Sashabaw Rd, ,Clarkston,MI,48346,US,42.73155975,-83.38014984,2022-12-18 06:25:09
Dunkin,10580 Highland Rd, ,White Lake,MI,48386,US,42.64994431,-83.49402618,2022-12-18 06:25:09
Dunkin,19010 Middlebelt Rd, ,Livonia,MI,48152,US,42.42597198,-83.33541107,2022-12-18 07:39:41
Dunkin,28875 Dequindre Rd, ,Madison Heights,MI,48071,US,42.50468063,-83.08608246,2022-12-18 06:25:09
Dunkin,22451 Woodward Ave, ,Ferndale,MI,48220,US,42.45775604,-83.13310242,2022-12-18 07:39:41
Dunkin,47776 Pontiac Trl, ,Wixom,MI,48393,US,42.52486801,-83.52135468,2022-12-18 07:39:41
Dunkin,44603 Mound Rd, ,Sterling Heights,MI,48314,US,42.62141418,-83.05262756,2022-12-18 06:25:09
Dunkin,2917 North Ashley Street, ,Valdosta,GA,31602,US,30.87161255,-83.28903961,2022-12-18 06:25:13
Dunkin,3460 Madison Hwy,Travel Plaza,Valdosta,GA,31601,US,30.75444031,-83.27308655,2022-12-18 06:25:13
Dunkin,1713 Limekiln Pike, ,Dresher,PA,19025,US,40.14170456,-75.16750336,2022-12-18 06:25:11
Dunkin,3608 Welsh Rd, ,Willow Grove,PA,19090,US,40.15205765,-75.13626862,2022-12-18 06:25:11
Dunkin,2500 W Moreland Rd,Unit K02,Willow Grove,PA,19090,US,40.14012527,-75.12325287,2022-12-18 06:25:11
Dunkin,1035 Easton Rd, ,Willow Grove,PA,19090,US,40.15584946,-75.12156677,2022-12-18 06:25:11
Dunkin,937 Easton Rd, ,Roslyn,PA,19001,US,40.11764145,-75.13616943,2022-12-18 06:25:11
Dunkin,2618 Easton Rd, ,Willow Grove,PA,19090,US,40.16909027,-75.12691498,2022-12-18 06:25:11
Dunkin,520 W Pennsylvania Ave, ,Fort Washington,PA,19034,US,40.13370132,-75.20559692,2022-12-18 06:25:16
Dunkin,1701 Old York Rd, ,Abington,PA,19001,US,40.13175583,-75.11553955,2022-12-18 06:25:11
Dunkin,30 South Bethlehem Pike, ,Ambler,PA,19002,US,40.15914536,-75.21486664,2022-12-18 06:25:16
Dunkin,371 E Butler Ave, ,Ambler,PA,19002,US,40.15935516,-75.21560669,2022-12-18 06:25:16
Dunkin,400 Privet Road, ,Horsham,PA,19044,US,40.19454193,-75.15735626,2022-12-18 06:25:11
Dunkin,230 S Easton Rd, ,Glenside,PA,19038,US,40.09781647,-75.15654755,2022-12-18 06:25:09
Dunkin,1821 Bethlehem Pike, ,Flourtown,PA,19031,US,40.10879898,-75.21399689,2022-12-18 06:25:09
Dunkin,445 Old York Rd, ,Jenkintown,PA,19046,US,40.09724045,-75.12593842,2022-12-18 06:25:11
Dunkin,1250 Easton Rd, ,Horsham,PA,19044,US,40.20432663,-75.13922119,2022-12-18 06:25:11
Dunkin,598 N York Rd,Lukoil,Hatboro,PA,19040,US,40.18945312,-75.10266876,2022-12-18 06:25:11
Dunkin,1069 W County Line Rd, ,Warminster,PA,18974,US,40.20122528,-75.1218338,2022-12-18 06:25:11
Dunkin,1630 E Wadsworth Ave, ,Philadelphia,PA,19150,US,40.08179855,-75.17199707,2022-12-18 06:25:09
Dunkin,8250 Ogontz Avenue,Unit 1,Wyncote,PA,19095,US,40.07825089,-75.16001129,2022-12-18 06:25:09
Dunkin,8250 Ogontz Ave, ,Wyncote,PA,19095,US,40.07809067,-75.15975952,2022-12-18 06:25:09
Dunkin,2112 County Line Rd, ,Huntingdon Valley,PA,19006,US,40.17181015,-75.07259369,2022-12-18 06:25:11
Dunkin,360 Jacksonville Rd, ,Warminster,PA,18974,US,40.1932106,-75.0871048,2022-12-18 06:25:11
Dunkin,618 Welsh Rd, ,Huntingdon Valley,PA,19006,US,40.11920929,-75.06800842,2022-12-18 06:25:11
Dunkin,590 West Street Rd, ,Warminster,PA,18974,US,40.20616913,-75.09828186,2022-12-18 06:25:11
Dunkin,334 Easton Rd, ,Warrington,PA,18976,US,40.22254562,-75.14012146,2022-12-18 06:25:11
Dunkin,1425 W Street Rd, ,Warminster,PA,18976,US,40.21866608,-75.12059784,2022-12-18 06:25:11
Dunkin,1109 Bethlehem Pike, ,Montgomeryville,PA,19446,US,40.21062088,-75.22414398,2022-12-18 06:25:16
Dunkin,8113 Stenton Ave, ,Philadelphia,PA,19150,US,40.0671463,-75.17828369,2022-12-18 06:25:09
Dunkin,1403 W Cheltenham Ave, ,Elkins Park,PA,19027,US,40.06414795,-75.14016724,2022-12-18 06:25:09
Dunkin,1325 E. Washington Ln, ,Philadelphia,PA,19138,US,40.05858612,-75.16540527,2022-12-18 06:25:09
Dunkin,204 S Waller Ave,Pilot Travel Center,Brookshire,TX,77423,US,29.78017998,-95.95241547,2022-12-18 06:25:11
Dunkin,1918 Minno Dr, ,Johnstown,PA,15905,US,40.32364273,-78.95670319,2022-12-18 06:25:18
Dunkin,1439 Scalp Ave, ,Johnstown,PA,15904,US,40.27126312,-78.85762024,2022-12-18 06:25:18
Dunkin,542 S Center St, ,Ebensburg,PA,15931,US,40.47776031,-78.72419739,2022-12-18 06:25:18
Dunkin,54 Short Dr, ,Blairsville,PA,15717,US,40.44439697,-79.22818756,2022-12-18 06:25:18
Dunkin,1669 Oakland Ave, ,Indiana,PA,15701,US,40.61379623,-79.17398071,2022-12-18 06:25:18
Dunkin,300 Lloyd Ave, ,Latrobe,PA,15650,US,40.31213379,-79.39122009,2022-12-18 06:25:16
Dunkin,9077 Poplar Ave,Gaston Crossing,Germantown,TN,38138,US,35.06832504,-89.76078033,2022-12-18 07:39:41
Dunkin,8984 US Highway 64, ,Lakeland,TN,38002,US,35.20521164,-89.7629776,2022-12-18 07:39:41
Dunkin,7670 Winchester Rd,Suite 101,Memphis,TN,38125,US,35.05041122,-89.80695343,2022-12-18 07:39:41
Dunkin,777 Casino Dr,Harrah's Casino,Cherokee,NC,28719,US,35.47000122,-83.30000305,2022-12-18 06:25:18
Dunkin,917 U.S. 441,Suite 1,Franklin,NC,28734,US,35.16247559,-83.39205933,2022-12-18 06:25:20
Dunkin,89 E Main St, ,Sylva,NC,28779,US,35.37427902,-83.21187592,2022-12-18 06:25:15
Dunkin,9595 Zachary Lane N, ,Maple Grove,MN,55369,US,45.1289444,-93.4234848,2022-12-18 06:25:13
Dunkin,13650 Hanson Blvd,Suite 114,Andover,MN,55304,US,45.21880722,-93.30699158,2022-12-18 06:25:13
Dunkin,8300 University Ave NE, ,Fridley,MN,55432,US,45.11908722,-93.26449585,2022-12-18 06:25:13
Dunkin,13135 Main St,Suite 100,Rogers,MN,55374,US,45.19285965,-93.55317688,2022-12-18 06:25:13
Dunkin,7820 42nd Ave N, ,New Hope,MN,55427,US,45.03316879,-93.37891388,2022-12-18 06:25:13
Dunkin,8891 Parrish Ave NE, ,Otsego,MN,55330,US,45.27893829,-93.56629944,2022-12-18 06:25:13
Dunkin,3195A Vicksburg Lane North, ,Plymouth,MN,55447,US,45.01623154,-93.48252106,2022-12-18 06:25:13
Dunkin,2465 Fairview Ave N, ,Roseville,MN,55113,US,45.01525879,-93.17763519,2022-12-18 06:25:13
Dunkin,2425 Rice St, ,Roseville,MN,55113,US,45.01390076,-93.10652924,2022-12-18 06:25:13
Dunkin,7114 Otter Lake Rd,Suite 100,Lino Lakes,MN,55038,US,45.1646347,-93.02407074,2022-12-18 06:25:13
Dunkin,143 Snelling Ave N, ,Saint Paul,MN,55104,US,44.94570541,-93.1672287,2022-12-18 06:25:13
Dunkin,1275 County Road D E,Suite 106B,Maplewood,MN,55109,US,45.03227615,-93.04608154,2022-12-18 06:25:13
Dunkin,6529 Penn Ave S, ,Richfield,MN,55423,US,44.88414001,-93.30825043,2022-12-18 06:25:13
Dunkin,Minneapolis-St. Paul Int. Airport,4300 Glumack Dr,Saint Paul,MN,55111,US,44.88378525,-93.21135712,2022-12-18 06:25:13
Dunkin,1700 American Blvd E,Great Wolf Lodge,Bloomington,MN,55425,US,44.86102676,-93.25067139,2022-12-18 06:25:13
Dunkin,60 E Broadway,Space E280,Bloomington,MN,55425,US,44.85497665,-93.24105072,2022-12-18 06:25:13
Dunkin,620 5th St NE, ,Buffalo,MN,55313,US,45.17617416,-93.86766815,2022-12-18 06:25:13
Dunkin,1224 Robert St S, ,West Saint Paul,MN,55118,US,44.90922546,-93.08029175,2022-12-18 06:25:13
Dunkin,267 S Ridge St, ,Rye Brook,NY,10573,US,41.00003052,-73.67978668,2022-12-18 06:25:16
Dunkin,330 Boston Post Rd, ,Port Chester,NY,10573,US,40.99489594,-73.67394257,2022-12-18 06:25:16
Dunkin,623 W. Putnam Ave,Mobil Gas Station,Greenwich,CT,06830,US,41.0167923,-73.64928436,2022-12-18 06:25:16
Dunkin,295 Midland Ave, ,Port Chester,NY,10573,US,40.99170303,-73.66926575,2022-12-18 06:25:16
Dunkin,2000 Merritt Parkway,CT Turnpike,Greenwich,CT,06831,US,41.04116058,-73.67288971,2022-12-18 06:25:13
Dunkin,3000 Merritt Parkway,CT Turnpike,Greenwich,CT,06831,US,41.04116058,-73.67247772,2022-12-18 06:25:13
Dunkin,271 W Putnam Ave, ,Greenwich,CT,06830,US,41.02436066,-73.63574982,2022-12-18 06:25:16
Dunkin,260 Halstead Ave, ,Harrison,NY,10528,US,40.96867371,-73.71363831,2022-12-18 06:25:16
Dunkin,570 Mamaroneck Ave, ,White Plains,NY,10605,US,41.02072525,-73.75769043,2022-12-18 06:25:13
Dunkin,154 Westchester Ave,Stop & Shop,White Plains,NY,10601,US,41.03345108,-73.75662231,2022-12-18 06:25:13
Dunkin,375 E Putnam Ave, ,Cos Cob,CT,06807,US,41.0393219,-73.59635925,2022-12-18 06:25:16
Dunkin,42 Lake St,Citgo,White Plains,NY,10603,US,41.03750229,-73.76010895,2022-12-18 06:25:13
Dunkin,50 Mamaroneck Ave, ,White Plains,NY,10601,US,41.03119278,-73.76631165,2022-12-18 06:25:13
Dunkin,100 Main St,#255 Galleria Mall,White Plains,NY,10601,US,41.03163147,-73.77106476,2022-12-18 06:25:13
Dunkin,427 E Boston Post Rd, ,Mamaroneck,NY,10543,US,40.95024872,-73.72982025,2022-12-18 06:25:16
Dunkin,229 Mamaroneck Ave, ,Mamaroneck,NY,10543,US,40.95039368,-73.73369598,2022-12-18 06:25:16
Dunkin,755 N. Broadway, ,White Plains,NY,10603,US,41.05817032,-73.7661972,2022-12-18 06:25:12
Dunkin,1481 Weaver St, ,Scarsdale,NY,10583,US,40.98122787,-73.77631378,2022-12-18 06:25:16
Dunkin,184 Sound Beach Ave, ,Old Greenwich,CT,06870,US,41.03235245,-73.56809235,2022-12-18 06:25:12
Dunkin,425 Central Park Ave, ,White Plains,NY,10606,US,41.03130341,-73.78730774,2022-12-18 06:25:13
Dunkin,80 Virginia Rd, ,White Plains,NY,10603,US,41.06375885,-73.77603149,2022-12-18 06:25:12
Dunkin,221 E Hartsdale Ave, ,Hartsdale,NY,10530,US,41.01162338,-73.79574585,2022-12-18 06:25:16
Dunkin,2000 W. Main St,Shoprite Center,Stamford,CT,06902,US,41.04866791,-73.56385803,2022-12-18 06:25:12
Dunkin,1311 Boston Post Rd, ,Larchmont,NY,10538,US,40.93610382,-73.74671936,2022-12-18 06:25:16
Dunkin,482 Tarrytown Rd, ,White Plains,NY,10607,US,41.04344177,-73.80059814,2022-12-18 06:25:12
Dunkin,269 S Central Ave, ,Hartsdale,NY,10530,US,41.01225662,-73.80670166,2022-12-18 06:25:16
Dunkin,411 W Main St, ,Stamford,CT,06902,US,41.04826355,-73.5548172,2022-12-18 06:25:12
Dunkin,81 Knollwood Rd, ,White Plains,NY,10607,US,41.03868484,-73.80843353,2022-12-18 06:25:12
Dunkin,10 Depot Pl, ,Scarsdale,NY,10583,US,40.98907852,-73.80884552,2022-12-18 06:25:16
Dunkin,30 Station Pl,Stamford Train Station,Stamford,CT,06901,US,41.04572678,-73.54150391,2022-12-18 06:25:12
Dunkin,3100 S Providence Rd, ,Columbia,MO,65203,US,38.91608429,-92.33374023,2022-12-18 06:25:21
Dunkin,3075 Range Line St, ,Columbia,MO,65202,US,38.98172379,-92.32670593,2022-12-18 06:25:21
Dunkin,1607 Church St, ,Conway,SC,29526,US,33.84558868,-79.06406403,2022-12-18 06:25:12
Dunkin,1477 SC Hwy 544, ,Conway,SC,29526,US,33.77727509,-79.02094269,2022-12-18 06:25:12
Dunkin,2607 Main St, ,Conway,SC,29526,US,33.86805344,-79.05319977,2022-12-18 06:25:12
Dunkin,4883-A Highway 501, ,Myrtle Beach,SC,29579,US,33.76364899,-78.97377777,2022-12-18 06:25:15
Dunkin,5429 Dick Pond Rd, ,Myrtle Beach,SC,29588,US,33.68196869,-79.00082397,2022-12-18 06:25:15
Dunkin,3490 Belle Terre Blvd, ,Myrtle Beach,SC,29579,US,33.73326111,-78.94760895,2022-12-18 06:25:15
Dunkin,9497 Highway 707, ,Myrtle Beach,SC,29588,US,33.63123322,-79.03375244,2022-12-18 06:25:15
Dunkin,3635 Walton Dr, ,Myrtle Beach,SC,29577,US,33.68331146,-78.95821381,2022-12-18 06:25:15
Dunkin,2751 Beaver Run Blvd, ,Surfside Beach,SC,29575,US,33.64599991,-78.98300171,2022-12-18 06:25:15
Dunkin,8709 U.S. Hwy 17, ,Surfside Beach,SC,29575,US,33.64006042,-78.9884491,2022-12-18 06:25:15
Dunkin,1937 Mr. Joe White Avenue, ,Myrtle Beach,SC,29577,US,33.71190262,-78.89981842,2022-12-18 06:25:15
Dunkin,2901 S Highway 17, ,Murrells Inlet,SC,29576,US,33.5855217,-79.0122757,2022-12-18 06:25:15
Dunkin,4282 River Oaks Dr,Suite A,Myrtle Beach,SC,29579,US,33.75953674,-78.8600235,2022-12-18 06:25:15
Dunkin,3001 N Kings Hwy,Suite 6,Myrtle Beach,SC,29577,US,33.70998764,-78.86315155,2022-12-18 06:25:15
Dunkin,7102 N Kings Highway, ,Myrtle Beach,SC,29572,US,33.7433815,-78.82253265,2022-12-18 06:25:15
Dunkin,9710 North Kings Highway (Boxman Unit), ,Myrtle Beach,SC,29572,US,33.77987289,-78.79050446,2022-12-18 06:25:15
Dunkin,10225 Ocean Hwy,Pawleys Island Plaza SC,Pawleys Island,SC,29585,US,33.43690872,-79.13163757,2022-12-18 06:25:15
Dunkin,5705 Youree Dr, ,Shreveport,LA,71105,US,32.45638657,-93.72158051,2022-12-18 06:25:20
Dunkin,856 Kings Highway, ,Shreveport,LA,71104,US,32.48165512,-93.74783325,2022-12-18 06:25:20
Dunkin,1254 Escalante Dr, ,Durango,CO,81303,US,37.22717285,-107.86100769,2022-12-18 06:25:16
Dunkin,3313 Wharton St, ,Philadelphia,PA,19146,US,39.93824005,-75.19841003,2022-12-18 06:25:12
Dunkin,1551 Washington Ave, ,Philadelphia,PA,19146,US,39.93849182,-75.1697998,2022-12-18 06:25:16
Dunkin,809 S Broad St, ,Philadelphia,PA,19147,US,39.94011307,-75.1658783,2022-12-18 06:25:16
Dunkin,2001 Chestnut St, ,Philadelphia,PA,19103,US,39.95215225,-75.17362213,2022-12-18 06:25:16
Dunkin,3437 Walnut St, ,Philadelphia,PA,19104,US,39.95311356,-75.19361877,2022-12-18 06:25:15
Dunkin,2100 Market St, ,Philadelphia,PA,19103,US,39.95362473,-75.17523193,2022-12-18 06:25:16
Dunkin,1425 Locust St, ,Philadelphia,PA,19102,US,39.94848633,-75.16604614,2022-12-18 06:25:16
Dunkin,2951 Market St, ,Philadelphia,PA,19104,US,39.9561348,-75.18185425,2022-12-18 06:25:16
Dunkin,30th & Market St Station,Amtrak Food Court,Philadelphia,PA,19104,US,39.95614624,-75.1819458,2022-12-18 06:25:16
Dunkin,117 South 16th Street, ,Philadelphia,PA,19102,US,39.95053482,-75.16726685,2022-12-18 06:25:16
Dunkin,1509 Chestnut St, ,Philadelphia,PA,19102,US,39.95121002,-75.16590881,2022-12-18 06:25:16
Dunkin,3601 Market St, ,Philadelphia,PA,19104,US,39.95635605,-75.19422913,2022-12-18 06:25:09
Dunkin,2025 S. Broad St, ,Philadelphia,PA,19148,US,39.92489624,-75.16918182,2022-12-18 06:25:16
Dunkin,1324 Walnut Street, ,Philadelphia,PA,19107,US,39.9492569,-75.16325378,2022-12-18 06:25:16
Dunkin,1500 Market Street Concourse, ,Philadelphia,PA,19102,US,39.95254135,-75.16616058,2022-12-18 06:25:16
Dunkin,"1700 JFK Blvd, Suburban Statio",Penn Center,Philadelphia,PA,19103,US,39.95404816,-75.16808319,2022-12-18 06:25:16
Dunkin,4100 Chester Ave, ,Philadelphia,PA,19104,US,39.94832611,-75.20626831,2022-12-18 06:25:12
Dunkin,1600 John F Kennedy Blvd, ,Philadelphia,PA,19103,US,39.95363617,-75.16686249,2022-12-18 06:25:16
Dunkin,1401 S 10th St, ,Philadelphia,PA,19147,US,39.93143463,-75.16065979,2022-12-18 06:25:16
Dunkin,"1600 JFK Blvd, SuburbanStation",4 Penn Ctr,Philadelphia,PA,19103,US,39.95394897,-75.16662598,2022-12-18 06:25:16
Dunkin,"1500 JFK Blvd, Suburban Statio",Penn Station,Philadelphia,PA,19102,US,39.95318222,-75.16468048,2022-12-18 06:25:16
Dunkin,125 S 40th St, ,Philadelphia,PA,19104,US,39.95486069,-75.20241547,2022-12-18 06:25:09
Dunkin,1 E Penn Sq, ,Philadelphia,PA,19107,US,39.95205307,-75.16243744,2022-12-18 06:25:16
Dunkin,1100 Walnut St, ,Philadelphia,PA,19107,US,39.94862747,-75.15909576,2022-12-18 06:25:16
Dunkin,2654 S 18th St, ,Philadelphia,PA,19145,US,39.91783905,-75.17792511,2022-12-18 06:25:15
Dunkin,1113 Market St,Reading Headhouse Terminal,Philadelphia,PA,19107,US,39.95197296,-75.15951538,2022-12-18 06:25:16
Dunkin,2640 S Carlisle St, ,Philadelphia,PA,19145,US,39.91731644,-75.17253876,2022-12-18 06:25:15
Dunkin,1038 Arch St, ,Philadelphia,PA,19107,US,39.9536705,-75.15779114,2022-12-18 06:25:16
Dunkin,901 Market St,Jefferson Station,Philadelphia,PA,19107,US,39.95152664,-75.15593719,2022-12-18 06:25:16
Dunkin,808 Chestnut St, ,Philadelphia,PA,19107,US,39.94959641,-75.15426636,2022-12-18 06:25:16
Dunkin,98-1002 Moanalua Rd,Pearlridge Shopping Center,Aiea,HI,96701,US,21.38316345,-157.93969727,2022-12-18 06:25:19
Dunkin,1170 Kuala St,Suite 300,Pearl City,HI,96782,US,21.39934731,-157.97470093,2022-12-18 06:25:19
Dunkin,3270 Ualena St, ,Honolulu,HI,96819,US,21.33480072,-157.91464233,2022-12-18 06:25:19
Dunkin,300 Rodgers Boulevard,Daniel K. Inouyet International Airport,Honolulu,HI,96819,US,21.33222961,-157.92036438,2022-12-18 06:25:19
Dunkin,2560 McCarthy Mall,University of Hawaii,Honolulu,HI,96822,US,21.30042267,-157.81568909,2022-12-18 06:25:19
Dunkin,4450 Kapolei Parkway,Suite 400,Kapolei,HI,96707,US,21.32906342,-158.090271,2022-12-18 06:25:19
Dunkin,114 Glover Dr, ,Mount Orab,OH,45154,US,39.04305267,-83.91956329,2022-12-18 06:25:14
Dunkin,401 Route 539, ,Cream Ridge,NJ,08514,US,40.10252762,-74.50817871,2022-12-18 07:39:41
Dunkin,101 Fort Dix St, ,Wrightstown,NJ,08562,US,40.03591537,-74.61769867,2022-12-18 07:39:41
Dunkin,5359 Broidy Ave,Fort Dix,Ft Dix,NJ,08640,US,40.026371,-74.61821747,2022-12-18 07:39:41
Dunkin,508 Monmouth Rd, ,Clarksburg,NJ,08510,US,40.16526413,-74.4174118,2022-12-18 06:25:16
Dunkin,119 Trenton Rd, ,Browns Mills,NJ,08015,US,39.97491455,-74.58496857,2022-12-18 07:39:41
Dunkin,1200 Route 70, ,Whiting,NJ,08759,US,39.960495,-74.39241791,2022-12-18 06:25:20
Dunkin,75 Merrick Rd, ,Hamilton Township,NJ,08620,US,40.17672729,-74.62844849,2022-12-18 07:39:41
Dunkin,200 Uncle Petes Rd, ,Hamilton Township,NJ,08691,US,40.17774963,-74.63114166,2022-12-18 07:39:41
Dunkin,104 Route 70, ,Lakehurst,NJ,08733,US,40.01448059,-74.31225586,2022-12-18 06:25:16
Dunkin,130 Marketplace Blvd,Shop Rite,Hamilton Township,NJ,08691,US,40.1920929,-74.64272308,2022-12-18 07:39:41
Dunkin,621 Route 130, ,Hamilton,NJ,08691,US,40.18940735,-74.65099335,2022-12-18 07:39:41
Dunkin,988 Route 130, ,Hamilton,NJ,08691,US,40.20553589,-74.63259888,2022-12-18 07:39:41
Dunkin,34 Robbinsville Allentown Rd, ,Robbinsville,NJ,08691,US,40.21467972,-74.6206131,2022-12-18 07:39:41
Dunkin,260 Route 130, ,Bordentown,NJ,08505,US,40.13961029,-74.70687103,2022-12-18 07:39:41
Dunkin,715 Bennets Mills Rd,Manhattan Plaza,Jackson,NJ,08527,US,40.12327576,-74.28496552,2022-12-18 06:25:16
Dunkin,4363 S Broad St, ,Hamilton,NJ,08620,US,40.18199921,-74.67556,2022-12-18 07:39:41
Dunkin,1 W. Hampton St, ,Pemberton,NJ,08068,US,39.96756744,-74.68528748,2022-12-18 07:39:41
Dunkin,23205 Columbus Rd, ,Columbus,NJ,08022,US,40.07229996,-74.74298096,2022-12-18 07:39:41
Dunkin,1412 Route 130,Bldg B,East Windsor,NJ,08520,US,40.25133133,-74.56288147,2022-12-18 07:39:41
Dunkin,400 South New Prospect Rd, ,Jackson,NJ,08527,US,40.11783981,-74.25367737,2022-12-18 06:25:07
Dunkin,1 Lake Drive, ,East Windsor,NJ,08520,US,40.26762009,-74.4935379,2022-12-18 07:39:41
Dunkin,700 Route 33,Extreme Machines Shopping Pl,Millstone Township,NJ,07726,US,40.26231766,-74.43286133,2022-12-18 07:39:41
Dunkin,119 Franklin St, ,Hightstown,NJ,08520,US,40.27068329,-74.52135468,2022-12-18 07:39:41
Dunkin,2803 S. Broad St, ,Trenton,NJ,08610,US,40.19027328,-74.71086884,2022-12-18 07:39:41
Dunkin,1235 Route 33,ShopRite,Hamilton Square,NJ,08690,US,40.22814941,-74.6656723,2022-12-18 07:39:41
Dunkin,1088 White Horse-Mercerville, ,Hamilton,NJ,08610,US,40.20736694,-74.69602966,2022-12-18 07:39:41
Dunkin,2371 Vincetown Columbus Rd,Route 206,Southampton,NJ,08088,US,39.97438049,-74.73568726,2022-12-18 07:39:41
Dunkin,395 Route 130 N, ,East Windsor,NJ,08520,US,40.27376938,-74.53668976,2022-12-18 07:39:41
Dunkin,766 Highway 33, ,Trenton,NJ,08619,US,40.23100281,-74.6767807,2022-12-18 07:39:41
Dunkin,319 US Highway 130,Shoprite,E Windsor,NJ,08520,US,40.27895737,-74.53242493,2022-12-18 07:39:41
Dunkin,373 Waltham St, ,Lexington,MA,02421,US,42.43606949,-71.23483276,2022-12-18 06:25:13
Dunkin,286 Lincoln St, ,Lexington,MA,02421,US,42.43977356,-71.25025177,2022-12-18 06:25:13
Dunkin,10 Woburn St, ,Lexington,MA,02420,US,42.44633865,-71.22190094,2022-12-18 06:25:13
Dunkin,915 Waltham St,Shell Oil,Lexington,MA,02421,US,42.41811752,-71.23160553,2022-12-18 06:25:13
Dunkin,277 Bedford St, ,Lexington,MA,02420,US,42.4642067,-71.24062347,2022-12-18 06:25:13
Dunkin,876a Lexington St, ,Waltham,MA,02452,US,42.40557098,-71.23399353,2022-12-18 06:25:13
Dunkin,Hanscom Air Force Base,Main Exchange Building,Bedford,MA,01730,US,42.46260452,-71.27394104,2022-12-18 06:25:13
Dunkin,141 Massachusetts Ave, ,Lexington,MA,02420,US,42.42596054,-71.19506073,2022-12-18 06:25:13
Dunkin,69 Middlesex Tpke, ,Burlington,MA,01803,US,42.47533035,-71.21336365,2022-12-18 06:25:13
Dunkin,511 Totten Pond Rd, ,Waltham,MA,02451,US,42.39720535,-71.25888824,2022-12-18 06:25:13
Dunkin,75 3rd Ave, ,Waltham,MA,02451,US,42.39490128,-71.26100159,2022-12-18 06:25:13
Dunkin,75 Middlesex Tpke,Burlington Mall,Burlington,MA,01803,US,42.48207092,-71.21408844,2022-12-18 06:25:13
Dunkin,1234 Massachusetts Ave, ,Arlington,MA,02476,US,42.42395401,-71.1782074,2022-12-18 06:25:13
Dunkin,308 Great Rd, ,Bedford,MA,01730,US,42.48704529,-71.26348114,2022-12-18 06:25:13
Dunkin,185 Cambridge Rd,Woburn Four Corners,Woburn,MA,01801,US,42.46731186,-71.17819214,2022-12-18 06:25:13
Dunkin,175 Forest St,Bentley University,Waltham,MA,02452,US,42.38602066,-71.2227478,2022-12-18 06:25:13
Dunkin,130 Lexington St, ,Waltham,MA,02452,US,42.38055801,-71.23681641,2022-12-18 06:25:13
Dunkin,400 Cambridge Rd,Horn Pond Plaza,Woburn,MA,01801,US,42.45994186,-71.1640625,2022-12-18 06:25:13
Dunkin,10 Wall St, ,Burlington,MA,01803,US,42.48594666,-71.18951416,2022-12-18 06:25:13
Dunkin,53 Linden St, ,Waltham,MA,02452,US,42.3787384,-71.22336578,2022-12-18 06:25:13
Dunkin,859 Main St, ,Waltham,MA,02451,US,42.37653732,-71.24533081,2022-12-18 06:25:13
Dunkin,240 Middlesex Tpke, ,Burlington,MA,01803,US,42.50082779,-71.23034668,2022-12-18 06:25:13
Dunkin,52 Church St, ,Belmont,MA,02478,US,42.38694,-71.19095612,2022-12-18 06:25:13
Dunkin,350 Pleasant St, ,Belmont,MA,02478,US,42.40371704,-71.16645813,2022-12-18 06:25:13
Dunkin,21 Summer St, ,Arlington,MA,02474,US,42.4194603,-71.15286255,2022-12-18 06:25:13
Dunkin,44 North Rd,Northside Convenience,Bedford,MA,01730,US,42.4962883,-71.28588867,2022-12-18 06:25:13
Dunkin,353 Trapelo Rd, ,Belmont,MA,02478,US,42.38553238,-71.18346405,2022-12-18 06:25:13
Dunkin,28 Winn St, ,Burlington,MA,01803,US,42.49088287,-71.17350006,2022-12-18 06:25:13
Dunkin,49 River St, ,Waltham,MA,02453,US,42.36874008,-71.21781921,2022-12-18 06:25:13
Dunkin,415 South St, ,Waltham,MA,02453,US,42.36810684,-71.2583847,2022-12-18 06:25:13
Dunkin,80 Macy St, ,Amesbury,MA,01913,US,42.84674454,-70.91516876,2022-12-18 06:25:09
Dunkin,26 Broad St, ,Merrimac,MA,01860,US,42.83166122,-70.99932861,2022-12-18 06:25:09
Dunkin,192 Elm St,Sunoco,Salisbury,MA,01952,US,42.84443665,-70.89480591,2022-12-18 06:25:09
Dunkin,70 Storey Ave, ,Newburyport,MA,01950,US,42.81978226,-70.91041565,2022-12-18 06:25:09
Dunkin,45 Storey Ave, ,Newburyport,MA,01950,US,42.82081223,-70.90625763,2022-12-18 06:25:09
Dunkin,61 Main St, ,Salisbury,MA,01952,US,42.86949539,-70.88201904,2022-12-18 06:25:09
Dunkin,15 Lafayette Rd, ,Salisbury,MA,01952,US,42.84325027,-70.86091614,2022-12-18 06:25:09
Dunkin,443 Lafayette Rd, ,Seabrook,NH,03874,US,42.88748932,-70.87161255,2022-12-18 06:25:15
Dunkin,134 Newton Rd Unit #14, ,Plaistow,NH,03865,US,42.83303452,-71.05670929,2022-12-18 06:25:09
Dunkin,720 Lafayette Rd., ,Seabrook,NH,03874,US,42.89617157,-70.87049103,2022-12-18 06:25:15
Dunkin,167 State St, ,Newburyport,MA,01950,US,42.79901886,-70.87472534,2022-12-18 06:25:09
Dunkin,407 Amesbury Rd, ,Haverhill,MA,01830,US,42.80502701,-71.04953003,2022-12-18 06:25:09
Dunkin,126 Route 125, ,Kingston,NH,03848,US,42.89748764,-71.07410431,2022-12-18 06:25:15
Dunkin,12 Ocean Blvd,Coastal Gas,Seabrook,NH,03874,US,42.87260818,-70.81908417,2022-12-18 06:25:15
Dunkin,259 Lincoln Ave, ,Haverhill,MA,01830,US,42.76386642,-71.03881836,2022-12-18 06:25:09
Dunkin,119 Plaistow Rd,Route 125,Plaistow,NH,03865,US,42.84199905,-71.10700226,2022-12-18 06:25:15
Dunkin,755 Main St, ,Haverhill,MA,01830,US,42.79704285,-71.08829498,2022-12-18 06:25:09
Dunkin,74 Plaistow Rd., ,Plaistow,NH,03865,US,42.83091736,-71.1079483,2022-12-18 06:25:15
Dunkin,20 Plaistow Rd, ,Haverhill,MA,01830,US,42.81106949,-71.10308838,2022-12-18 06:25:15
Dunkin,15 S Main Street, ,Bradford,MA,01835,US,42.77241516,-71.0763855,2022-12-18 06:25:09
Dunkin,215 Winter St, ,Haverhill,MA,01830,US,42.77783585,-71.08551788,2022-12-18 06:25:09
Dunkin,53 Church St,Carriagetown Plaza,Kingston,NH,03848,US,42.94642258,-71.05755615,2022-12-18 06:25:15
Dunkin,369 Lafayette Rd, ,Hampton,NH,03842,US,42.93901443,-70.83823395,2022-12-18 06:25:15
Dunkin,66 E Main St #68,Georgetown Plaza,Georgetown,MA,01833,US,42.72210693,-70.98744202,2022-12-18 06:25:09
Dunkin,61 Portsmouth Ave, ,Exeter,NH,03833,US,42.98482895,-70.93785095,2022-12-18 06:25:15
Dunkin,6 Colby Corner, ,East Hampstead,NH,03826,US,42.89110184,-71.14069366,2022-12-18 06:25:15
Dunkin,784 River St, ,Haverhill,MA,01832,US,42.7705574,-71.11442566,2022-12-18 06:25:09
Dunkin,614 Broadway, ,Haverhill,MA,01832,US,42.78408051,-71.1262207,2022-12-18 06:25:15
Dunkin,304 Sandown Rd, ,East Hampstead,NH,03826,US,42.8924942,-71.14343262,2022-12-18 06:25:15
Dunkin,42 Lafayette Rd, ,North Hampton,NH,03862,US,42.96580124,-70.83557129,2022-12-18 06:25:15
Dunkin,448 E 87th St, ,Chicago,IL,60619,US,41.73667145,-87.61253357,2022-12-18 06:25:14
Dunkin,7450 S. Martin Luther King Dr., ,Chicago,IL,60619,US,41.75840378,-87.61511993,2022-12-18 06:25:14
Dunkin,8753 S Stony Island Ave, ,Chicago,IL,60617,US,41.73522568,-87.58488464,2022-12-18 06:25:14
Dunkin,133 W 87th St, ,Chicago,IL,60620,US,41.73601532,-87.62828827,2022-12-18 06:25:14
Dunkin,207 W. 79th St, ,Chicago,IL,60620,US,41.75066376,-87.62980652,2022-12-18 06:25:18
Dunkin,7013 S Stony Island Ave, ,Chicago,IL,60649,US,41.76728058,-87.58569336,2022-12-18 06:25:14
Dunkin,350 E 103rd St, ,Chicago,IL,60628,US,41.70752716,-87.61408997,2022-12-18 06:25:14
Dunkin,6701 S Jeffery Blvd, ,Chicago,IL,60649,US,41.77309799,-87.57598114,2022-12-18 06:25:14
Dunkin,150 W. 63rd St,Gas Station,Chicago,IL,60621,US,41.78019714,-87.62974548,2022-12-18 06:25:18
Dunkin,9100 S Commercial Ave, ,Chicago,IL,60617,US,41.73001862,-87.55130005,2022-12-18 06:25:14
Dunkin,6237 S Halsted Pkwy, ,Chicago,IL,60621,US,41.78043747,-87.64250946,2022-12-18 06:25:18
Dunkin,1465 W 95th St, ,Chicago,IL,60643,US,41.72100449,-87.66014099,2022-12-18 06:25:18
Dunkin,1749 W 87th St, ,Chicago,IL,60620,US,41.73550034,-87.66766357,2022-12-18 06:25:18
Dunkin,7119 S Ashland Ave, ,Chicago,IL,60636,US,41.7644043,-87.663414,2022-12-18 06:25:18
Dunkin,10351 S Torrence Ave, ,Chicago,IL,60617,US,41.70697784,-87.55937958,2022-12-18 06:25:14
Dunkin,5454 S State St, ,Chicago,IL,60609,US,41.79514694,-87.62631226,2022-12-18 06:25:18
Dunkin,1418 E 53rd St,Ste 5,Chicago,IL,60615,US,41.79933167,-87.59183502,2022-12-18 06:25:18
Dunkin,7921 S Western Ave, ,Chicago,IL,60620,US,41.7495079,-87.68218231,2022-12-18 06:25:18
Dunkin,9800 S Western Ave, ,Evergreen Park,IL,60805,US,41.71515656,-87.68217468,2022-12-18 06:25:11
Dunkin,11525 S Halsted St, ,Chicago,IL,60628,US,41.68433762,-87.64179993,2022-12-18 06:25:14
Dunkin,1550 W Garfield Blvd, ,Chicago,IL,60609,US,41.79421997,-87.66413879,2022-12-18 06:25:18
Dunkin,1400 E 47th St,Unit B,Chicago,IL,60653,US,41.81037521,-87.59239197,2022-12-18 06:25:18
Dunkin,10401 S Western Ave, ,Chicago,IL,60643,US,41.70435333,-87.68130493,2022-12-18 06:25:11
Dunkin,6100 S. Western Ave, ,Chicago,IL,60636,US,41.78269196,-87.68374634,2022-12-18 06:25:18
Dunkin,825 W 47th St, ,Chicago,IL,60609,US,41.80860138,-87.64672852,2022-12-18 06:25:18
Dunkin,8736 S Kedzie Ave, ,Evergreen Park,IL,60805,US,41.73412704,-87.70270538,2022-12-18 06:25:11
Dunkin,10770 W. Indianapolis Blvd, ,Hammond,IN,46320,US,41.69886017,-87.52095795,2022-12-18 06:25:14
Dunkin,3332 W 95th St, ,Evergreen Park,IL,60805,US,41.72083664,-87.70578766,2022-12-18 06:25:11
Dunkin,6536 S Kedzie Ave, ,Chicago,IL,60629,US,41.77421188,-87.70327759,2022-12-18 06:25:12
Dunkin,11711 S Ave O, ,Chicago,IL,60617,US,41.68132782,-87.53948975,2022-12-18 06:25:14
Dunkin,5267 US Highway 231, ,Wetumpka,AL,36092,US,32.51763153,-86.21212769,2022-12-18 07:39:41
Dunkin,2020 Cobbs Ford Rd,Suite 1,Prattville,AL,36066,US,32.45968246,-86.41311646,2022-12-18 07:39:41
Dunkin,790 Ann St, ,Montgomery,AL,36107,US,32.37145615,-86.27115631,2022-12-18 07:39:41
Dunkin,6300 Atlanta Highway, ,Montgomery,AL,36117,US,32.38179016,-86.18874359,2022-12-18 07:39:41
Dunkin,2035 Eastern Boulevard, ,Montgomery,AL,36117,US,32.35280228,-86.21831512,2022-12-18 07:39:41
Dunkin,2975 Woodley Road, ,Montgomery,AL,36111,US,32.32772446,-86.264534,2022-12-18 07:39:41
Dunkin,8025 Vaughn Rd, ,Montgomery,AL,36116,US,32.33911133,-86.17562103,2022-12-18 07:39:41
Dunkin,7995 State Route 12, ,Barneveld,NY,13304,US,43.24952698,-75.18479919,2022-12-18 07:39:41
Dunkin,112 N Genesee St, ,Utica,NY,13502,US,43.10783768,-75.22006226,2022-12-18 06:25:12
Dunkin,9221 River Rd, ,Marcy,NY,13403,US,43.13869858,-75.2763443,2022-12-18 06:25:12
Dunkin,400 Oriskany St W,Utica Memorial Auditorium,Utica,NY,13502,US,43.10498428,-75.23360443,2022-12-18 06:25:12
Dunkin,31 Schuyler St, ,Utica,NY,13502,US,43.10714722,-75.24447632,2022-12-18 06:25:12
Dunkin,1133 Mohawk St,Rite Aid Plaza,Utica,NY,13501,US,43.0903244,-75.22186279,2022-12-18 06:25:12
Dunkin,505 West State Street, ,Herkimer,NY,13350,US,43.02269745,-74.99194336,2022-12-18 07:39:41
Dunkin,13190 State Route 12, ,Boonville,NY,13309,US,43.47737885,-75.31835938,2022-12-18 07:39:41
Dunkin,1300 Genesee St, ,Utica,NY,13502,US,43.0958786,-75.24269867,2022-12-18 06:25:12
Dunkin,40 First St, ,Ilion,NY,13357,US,43.01488876,-75.03675079,2022-12-18 06:25:12
Dunkin,81 Oriskany Blvd, ,Whitesboro,NY,13492,US,43.11804962,-75.29264832,2022-12-18 06:25:12
Dunkin,1707 Burrstone Rd, ,New Hartford,NY,13413,US,43.09388351,-75.27752686,2022-12-18 06:25:12
Dunkin,4862 Commercial Dr, ,New York Mills,NY,13417,US,43.09823608,-75.30171967,2022-12-18 06:25:12
Dunkin,45 Kellogg Rd, ,New Hartford,NY,13413,US,43.05495071,-75.27709198,2022-12-18 06:25:12
Dunkin,8471 Seneca Tpke, ,New Hartford,NY,13413,US,43.08182907,-75.32195282,2022-12-18 06:25:12
Dunkin,1701 Black River Blvd N, ,Rome,NY,13440,US,43.23048019,-75.43959808,2022-12-18 06:25:12
Dunkin,1253 10th Ave, ,Menominee,MI,49858,US,45.1076622,-87.61810303,2022-12-18 06:25:11
Dunkin,Blue Grass Airport,4000 Terminal Dr,Lexington,KY,40510,US,38.03746414,-84.59863281,2022-12-18 06:25:18
Dunkin,2213 Versailles Rd, ,Lexington,KY,40504,US,38.04734802,-84.54972076,2022-12-18 06:25:15
Dunkin,1306 South Broadway, ,Lexington,KY,40504,US,38.03440094,-84.52174377,2022-12-18 06:25:18
Dunkin,539 Leighway Drive, ,Richmond,KY,40475,US,37.73645401,-84.31645203,2022-12-18 06:25:18
Dunkin,6605 George Washington Mem Hwy, ,Yorktown,VA,23692,US,37.17301559,-76.47556305,2022-12-18 07:39:41
Dunkin,5026 George Washington Mem Hwy, ,Grafton,VA,23692,US,37.15496063,-76.46147919,2022-12-18 07:39:41
Dunkin,15488 Warwick Boulevard,Suite A,Newport News,VA,23608,US,37.15700531,-76.55584717,2022-12-18 07:39:41
Dunkin,12753 Jefferson Ave, ,Newport News,VA,23602,US,37.13683701,-76.51888275,2022-12-18 07:39:41
Dunkin,12259 Hornsby Lane, ,Newport News,VA,23602,US,37.11297989,-76.50041962,2022-12-18 07:39:41
Dunkin,3370 Commander Shepard Blvd,Building #2,Hampton,VA,23666,US,37.09390259,-76.39511108,2022-12-18 07:39:41
Dunkin,692 J Clyde Morris Blvd, ,Newport News,VA,23601,US,37.07607651,-76.46807861,2022-12-18 07:39:41
Dunkin,1317 Richmond Rd, ,Williamsburg,VA,23185,US,37.28378677,-76.7194519,2022-12-18 07:39:41
Dunkin,12425 Warwick Blvd, ,Newport News,VA,23606,US,37.0703125,-76.49350739,2022-12-18 07:39:41
Dunkin,549 E Rochambeau Dr,Great Wolf Lodge,Williamsburg,VA,23188,US,37.34833908,-76.73120117,2022-12-18 07:39:41
Dunkin,6384 Richmond Rd, ,Williamsburg,VA,23188,US,37.33923721,-76.75260162,2022-12-18 07:39:41
Dunkin,1133 W Mercury Blvd,BP Gas Station,Hampton,VA,23666,US,37.04136658,-76.38787079,2022-12-18 07:39:41
Dunkin,2129 W Mercury Blvd, ,Hampton,VA,23666,US,37.03846359,-76.40035248,2022-12-18 07:39:41
Dunkin,2006 Nickerson Blvd,Suite A,Hampton,VA,23663,US,37.04914093,-76.30989838,2022-12-18 07:39:41
Dunkin,3201 Washington Ave,Suite 101,Newport News,VA,23607,US,36.98229599,-76.4333725,2022-12-18 07:39:41
Dunkin,13440 Carrollton Blvd, ,Carrollton,VA,23314,US,36.95410538,-76.52989197,2022-12-18 07:39:41
Dunkin,8830 Main St, ,Birch Run,MI,48415,US,43.24964523,-83.7779007,2022-12-18 06:25:20
Dunkin,23582 NYS Route 342, ,Watertown,NY,13601,US,44.03905106,-75.90248871,2022-12-18 06:25:18
Dunkin,26370 US Route 11, ,Evans Mills,NY,13637,US,44.05002975,-75.83522034,2022-12-18 06:25:18
Dunkin,1279 Coffeen St, ,Watertown,NY,13601,US,43.98762131,-75.94172668,2022-12-18 06:25:18
Dunkin,1250 Arsenal St, ,Watertown,NY,13601,US,43.97635269,-75.94485474,2022-12-18 06:25:18
Dunkin,1238 Washington St, ,Watertown,NY,13601,US,43.95973587,-75.91371918,2022-12-18 06:25:18
Dunkin,1165 State Route 374, ,Dannemora,NY,12929,US,44.72182846,-73.72384644,2022-12-18 06:25:19
Dunkin,729 Bear Swamp Rd, ,Peru,NY,12972,US,44.57676315,-73.51403046,2022-12-18 06:25:19
Dunkin,693 State Route 3, ,Plattsburgh,NY,12901,US,44.69508362,-73.51520538,2022-12-18 06:25:19
Dunkin,1 Archie Bordeau Rd,Bark's,Plattsburgh,NY,12901,US,44.65174484,-73.48371887,2022-12-18 06:25:19
Dunkin,5556 State Route 11, ,Ellenburg Center,NY,12934,US,44.89284897,-73.83946991,2022-12-18 06:25:19
Dunkin,311 Cornelia St, ,Plattsburgh,NY,12901,US,44.69726944,-73.47685242,2022-12-18 06:25:19
Dunkin,6054 Route 22,Suite B,Plattsburgh,NY,12901,US,44.72132111,-73.46950531,2022-12-18 06:25:19
Dunkin,11 Skyway Shopping Ctr, ,Plattsburgh,NY,12901,US,44.68106079,-73.44911194,2022-12-18 06:25:19
Dunkin,7155 State Route 9, ,Plattsburgh,NY,12901,US,44.72763443,-73.43538666,2022-12-18 06:25:19
Dunkin,122 W Main St, ,Chateaugay,NY,12920,US,44.92621994,-74.08237457,2022-12-18 06:25:14
Dunkin,5111 Boulder Hwy,Sam's Casino,Las Vegas,NV,89122,US,36.11209869,-115.06131744,2022-12-18 06:25:13
Dunkin,4575 Boulder Highway, ,Las Vegas,NV,89121,US,36.12395096,-115.07565308,2022-12-18 06:25:13
Dunkin,1616 E Lake Mead Blvd, ,North Las Vegas,NV,89030,US,36.19603348,-115.12203979,2022-12-18 06:25:13
Dunkin,4125 S Eastern Ave,Flamingo Eastern Plaza,Las Vegas,NV,89119,US,36.11377716,-115.11956024,2022-12-18 06:25:13
Dunkin,3812 E Craig Rd,Pilot Travel Center,North Las Vegas,NV,89030,US,36.24098587,-115.09786224,2022-12-18 06:25:13
Dunkin,6595 N Hollywood Blvd,Petro Travel Center,Las Vegas,NV,89115,US,36.27920914,-115.02433014,2022-12-18 06:25:13
Dunkin,200 E Fremont St,Fremont Hotel & Casino,Las Vegas,NV,89101,US,36.17105865,-115.1432724,2022-12-18 06:25:13
Dunkin,171 N Gibson Rd,Suite 100,Henderson,NV,89014,US,36.03911591,-115.02985382,2022-12-18 06:25:13
Dunkin,3150 Paradise Road, ,Las Vegas,NV,89169,US,36.12968826,-115.15280151,2022-12-18 06:25:13
Dunkin,336 Convention Center Dr, ,Las Vegas,NV,89109,US,36.1332283,-115.15641022,2022-12-18 06:25:13
Dunkin,4503 Paradise Rd,Ste 110,Las Vegas,NV,89169,US,36.10706329,-115.15219116,2022-12-18 06:25:13
Dunkin,4455 Paradise Rd, ,Las Vegas,NV,89169,US,36.11034775,-115.15408325,2022-12-18 06:25:13
Dunkin,5757 Wayne Newton Boulevard, ,Las Vegas,NV,89119,US,36.08265305,-115.13665771,2022-12-18 06:25:13
Dunkin,5757 Wayne Newton Blvd,Harry Reid Intl Airport,Las Vegas,NV,89119,US,36.08135986,-115.1361084,2022-12-18 06:25:13
Dunkin,545 W Craig Rd, ,North Las Vegas,NV,89032,US,36.23923492,-115.14897156,2022-12-18 06:25:13
Dunkin,3200 Las Vegas Blvd S,Suite 1230,Las Vegas,NV,89109,US,36.12674332,-115.16933441,2022-12-18 06:25:13
Dunkin,5757 Wayne Newton Blvd,Harry Reid International Airport,Las Vegas,NV,89119,US,36.0856781,-115.15337372,2022-12-18 06:25:13
Dunkin,3535 Las Vegas Blvd S,Suite D East,Las Vegas,NV,89109,US,36.11832809,-115.17157745,2022-12-18 06:25:13
Dunkin,3535 Las Vegas Boulevard S,Suite D West,Las Vegas,NV,89109,US,36.1180954,-115.17185974,2022-12-18 06:25:13
Dunkin,3801 West Charleston Boulevard, ,Las Vegas,NV,89102,US,36.15882492,-115.19217682,2022-12-18 06:25:13
Dunkin,740 S Decatur Blvd, ,Las Vegas,NV,89107,US,36.16338348,-115.20742035,2022-12-18 06:25:13
Dunkin,7400 Las Vegas Blvd S,Las Vegas Outlet Mall South,Las Vegas,NV,89123,US,36.05532455,-115.16831207,2022-12-18 06:25:13
Dunkin,5485 Simmons St,Ste 3,North Las Vegas,NV,89031,US,36.25949478,-115.18031311,2022-12-18 06:25:13
Dunkin,7430 Las Vegas Blvd,Outlet Venture III,Las Vegas,NV,89123,US,36.05466461,-115.17157745,2022-12-18 06:25:13
Dunkin,10100 S Eastern Ave,Ste 100,Henderson,NV,89052,US,36.00554276,-115.11206055,2022-12-18 06:25:13
Dunkin,5905 W Sahara Ave, ,Las Vegas,NV,89146,US,36.14388275,-115.22216797,2022-12-18 06:25:13
Dunkin,409 E Silverado Ranch Blvd, ,Las Vegas,NV,89183,US,36.0124054,-115.15422058,2022-12-18 06:25:13
Dunkin,5861 W. Craig Rd,Suite 101,Las Vegas,NV,89130,US,36.2386055,-115.22442627,2022-12-18 06:25:13
Dunkin,6795 Tropicana Ave,Suite 100,Las Vegas,NV,89103,US,36.0994606,-115.24108887,2022-12-18 06:25:13
Dunkin,6295 S. Rainbow Blvd, ,Las Vegas,NV,89118,US,36.07460785,-115.24302673,2022-12-18 06:25:13
Dunkin,5233 State Route 30, ,Greensburg,PA,15601,US,40.30374146,-79.5059433,2022-12-18 06:25:16
Dunkin,915 N Center Ave, ,Somerset,PA,15501,US,40.01650238,-79.07881165,2022-12-18 06:25:18
Dunkin,2010 S Mooney Blvd, ,Visalia,CA,93277,US,36.31277084,-119.31349945,2022-12-18 06:25:16
Dunkin,1695 W Lacey Blvd, ,Hanford,CA,93230,US,36.32573318,-119.67243195,2022-12-18 06:25:16
Dunkin,235 NW 24th St,"Love's Travel Stop, #712",Newcastle,OK,73065,US,35.27807236,-97.60144806,2022-12-18 06:25:11
Dunkin,2531 West Main Street, ,Norman,OK,73069,US,35.21899414,-97.48056793,2022-12-18 06:25:11
Dunkin,301 East Robinson Street, ,Norman,OK,73069,US,35.23315048,-97.44255829,2022-12-18 06:25:11
Dunkin,630 SW 4th St, ,Moore,OK,73160,US,35.33404541,-97.49596405,2022-12-18 06:25:11
Dunkin,9100 S Western Ave, ,Oklahoma City,OK,73139,US,35.37617111,-97.52971649,2022-12-18 06:25:11
Dunkin,100 Troy Plaza Loop, ,Troy,AL,36081,US,31.78271294,-85.95188904,2022-12-18 07:39:41
Dunkin,301 South Broadway, ,Portland,TN,37148,US,36.57777786,-86.51558685,2022-12-18 06:25:15
Dunkin,2435 Nashville Rd, ,Bowling Green,KY,42101,US,36.96099091,-86.46961212,2022-12-18 06:25:18
Dunkin,408 US 31 West Bypass, ,Bowling Green,KY,42101,US,36.99453354,-86.42608643,2022-12-18 06:25:18
Dunkin,1085 S Saint Francis Dr, ,Santa Fe,NM,87505,US,35.67502213,-105.95333862,2022-12-18 06:25:12
Dunkin,10470 US Hwy 522 S, ,Lewistown,PA,17044,US,40.58705139,-77.60359192,2022-12-18 06:25:20
Dunkin,3180 W College Ave, ,State College,PA,16801,US,40.75938034,-77.8780365,2022-12-18 06:25:18
Dunkin,324 South Logan Blvd, ,Burnham,PA,17009,US,40.62510681,-77.56374359,2022-12-18 06:25:20
Dunkin,1311 S Atherton St, ,State College,PA,16801,US,40.78430939,-77.84434509,2022-12-18 06:25:20
Dunkin,200 W College Ave, ,State College,PA,16801,US,40.7935257,-77.86286926,2022-12-18 06:25:20
Dunkin,1430 N Atherton St, ,State College,PA,16803,US,40.80578232,-77.88865662,2022-12-18 06:25:20
Dunkin,1381 E College Avenue, ,State College,PA,16801,US,40.81045151,-77.8314209,2022-12-18 06:25:20
Dunkin,580 N Main St, ,Vidor,TX,77662,US,30.12972069,-94.0150528,2022-12-18 06:25:19
Dunkin,920 N. 11th St, ,Beaumont,TX,77702,US,30.08986473,-94.12999725,2022-12-18 06:25:19
Dunkin,6392 Phelan Blvd, ,Beaumont,TX,77706,US,30.0782795,-94.16912842,2022-12-18 06:25:19
Dunkin,4370 E. Lucas Dr, ,Beaumont,TX,77708,US,30.11788559,-94.14463043,2022-12-18 06:25:19
Dunkin,17498 Interstate 10,Stuckeys Fannett,Beaumont,TX,77705,US,29.93312073,-94.26795959,2022-12-18 06:25:19
Dunkin,112 S Main St, ,Lumberton,TX,77657,US,30.25541306,-94.19844818,2022-12-18 06:25:19
Dunkin,18184 Conneaut Lake Rd, ,Meadville,PA,16335,US,41.62170792,-80.17343903,2022-12-18 06:25:13
Dunkin,3560 E State St, ,Hermitage,PA,16148,US,41.23340988,-80.44342804,2022-12-18 06:25:13
Dunkin,415 S Broad St, ,Grove City,PA,16127,US,41.15694809,-80.08772278,2022-12-18 06:25:17
Dunkin,2355 S Hermitage Rd, ,Hermitage,PA,16148,US,41.20211029,-80.45594788,2022-12-18 06:25:13
Dunkin,125 W Main St, ,Le Roy,NY,14482,US,42.97760391,-78.00430298,2022-12-18 06:25:07
Dunkin,136 W Main St, ,Batavia,NY,14020,US,42.99995422,-78.19104767,2022-12-18 06:25:07
Dunkin,405 West Main St, ,Batavia,NY,14020,US,43.00487518,-78.20374298,2022-12-18 06:25:07
Dunkin,8073 Clinton Street Rd, ,Bergen,NY,14416,US,43.07361984,-77.94784546,2022-12-18 06:25:07
Dunkin,2489 Route 19 N, ,Warsaw,NY,14569,US,42.7612381,-78.12919617,2022-12-18 06:25:07
Dunkin,3249 Union St, ,North Chili,NY,14514,US,43.12096024,-77.80661774,2022-12-18 06:25:09
Dunkin,4675 Lake Rd S, ,Brockport,NY,14420,US,43.20117188,-77.94328308,2022-12-18 06:25:07
Dunkin,265 E Main St, ,Avon,NY,14414,US,42.90980911,-77.73426056,2022-12-18 06:25:09
Dunkin,8484 Alleghany Rd,Pilot Travel Center,Pembroke,NY,14036,US,43.00142288,-78.40666962,2022-12-18 06:25:07
Dunkin,4179 Lakeville Rd, ,Geneseo,NY,14454,US,42.79603958,-77.79420471,2022-12-18 06:25:09
Dunkin,4310 Lakeville Rd,Gas Station,Geneseo,NY,14454,US,42.80018234,-77.7813797,2022-12-18 06:25:09
Dunkin,3152 Chili Ave, ,Rochester,NY,14624,US,43.10845947,-77.74462128,2022-12-18 06:25:09
Dunkin,2781 Lakeville Rd, ,Avon,NY,14414,US,42.86594391,-77.7126236,2022-12-18 06:25:09
Dunkin,7535 W Ridge Rd, ,Brockport,NY,14420,US,43.22521973,-77.89003754,2022-12-18 06:25:07
Dunkin,66 E State St, ,Mount Morris,NY,14510,US,42.72789764,-77.86697388,2022-12-18 06:25:09
Dunkin,153 S Main St, ,Albion,NY,14411,US,43.24248886,-78.19346619,2022-12-18 06:25:07
Dunkin,2960 Buffalo Rd, ,Rochester,NY,14624,US,43.14408493,-77.73282623,2022-12-18 06:25:09
Dunkin,5017 West Ridge Rd, ,Spencerport,NY,14559,US,43.21803284,-77.79077148,2022-12-18 06:25:09
Dunkin,375 Kenneth Dr, ,Rochester,NY,14623,US,43.0594635,-77.64495087,2022-12-18 06:25:09
Dunkin,4178 W Henrietta Rd, ,Rochester,NY,14623,US,43.0690918,-77.64601898,2022-12-18 06:25:09
Dunkin,1482 Buffalo Rd, ,Westgate,NY,14624,US,43.14996338,-77.69043732,2022-12-18 06:25:09
Dunkin,1300 Scottsville Rd, ,Rochester,NY,14624,US,43.11536407,-77.66313171,2022-12-18 06:25:09
Dunkin,Greater Rochester Int. Airport,1200 Brooks Ave,Rochester,NY,14624,US,43.12783813,-77.66417694,2022-12-18 06:25:09
Dunkin,11378 Maple Ridge Rd, ,Medina,NY,14103,US,43.20694733,-78.3875885,2022-12-18 06:25:07
Dunkin,2740 W. Henrietta Rd, ,Rochester,NY,14623,US,43.09687042,-77.63148499,2022-12-18 06:25:09
Dunkin,116 W Main St, ,Honeoye Falls,NY,14472,US,42.94934464,-77.60030365,2022-12-18 06:25:09
Dunkin,1587 Long Pond Rd, ,Rochester,NY,14626,US,43.18809891,-77.70194244,2022-12-18 06:25:09
Dunkin,942 Jefferson Rd, ,Henrietta,NY,14467,US,43.08736038,-77.61194611,2022-12-18 06:25:09
Dunkin,2341 Brighton Henrietta, ,Rochester,NY,14623,US,43.09440613,-77.6140976,2022-12-18 06:25:09
Dunkin,1500 Mount Hope Ave, ,Rochester,NY,14620,US,43.12094116,-77.6190033,2022-12-18 06:25:09
Dunkin,9175 Mira Mesa Blvd, ,San Diego,CA,92126,US,32.91662598,-117.12665558,2022-12-18 06:25:13
Dunkin,8635 Obregon Ave, ,San Diego,CA,92145,US,32.87677383,-117.14015961,2022-12-18 06:25:13
Dunkin,7514 Girard Ave, ,La Jolla,CA,92037,US,32.84066391,-117.27287292,2022-12-18 06:25:13
Dunkin,409 Washington St, ,San Diego,CA,92103,US,32.74980927,-117.16120148,2022-12-18 06:25:13
Dunkin,3500 Sports Arena Blvd,Pechanga Arena,San Diego,CA,92110,US,32.75511932,-117.21212769,2022-12-18 06:25:13
Dunkin,350 Fletcher Pkwy, ,El Cajon,CA,92020,US,32.8082428,-116.96548462,2022-12-18 06:25:13
Dunkin,1770 Rosecrans St, ,San Diego,CA,92106,US,32.72950363,-117.22550964,2022-12-18 06:25:13
Dunkin,225 Broadway,Ste 100,San Diego,CA,92101,US,32.71523666,-117.16233063,2022-12-18 06:25:13
Dunkin,100 Park Boulevard, ,San Diego,CA,92101,US,32.70704269,-117.15585327,2022-12-18 06:25:13
Dunkin,Naval Exchange Building 2017,Navel Air Station,Coronado,CA,92118,US,32.70183182,-117.18377686,2022-12-18 06:25:13
Dunkin,2139 E Plaza Blvd, ,National City,CA,91950,US,32.67821121,-117.08296967,2022-12-18 06:25:13
Dunkin,1410 Main St, ,Ramona,CA,92065,US,33.0382309,-116.87520599,2022-12-18 06:25:12
Dunkin,2260 Otay Lakes Road,#101,Chula Vista,CA,91915,US,32.64670181,-116.96576691,2022-12-18 06:25:13
Dunkin,1310 E Vista Way, ,Vista,CA,92084,US,33.21812439,-117.2264328,2022-12-18 06:25:07
Dunkin,1906 Oceanside Blvd, ,Oceanside,CA,92054,US,33.19365311,-117.35675049,2022-12-18 06:25:07
Dunkin,8000 SE I-70,Topeka Service Plaza,Tecumseh,KS,66542,US,39.01961517,-95.5090332,2022-12-18 06:25:07
Dunkin,1500 SW 6th Ave, ,Topeka,KS,66606,US,39.05729675,-95.69340515,2022-12-18 06:25:18
Dunkin,4009 SW 21st St, ,Topeka,KS,66604,US,39.02925873,-95.72694397,2022-12-18 06:25:18
Dunkin,1400 W 6th St, ,Lawrence,KS,66044,US,38.97330093,-95.2512207,2022-12-18 06:25:07
Dunkin,521 W 23rd St, ,Lawrence,KS,66046,US,38.94269943,-95.24294281,2022-12-18 06:25:07
Dunkin,1501 Niles Cortland Rd SE, ,Warren,OH,44484,US,41.22363281,-80.74002075,2022-12-18 06:25:13
Dunkin,3299 Niles Cortland Rd NE, ,Cortland,OH,44410,US,41.30776596,-80.73191833,2022-12-18 06:25:13
Dunkin,58 Youngstown Warren Rd, ,Niles,OH,44446,US,41.18248749,-80.71877289,2022-12-18 06:25:13
Dunkin,3920 E Market St, ,Warren,OH,44484,US,41.23670578,-80.76733398,2022-12-18 06:25:13
Dunkin,4305 Belmont Ave, ,Youngstown,OH,44505,US,41.1596489,-80.66452789,2022-12-18 06:25:13
Dunkin,2373 N Main St, ,Hubbard,OH,44425,US,41.17894363,-80.56787872,2022-12-18 06:25:13
Dunkin,3481 Elm Rd NE, ,Warren,OH,44483,US,41.26651001,-80.7831192,2022-12-18 06:25:13
Dunkin,3545 Youngstown Rd SE, ,Warren,OH,44484,US,41.21910095,-80.77776337,2022-12-18 06:25:13
Dunkin,619 North Main Street, ,Niles,OH,44446,US,41.18777466,-80.76496887,2022-12-18 06:25:13
Dunkin,2720 Salt Springs Road, ,Girard,OH,44420,US,41.14316177,-80.72254181,2022-12-18 06:25:13
Dunkin,759 W Market St, ,Warren,OH,44481,US,41.23377991,-80.8287735,2022-12-18 06:25:13
Dunkin,4429 Mahoning Ave NW, ,Warren,OH,44483,US,41.28065872,-80.84435272,2022-12-18 06:25:13
Dunkin,1123 N Canfield Niles Rd, ,Austintown,OH,44515,US,41.12754822,-80.76790619,2022-12-18 06:25:17
Dunkin,730 12th St, ,Campbell,OH,44405,US,41.0900383,-80.59410858,2022-12-18 06:25:17
Dunkin,4812 Mahoning Ave, ,Austintown,OH,44515,US,41.10058975,-80.74523163,2022-12-18 06:25:17
Dunkin,1514 S Raccoon Rd, ,Austintown,OH,44515,US,41.08537292,-80.73271942,2022-12-18 06:25:17
Dunkin,6073 Mahoning Ave, ,Austintown,OH,44515,US,41.09935379,-80.77681732,2022-12-18 06:25:16
Dunkin,3900 Market St, ,Youngstown,OH,44512,US,41.06069946,-80.6622467,2022-12-18 06:25:17
Dunkin,3547 S Meridian Rd, ,Youngstown,OH,44511,US,41.06552124,-80.71060181,2022-12-18 06:25:17
Dunkin,412 Youngstown-Poland Rd, ,Struthers,OH,44471,US,41.06022263,-80.61547852,2022-12-18 06:25:17
Dunkin,1305 Boardman Poland Rd, ,Poland,OH,44514,US,41.02387619,-80.62962341,2022-12-18 06:25:17
Dunkin,748 Boardman-Canfield Rd, ,Boardman,OH,44512,US,41.02463913,-80.68338776,2022-12-18 06:25:17
Dunkin,101 N Bailey Rd, ,North Jackson,OH,44451,US,41.09999466,-80.88680267,2022-12-18 06:25:15
Dunkin,4299 Boardman Canfield Rd, ,Canfield,OH,44406,US,41.02415466,-80.72924042,2022-12-18 06:25:16
Dunkin,7635 Market St, ,Boardman,OH,44512,US,41.01448441,-80.66251373,2022-12-18 06:25:17
Dunkin,1001 E. Western Reserve Road, ,Youngstown,OH,44514,US,40.98743057,-80.63331604,2022-12-18 06:25:17
Dunkin,11686 Market St, ,North Lima,OH,44452,US,40.94894409,-80.65919495,2022-12-18 06:25:15
Dunkin,2503 Wilmington Rd, ,New Castle,PA,16105,US,41.03026581,-80.35469818,2022-12-18 06:25:17
Dunkin,1723 E Broad St, ,Statesville,NC,28625,US,35.79076385,-80.85514069,2022-12-18 06:25:14
Dunkin,1007 Charlotte Highway, ,Troutman,NC,28166,US,35.67211914,-80.85443115,2022-12-18 06:25:14
Dunkin,1006 Charlotte Hwy,Travel Plaza,Troutman,NC,28166,US,35.67152023,-80.85560608,2022-12-18 06:25:14
Dunkin,241 Turnersburg Hwy, ,Statesville,NC,28625,US,35.81562424,-80.87684631,2022-12-18 06:25:14
Dunkin,205 N Main St, ,Troutman,NC,28166,US,35.70368576,-80.89068604,2022-12-18 06:25:14
Dunkin,417 E Plaza Dr, ,Mooresville,NC,28115,US,35.5945549,-80.81846619,2022-12-18 06:25:14
Dunkin,715 Jake Alexander Blvd W, ,Salisbury,NC,28147,US,35.6653862,-80.49987793,2022-12-18 06:25:14
Dunkin,1452 Yadkinville Rd,Ste 101,Mocksville,NC,27028,US,35.91937637,-80.58509827,2022-12-18 06:25:14
Dunkin,985 Peeler Rd,Travel Plaza,Salisbury,NC,28147,US,35.61240768,-80.52013397,2022-12-18 06:25:14
Dunkin,651 River Hwy, ,Mooresville,NC,28117,US,35.59584427,-80.87641907,2022-12-18 06:25:14
Dunkin,1009 E Innes St, ,Salisbury,NC,28144,US,35.6588974,-80.46116638,2022-12-18 06:25:14
Dunkin,842 Williamson Rd, ,Mooresville,NC,28117,US,35.55528641,-80.86126709,2022-12-18 06:25:14
Dunkin,121 Mecklynn Rd, ,Mooresville,NC,28117,US,35.52909088,-80.86449432,2022-12-18 06:25:14
Dunkin,7936 Bradley Long Dr, ,Sherrills Ford,NC,28673,US,35.58400726,-80.98712921,2022-12-18 06:25:14
Dunkin,19921 Zion Ave, ,Cornelius,NC,28031,US,35.48087311,-80.85726929,2022-12-18 06:25:14
Dunkin,2257 Spider Dr NE, ,Kannapolis,NC,28083,US,35.46450424,-80.59220886,2022-12-18 06:25:14
Dunkin,19116 W Catawba Ave,Suite C,Cornelius,NC,28031,US,35.47418594,-80.89129639,2022-12-18 06:25:14
Dunkin,538 Kannapolis Pkwy, ,Concord,NC,28027,US,35.42196274,-80.67589569,2022-12-18 06:25:11
Dunkin,1502 Cotton Grove Rd, ,Lexington,NC,27292,US,35.78319168,-80.25959778,2022-12-18 06:25:14
Dunkin,30 Raiford Dr, ,Concord,NC,28027,US,35.39545822,-80.61690521,2022-12-18 06:25:11
Dunkin,1754 S Hanley Rd, ,Richmond Heights,MO,63117,US,38.62373352,-90.33385468,2022-12-18 06:25:09
Dunkin,7728 Big Bend Boulevard, ,Saint Louis,MO,63119,US,38.59690475,-90.3313446,2022-12-18 06:25:09
Dunkin,9860 Manchester Rd, ,Saint Louis,MO,63119,US,38.6054306,-90.37696075,2022-12-18 06:25:09
Dunkin,1208 S Kirkwood Rd, ,Kirkwood,MO,63122,US,38.56227875,-90.40681458,2022-12-18 06:25:09
Dunkin,10250 Page Ave, ,Overland,MO,63114,US,38.69085312,-90.38697815,2022-12-18 06:25:09
Dunkin,13721 Manchester Rd, ,Ballwin,MO,63011,US,38.59615326,-90.4802475,2022-12-18 06:25:09
Dunkin,St. Louis Airport,10701 Lambert International Blvd,Saint Louis,MO,63145,US,38.73807144,-90.3592453,2022-12-18 06:25:09
Dunkin,St. Louis Airport,10701 Lambert Intl Blvd,Saint Louis,MO,63145,US,38.74242401,-90.36564636,2022-12-18 06:25:09
Dunkin,St. Louis Intl Airport (STL),10701 Lambert Intl Blvd,St Louis,MO,63145,US,38.74293518,-90.36708069,2022-12-18 06:25:09
Dunkin,1410 Big Bend Road, ,Twin Oaks,MO,63088,US,38.56739807,-90.49710083,2022-12-18 06:25:09
Dunkin,4220 Telegraph Rd, ,Saint Louis,MO,63129,US,38.48817062,-90.30397034,2022-12-18 06:25:09
Dunkin,12121 Saint Charles Rock Rd, ,Bridgeton,MO,63044,US,38.75034332,-90.42481995,2022-12-18 06:25:09
Dunkin,8115 N Lindbergh Blvd, ,Florissant,MO,63031,US,38.78985977,-90.34716034,2022-12-18 06:25:09
Dunkin,900 Jeffco Blvd, ,Arnold,MO,63010,US,38.4467392,-90.37151337,2022-12-18 06:25:09
Dunkin,15881 Fountain Plaza Dr, ,Ellisville,MO,63017,US,38.60506821,-90.58554077,2022-12-18 06:25:09
Dunkin,1211 S 5th St, ,Saint Charles,MO,63301,US,38.77296066,-90.4917984,2022-12-18 06:25:09
Dunkin,7343 Mexico Rd, ,Saint Peters,MO,63376,US,38.78908539,-90.63279724,2022-12-18 06:25:09
Dunkin,6008 N Illinois St, ,Fairview Heights,IL,62208,US,38.58732605,-89.98480225,2022-12-18 06:25:09
Dunkin,4009 Highway K, ,O Fallon,MO,63368,US,38.72652054,-90.69706726,2022-12-18 06:25:09
Dunkin,1220 Highway K, ,O Fallon,MO,63366,US,38.79478073,-90.69851685,2022-12-18 06:25:09
Dunkin,819 Edwardsville Rd,Travel Centers of America,Troy,IL,62294,US,38.73218155,-89.90880585,2022-12-18 06:25:09
Dunkin,17065 S Dupont Hwy,Midway Park Shopping Center,Harrington,DE,19952,US,38.92537308,-75.56600952,2022-12-18 06:25:17
Dunkin,675A N Dupont Blvd, ,Milford,DE,19963,US,38.91985703,-75.43981171,2022-12-18 06:25:17
Dunkin,939 N. Dupont Blvd,Wal*Mart #1741,Milford,DE,19963,US,38.93270111,-75.4312973,2022-12-18 06:25:17
Dunkin,4080 Dupont Hwy, ,Camden,DE,19934,US,39.102005,-75.54320526,2022-12-18 06:25:17
Dunkin,20550 Dupont Blvd, ,Georgetown,DE,19947,US,38.70036316,-75.40156555,2022-12-18 06:25:17
Dunkin,601 Legion Rd, ,Denton,MD,21629,US,38.87617493,-75.8236618,2022-12-18 06:25:17
Dunkin,500 Bridgeville Hwy, ,Seaford,DE,19973,US,38.64851379,-75.60849762,2022-12-18 06:25:17
Dunkin,470 S. Dupont Hwy, ,Dover,DE,19901,US,39.15573502,-75.51346588,2022-12-18 06:25:17
Dunkin,1128 Forrest Ave, ,Dover,DE,19901,US,39.15841675,-75.54737091,2022-12-18 06:25:17
Dunkin,206 N Dupont Hwy, ,Dover,DE,19901,US,39.16815186,-75.5174942,2022-12-18 06:25:17
Dunkin,1200 N DuPont Highway,DSU,Dover,DE,19901,US,39.18629837,-75.54256439,2022-12-18 06:25:17
Dunkin,2920 N DuPont Hwy, ,Dover,DE,19901,US,39.1957016,-75.5488205,2022-12-18 06:25:17
Dunkin,36 Jerome Dr,Wal Mart,Dover,DE,19901,US,39.21456146,-75.57334137,2022-12-18 06:25:17
Dunkin,1 Midway Shopping Ctr, ,Rehoboth Beach,DE,19971,US,38.73861313,-75.14208984,2022-12-18 06:25:17
Dunkin,205 N Dual Hwy, ,Laurel,DE,19956,US,38.56267548,-75.55735016,2022-12-18 06:25:17
Dunkin,200 E. DuPont Hwy, ,Millsboro,DE,19966,US,38.58411026,-75.29315186,2022-12-18 06:25:17
Dunkin,6201 Hollywood Blvd,Suite 130,Los Angeles,CA,90028,US,34.10188293,-118.32505035,2022-12-18 07:39:41
Dunkin,1614 S Crenshaw Blvd, ,Los Angeles,CA,90019,US,34.04438019,-118.32830811,2022-12-18 07:39:41
Dunkin,5970 W Olympic Blvd, ,Los Angeles,CA,90036,US,34.05767059,-118.36180115,2022-12-18 07:39:41
Dunkin,754 S Olive St, ,Los Angeles,CA,90014,US,34.04514694,-118.25666809,2022-12-18 07:39:41
Dunkin,3100 Glendale Blvd,Atwater Village,Los Angeles,CA,90039,US,34.11617661,-118.26244354,2022-12-18 07:39:41
Dunkin,1000 Vin Scully Ave, ,Los Angeles,CA,90090,US,34.07335281,-118.2397995,2022-12-18 07:39:41
Dunkin,3335 South Figueroa Street, ,Los Angeles,CA,90007,US,34.02300262,-118.27958679,2022-12-18 07:39:41
Dunkin,410 E Washington Blvd, ,Los Angeles,CA,90015,US,34.0289917,-118.26152039,2022-12-18 07:39:41
Dunkin,1151 Glendale Galleria,Food Court,Glendale,CA,91210,US,34.14495468,-118.25881958,2022-12-18 07:39:41
Dunkin,2200 E Trojan Way, ,Los Angeles,CA,90033,US,34.06365967,-118.20223999,2022-12-18 07:39:41
Dunkin,200 S Glenoaks Blvd, ,Burbank,CA,91502,US,34.18244171,-118.30484772,2022-12-18 07:39:41
Dunkin,6812 S. La Tijera Boulevard, ,Los Angeles,CA,90045,US,33.97644806,-118.37162018,2022-12-18 07:39:41
Dunkin,1001 Gayley Avenue, ,Los Angeles,CA,90024,US,34.0618248,-118.44799805,2022-12-18 07:39:41
Dunkin,13300 Washington Blvd, ,Culver City,CA,90066,US,33.99296951,-118.44232178,2022-12-18 07:39:41
Dunkin,Los Angeles Int. Airport,1 World Way,Los Angeles,CA,90045,US,33.94268417,-118.39987946,2022-12-18 07:39:41
Dunkin,Los Angeles Int. Airport,400 World Way,Los Angeles,CA,90045,US,33.94091415,-118.40687561,2022-12-18 07:39:41
Dunkin,1132 Wilshire Blvd, ,Santa Monica,CA,90401,US,34.02429962,-118.49168396,2022-12-18 07:39:41
Dunkin,6821 Eastern Ave, ,Bell Gardens,CA,90201,US,33.97081375,-118.16462708,2022-12-18 07:39:41
Dunkin,275 South Lake Ave, ,Pasadena,CA,91101,US,34.14107895,-118.13251495,2022-12-18 07:39:41
Dunkin,7203 Van Nuys Blvd, ,Los Angeles,CA,91405,US,34.20138931,-118.44903564,2022-12-18 07:39:41
Dunkin,4365 W Rosecrans Ave,Building A,Hawthorne,CA,90250,US,33.90209579,-118.35176849,2022-12-18 07:39:41
Dunkin,4920 Balboa Blvd, ,Encino,CA,91316,US,34.16001511,-118.50083923,2022-12-18 07:39:41
Dunkin,1258 W Redondo Beach Blvd,Suite B,Gardena,CA,90247,US,33.89184952,-118.29777527,2022-12-18 07:39:41
Dunkin,18524 Ventura Boulevard, ,Los Angeles,CA,91356,US,34.16865158,-118.53665924,2022-12-18 07:39:41
Dunkin,2232 S Central Ave, ,Compton,CA,90220,US,33.8722496,-118.2482605,2022-12-18 07:39:41
Dunkin,9070 Firestone Blvd, ,Downey,CA,90241,US,33.93441391,-118.12213135,2022-12-18 07:39:41
Dunkin,10432 Sepulveda Blvd, ,Mission Hills,CA,91345,US,34.26046753,-118.46695709,2022-12-18 07:39:41
Dunkin,1955 Durfee Ave,Suite E,South El Monte,CA,91733,US,34.04618073,-118.03071594,2022-12-18 07:39:41
Dunkin,9355 Reseda Blvd, ,Northridge,CA,91324,US,34.24081421,-118.53642273,2022-12-18 07:39:41
Dunkin,17404 Bellflower Blvd, ,Bellflower,CA,90706,US,33.87447739,-118.12493896,2022-12-18 07:39:41
Dunkin,4 S Shore Rd, ,Marmora,NJ,08223,US,39.2648468,-74.6471405,2022-12-18 06:25:09
Dunkin,962 West Ave, ,Ocean City,NJ,08226,US,39.2788353,-74.57778931,2022-12-18 06:25:09
Dunkin,2402 Boardwalk, ,Wildwood,NJ,08260,US,38.99063873,-74.80251312,2022-12-18 06:25:09
Dunkin,3120 Boardwalk,Wildwood Boardwalk,Wildwood,NJ,08260,US,38.98816681,-74.80819702,2022-12-18 06:25:09
Dunkin,4014 Boardwalk, ,Wildwood,NJ,08260,US,38.98436737,-74.8140564,2022-12-18 06:25:09
Dunkin,411 New Rd, ,Somers Point,NJ,08244,US,39.32691574,-74.59825134,2022-12-18 06:25:09
Dunkin,10 Wildwood Blvd, ,Rio Grande,NJ,08242,US,39.01419067,-74.87566376,2022-12-18 06:25:09
Dunkin,6400 Ventnor Ave, ,Ventnor City,NJ,08406,US,39.33784866,-74.48234558,2022-12-18 06:25:09
Dunkin,3704 Bayshore Rd, ,North Cape May,NJ,08204,US,38.98246384,-74.94272614,2022-12-18 06:25:09
Dunkin,809 Tilton Rd, ,Northfield,NJ,08225,US,39.38179016,-74.55478668,2022-12-18 06:25:09
Dunkin,201 S Main St, ,Pleasantville,NJ,08232,US,39.38985443,-74.52445221,2022-12-18 06:25:09
Dunkin,3000 Atlantic Ave, ,Atlantic City,NJ,08401,US,39.35381317,-74.44806671,2022-12-18 06:25:09
Dunkin,1900 Pacific Ave,Bally's Hotel,Atlantic City,NJ,08401,US,39.35525131,-74.43449402,2022-12-18 06:25:09
Dunkin,6059 East Black Horse Pike, ,Egg Harbor Township,NJ,08234,US,39.43373108,-74.60970306,2022-12-18 06:25:09
Dunkin,915 N New Rd, ,Pleasantville,NJ,08232,US,39.40853119,-74.520401,2022-12-18 06:25:09
Dunkin,1800 Atlantic Ave, ,Atlantic City,NJ,08401,US,39.35986328,-74.43312836,2022-12-18 06:25:09
Dunkin,1133 Boardwalk,Resorts Casino,Atlantic City,NJ,08401,US,39.35808945,-74.42153931,2022-12-18 06:25:09
Dunkin,3450 Black Horse Pike, ,Mays Landing,NJ,08330,US,39.45173645,-74.64594269,2022-12-18 06:25:09
Dunkin,467 White Horse Pike, ,Absecon,NJ,08201,US,39.42967224,-74.50849915,2022-12-18 06:25:09
Dunkin,101 Atlantic City Int'l Airport Post Full, ,Egg Harbor City,NJ,08215,US,39.45122528,-74.57296753,2022-12-18 06:25:09
Dunkin,4012 Brigantine Blvd, ,Brigantine,NJ,08203,US,39.39459991,-74.39830017,2022-12-18 06:25:09
Dunkin,10 S Wade Blvd, ,Millville,NJ,08332,US,39.39450836,-75.01870728,2022-12-18 06:25:09
Dunkin,311 E Jimmie Leeds Rd, ,Galloway,NJ,08205,US,39.46685028,-74.49940491,2022-12-18 06:25:09
Dunkin,870 Dolly Parton Parkway, ,Sevierville,TN,37862,US,35.86531067,-83.54626465,2022-12-18 06:25:09
Dunkin,330 Winfield Dunn Pkwy, ,Sevierville,TN,37876,US,35.87243652,-83.56903076,2022-12-18 06:25:09
Dunkin,2209 Parkway, ,Pigeon Forge,TN,37863,US,35.81612015,-83.57794189,2022-12-18 06:25:09
Dunkin,3262 Parkway, ,Pigeon Forge,TN,37863,US,35.7908287,-83.55910492,2022-12-18 06:25:09
Dunkin,10646 Chapman Highway, ,Seymour,TN,37865,US,35.87965012,-83.77603912,2022-12-18 06:25:09
Dunkin,3663 Roy Messer Hwy, ,White Pine,TN,37890,US,36.10900116,-83.33873749,2022-12-18 06:25:09
Dunkin,6115 Asheville Hwy, ,Knoxville,TN,37924,US,36.01686478,-83.827034,2022-12-18 06:25:09
Dunkin,2902 West Andrew Johnson Highway, ,Morristown,TN,37814,US,36.20119858,-83.33560944,2022-12-18 06:25:09
Dunkin,2800 Chapman Hwy, ,Knoxville,TN,37920,US,35.94829178,-83.91259766,2022-12-18 06:25:09
Dunkin,3201 Buttermilk Rd, ,Cottondale,AL,35453,US,33.16924667,-87.44797516,2022-12-18 07:39:41
Dunkin,596 W Lancaster Ave, ,Bryn Mawr,PA,19010,US,40.0177269,-75.31125641,2022-12-18 06:25:09
Dunkin,12 Greenfield Ave, ,Ardmore,PA,19003,US,40.00865173,-75.29708862,2022-12-18 06:25:09
Dunkin,2500 West Chester Pike, ,Broomall,PA,19008,US,39.98087311,-75.35716248,2022-12-18 06:25:12
Dunkin,110 E Lancaster Ave, ,Wayne,PA,19087,US,40.04415131,-75.38761139,2022-12-18 06:25:16
Dunkin,901 W Chester Pike, ,Havertown,PA,19083,US,39.97190094,-75.31117249,2022-12-18 06:25:12
Dunkin,2804 Township Line Rd, ,Havertown,PA,19083,US,39.96474457,-75.30200195,2022-12-18 06:25:12
Dunkin,7520 City Line Ave, ,Philadelphia,PA,19151,US,39.97927856,-75.27048492,2022-12-18 06:25:09
Dunkin,20 N Newtown Street Rd, ,Newtown Square,PA,19073,US,39.98818588,-75.40203857,2022-12-18 06:25:16
Dunkin,891 Lancaster Ave, ,Devon,PA,19333,US,40.04861069,-75.414505,2022-12-18 06:25:16
Dunkin,5060 Township Line Rd, ,Drexel Hill,PA,19026,US,39.95381165,-75.32275391,2022-12-18 06:25:12
Dunkin,712 N Lansdowne Ave, ,Drexel Hill,PA,19026,US,39.95872879,-75.28760529,2022-12-18 06:25:12
Dunkin,7720 W Chester Pike, ,Upper Darby,PA,19082,US,39.96437073,-75.27404022,2022-12-18 06:25:09
Dunkin,132 W Dekalb Pike, ,King Of Prussia,PA,19406,US,40.09468842,-75.36422729,2022-12-18 06:25:16
Dunkin,7104 Ridge Ave, ,Philadelphia,PA,19128,US,40.04520416,-75.23205566,2022-12-18 06:25:09
Dunkin,108 W Ridge Pike, ,Conshohocken,PA,19428,US,40.09467697,-75.2873764,2022-12-18 06:25:09
Dunkin,5100 City Ave, ,Philadelphia,PA,19131,US,39.99822617,-75.23214722,2022-12-18 06:25:09
Dunkin,160 N Gulph Rd, ,King of Prussia,PA,19406,US,40.08773804,-75.39437103,2022-12-18 06:25:16
Dunkin,1500 Garrett Rd,Barclay Square,Upper Darby,PA,19082,US,39.95407104,-75.27554321,2022-12-18 06:25:12
Dunkin,819 W.Sproul Rd,Sproul Bowling Lanes,Springfield,PA,19064,US,39.94381332,-75.34892273,2022-12-18 06:25:12
Dunkin,416 N. 63rd St #36, ,Philadelphia,PA,19151,US,39.96957779,-75.2456665,2022-12-18 06:25:09
Dunkin,939 E Main St, ,Norristown,PA,19401,US,40.1090889,-75.32775879,2022-12-18 06:25:16
Dunkin,126 S 69th St, ,Upper Darby,PA,19082,US,39.95798492,-75.25826263,2022-12-18 06:25:09
Dunkin,6191 Ridge Ave, ,Philadelphia,PA,19128,US,40.03541183,-75.21708679,2022-12-18 06:25:09
Dunkin,6898 Marshall Rd,Exxon,Upper Darby,PA,19082,US,39.95385361,-75.25814056,2022-12-18 06:25:12
Dunkin,4160 Monument Rd,Fresh Grocer Shopping Center,Philadelphia,PA,19131,US,40.00268173,-75.21437073,2022-12-18 06:25:09
Dunkin,1501 N 52nd St, ,Philadelphia,PA,19131,US,39.97724533,-75.22666168,2022-12-18 06:25:09
Dunkin,5643 Ridge Ave, ,Philadelphia,PA,19128,US,40.02666473,-75.20896149,2022-12-18 06:25:09
Dunkin,151 W. Main St., ,Norristown,PA,19401,US,40.11569595,-75.34694672,2022-12-18 06:25:16
Dunkin,439 W Germantown Pike, ,Plymouth Meeting,PA,19462,US,40.11296844,-75.2857132,2022-12-18 06:25:09
Dunkin,23 E Baltimore Ave, ,Lansdowne,PA,19050,US,39.93875885,-75.27116394,2022-12-18 06:25:12
Dunkin,705 Boulevard, ,Kenilworth,NJ,07033,US,40.67713547,-74.28614807,2022-12-18 06:25:12
Dunkin,1325 Hutchinson River Pkwy,Citgo,Bronx,NY,10461,US,40.83627319,-73.83898163,2022-12-18 06:25:19
Dunkin,1320 Hutchinson River Pkwy,Citgo,Bronx,NY,10461,US,40.83633423,-73.83829498,2022-12-18 06:25:19
Dunkin,13210 14th Ave, ,College Point,NY,11356,US,40.78593826,-73.83621216,2022-12-18 06:25:09
Dunkin,13007 20th Ave,BP Gas Station,College Point,NY,11356,US,40.78197098,-73.83830261,2022-12-18 06:25:09
Dunkin,2973 E. Tremont Ave, ,Bronx,NY,10461,US,40.84088135,-73.83938599,2022-12-18 06:25:19
Dunkin,3421 E. Tremont Ave, ,Bronx,NY,10465,US,40.83294678,-73.82801819,2022-12-18 06:25:19
Dunkin,137-05 20th Ave,BJs Wholesale Club,College Point,NY,11356,US,40.78343201,-73.8307724,2022-12-18 06:25:09
Dunkin,3732 E. Tremont Ave, ,Bronx,NY,10465,US,40.82642746,-73.82215881,2022-12-18 06:25:19
Dunkin,1752 Crosby Ave, ,Bronx,NY,10461,US,40.84638596,-73.83163452,2022-12-18 06:25:17
Dunkin,1873 2nd Ave, ,New York,NY,10029,US,40.78467941,-73.94696045,2022-12-18 06:25:16
Dunkin,1703 3rd Ave, ,New York,NY,10128,US,40.78469086,-73.94963074,2022-12-18 06:25:16
Dunkin,4147 Throggs Neck Expy,BP Gas Station,Bronx,NY,10465,US,40.81996536,-73.80998993,2022-12-18 06:25:21
Dunkin,1391 Madison Ave, ,New York,NY,10029,US,40.78773117,-73.95359039,2022-12-18 06:25:16
Dunkin,2517 Parsons Blvd, ,Flushing,NY,11354,US,40.77602005,-73.82417297,2022-12-18 06:25:09
Dunkin,1029 Clintonville St, ,Whitestone,NY,11357,US,40.79219818,-73.81249237,2022-12-18 06:25:09
Dunkin,1423 150th St, ,Whitestone,NY,11357,US,40.78824234,-73.81348419,2022-12-18 06:25:09
Dunkin,1392 Lexington Avenue, ,New York,NY,10128,US,40.7830925,-73.95303345,2022-12-18 06:25:16
Dunkin,200 E 89th St, ,New York,NY,10128,US,40.7806282,-73.95250702,2022-12-18 06:25:16
Dunkin,3685 Bruckner Blvd, ,Bronx,NY,10461,US,40.85255814,-73.82730103,2022-12-18 06:25:17
Dunkin,2451 Eastchester Rd, ,Bronx,NY,10469,US,40.86238861,-73.84365845,2022-12-18 06:25:12
Dunkin,1030 154th St, ,Whitestone,NY,11357,US,40.79241943,-73.80737305,2022-12-18 06:25:09
Dunkin,47 W. Westfield Ave, ,Roselle Park,NJ,07204,US,40.66140366,-74.26592255,2022-12-18 06:25:12
Dunkin,105 W 1st Ave, ,Roselle,NJ,07203,US,40.65979767,-74.26391602,2022-12-18 06:25:12
Dunkin,3080 Boston Rd, ,Bronx,NY,10469,US,40.8706398,-73.85603333,2022-12-18 06:25:12
Dunkin,1780 E Gun Hill Rd, ,Bronx,NY,10469,US,40.86330795,-73.83435059,2022-12-18 06:25:12
Dunkin,730 Columbus Ave, ,New York,NY,10025,US,40.79239655,-73.96807861,2022-12-18 06:25:16
Dunkin,1755 Francis Lewis Blvd,Gulf Gas Station,Whitestone,NY,11357,US,40.78237152,-73.80349731,2022-12-18 06:25:09
Dunkin,1104 Lexington Ave, ,New York,NY,10075,US,40.7738266,-73.9598999,2022-12-18 06:25:16
Dunkin,763 E. Gun Hill Rd, ,Bronx,NY,10467,US,40.87666321,-73.86320496,2022-12-18 06:25:12
Dunkin,7600 Thorndike Rd, ,Greensboro,NC,27409,US,36.07697296,-79.95941925,2022-12-18 06:25:11
Dunkin,101 Clayton Forest Rd, ,Kernersville,NC,27284,US,36.08824158,-80.06369781,2022-12-18 06:25:11
Dunkin,2609 Battleground Ave, ,Greensboro,NC,27408,US,36.10695648,-79.8276062,2022-12-18 06:25:11
Dunkin,811 S Holden Rd, ,Greensboro,NC,27407,US,36.0622673,-79.84445953,2022-12-18 06:25:11
Dunkin,7815 N Point Blvd, ,Winston Salem,NC,27106,US,36.15031052,-80.27804565,2022-12-18 07:39:41
Dunkin,274 Eastchester Drive, ,High Point,NC,27262,US,35.98304749,-80.01731873,2022-12-18 06:25:11
Dunkin,2817 Reynolda Rd, ,Winston-Salem,NC,27106,US,36.14427185,-80.29908752,2022-12-18 07:39:41
Dunkin,2561 Peters Creek Pkwy, ,Winston Salem,NC,27127,US,36.06272888,-80.25795746,2022-12-18 07:39:41
Dunkin,3475 Robinhood Rd, ,Winston Salem,NC,27106,US,36.11848831,-80.31697083,2022-12-18 07:39:41
Dunkin,907 Knox Rd,Travel Center,McLeansville,NC,27301,US,36.06074142,-79.66212463,2022-12-18 06:25:11
Dunkin,2020 S Hawthorne Rd, ,Winston Salem,NC,27103,US,36.07820511,-80.29906464,2022-12-18 07:39:41
Dunkin,4811 Country Club Rd, ,Winston-Salem,NC,27104,US,36.08172607,-80.33979797,2022-12-18 07:39:41
Dunkin,3 Main St, ,Bloomfield,NY,14469,US,42.90255356,-77.42093658,2022-12-18 06:25:13
Dunkin,170 Eastern Blvd, ,Canandaigua,NY,14424,US,42.87860107,-77.26203918,2022-12-18 06:25:19
Dunkin,167 West Main St, ,Victor,NY,14564,US,42.98476791,-77.41484833,2022-12-18 06:25:13
Dunkin,1297 Route 332, ,Farmington,NY,14425,US,42.97309494,-77.35365295,2022-12-18 06:25:13
Dunkin,9475 Airport Plaza, ,Dansville,NY,14437,US,42.56840134,-77.71766663,2022-12-18 06:25:19
Dunkin,4127 State Route 96, ,Manchester,NY,14504,US,42.97493744,-77.23035431,2022-12-18 06:25:15
Dunkin,690 Pittsford Victor Rd, ,Pittsford,NY,14534,US,43.06095123,-77.47548676,2022-12-18 06:25:13
Dunkin,650 Moseley Rd, ,Fairport,NY,14450,US,43.06890106,-77.44171143,2022-12-18 06:25:13
Dunkin,203 Lake St, ,Penn Yan,NY,14527,US,42.65647888,-77.05606079,2022-12-18 06:25:19
Dunkin,1231 State Route 31, ,Macedon,NY,14502,US,43.06473541,-77.31877899,2022-12-18 06:25:13
Dunkin,57 North Main Street, ,Pittsford,NY,14534,US,43.09453583,-77.51423645,2022-12-18 06:25:09
Dunkin,1300 Jefferson Rd,Suite 400,Rochester,NY,14623,US,43.08756638,-77.59481049,2022-12-18 06:25:09
Dunkin,1311 Fairport Rd, ,Fairport,NY,14450,US,43.10132217,-77.46186066,2022-12-18 06:25:13
Dunkin,2787 Monroe Ave, ,Rochester,NY,14618,US,43.11216736,-77.54973602,2022-12-18 06:25:09
Dunkin,611 East Main St, ,Middleburg,PA,17842,US,40.78983688,-77.03430176,2022-12-18 06:25:07
Dunkin,1769 N Susquehanna Trail, ,Selinsgrove,PA,17870,US,40.83307648,-76.837883,2022-12-18 06:25:07
Dunkin,1183 N 4th St, ,Sunbury,PA,17801,US,40.87464142,-76.78433228,2022-12-18 06:25:07
Dunkin,600 N Derr Dr, ,Lewisburg,PA,17837,US,40.96995544,-76.8927002,2022-12-18 06:25:07
Dunkin,4612 Route 209, ,Elizabethville,PA,17023,US,40.55760956,-76.79270172,2022-12-18 06:25:07
Dunkin,200 W Sunbury St, ,Shamokin,PA,17872,US,40.79167557,-76.55943298,2022-12-18 07:39:41
Dunkin,627 Walnut St, ,Danville,PA,17821,US,40.96147156,-76.6084671,2022-12-18 07:39:41
Dunkin,1109 East Caswell Street,Suite 101,Wadesboro,NC,28170,US,34.96522903,-80.05924225,2022-12-18 06:25:20
Dunkin,716 NC 24/27 Byp E, ,Albemarle,NC,28001,US,35.34435654,-80.1709137,2022-12-18 06:25:14
Dunkin,1501 Broad Ave,Suite A,Rockingham,NC,28379,US,34.92089844,-79.74764252,2022-12-18 06:25:12
Dunkin,951 Ritchie Highway, ,Arnold,MD,21012,US,39.05528259,-76.52476501,2022-12-18 06:25:09
Dunkin,604 Ritchie Hwy, ,Severna Park,MD,21146,US,39.07387924,-76.54291534,2022-12-18 06:25:09
Dunkin,2004 West St, ,Annapolis,MD,21401,US,38.98231888,-76.53140259,2022-12-18 06:25:09
Dunkin,2568 Riva Rd, ,Annapolis,MD,21401,US,38.97768784,-76.55171204,2022-12-18 06:25:09
Dunkin,1900 Fairfax Rd, ,Annapolis,MD,21401,US,38.97397995,-76.52516937,2022-12-18 06:25:09
Dunkin,38 West St, ,Annapolis,MD,21401,US,38.97838974,-76.49487305,2022-12-18 06:25:09
Dunkin,3033 Solomons Island Rd., ,Edgewater,MD,21037,US,38.94281006,-76.56119537,2022-12-18 06:25:09
Dunkin,8564 Veterans Hwy,Benfield Crossing,Millersville,MD,21108,US,39.09574127,-76.62430573,2022-12-18 06:25:09
Dunkin,1342 Cape Saint Claire Rd, ,Annapolis,MD,21409,US,39.03888702,-76.43914795,2022-12-18 06:25:09
Dunkin,1336 Defense Highway, ,Gambrills,MD,21114,US,38.99332047,-76.67066956,2022-12-18 06:25:09
Dunkin,934 Bay Ridge Road, ,Annapolis,MD,21403,US,38.94936371,-76.48698425,2022-12-18 06:25:09
Dunkin,4109 Mountain Rd, ,Pasadena,MD,21122,US,39.12229919,-76.51637268,2022-12-18 06:25:09
Dunkin,1051 State Route 3 N, ,Gambrills,MD,21054,US,39.02776337,-76.68671417,2022-12-18 06:25:09
Dunkin,350 Mountain Rd,Mountain Marketplace,Pasadena,MD,21122,US,39.13057327,-76.55783844,2022-12-18 06:25:09
Dunkin,8053 Ritchie Hwy, ,Pasadena,MD,21122,US,39.1282196,-76.59100342,2022-12-18 06:25:09
Dunkin,1200 Route 3, ,Crofton,MD,21114,US,39.00920868,-76.69880676,2022-12-18 06:25:09
Dunkin,7984 Crain Hwy S, ,Glen Burnie,MD,21061,US,39.13212585,-76.63857269,2022-12-18 06:25:09
Dunkin,8743 Piney Orchard Pkwy,Piney Orchard Marketplace,Odenton,MD,21113,US,39.0662384,-76.7175827,2022-12-18 06:25:09
Dunkin,111 Kenwood Rd, ,Pasadena,MD,21122,US,39.15950775,-76.5186615,2022-12-18 06:25:09
Dunkin,6868B Race Track Rd, ,Bowie,MD,20715,US,38.98397446,-76.72966003,2022-12-18 06:25:09
Dunkin,1614 Annapolis Rd, ,Odenton,MD,21113,US,39.10482407,-76.72190857,2022-12-18 06:25:09
Dunkin,7395 Baltimore Annapolis Blvd, ,Glen Burnie,MD,21061,US,39.17166901,-76.63188934,2022-12-18 06:25:09
Dunkin,7152 Ritchie Hwy, ,Glen Burnie,MD,21061,US,39.17765045,-76.61656952,2022-12-18 06:25:09
Dunkin,6901 Laurel Bowie Rd, ,Bowie,MD,20715,US,38.98511124,-76.75695801,2022-12-18 06:25:09
Dunkin,8375 Mapes Road, ,Fort Meade,MD,20755,US,39.09803391,-76.75422668,2022-12-18 06:25:09
Dunkin,BWI Airport,BWI Airport Rd,Glen Burnie,MD,21061,US,39.17657089,-76.66954803,2022-12-18 06:25:09
Dunkin,BWI Airport,BWI Airport Rd,Glen Burnie,MD,21061,US,39.17938995,-76.66514587,2022-12-18 06:25:09
Dunkin,BWI Airport,BWI Airport Rd,Glen Burnie,MD,21061,US,39.17923737,-76.66886902,2022-12-18 06:25:09
Dunkin,6101 Highbridge Rd,Shoppes at Highbridge,Bowie,MD,20720,US,38.97332382,-76.77148438,2022-12-18 06:25:09
Dunkin,1348 Ashton Rd., ,Hanover,MD,21076,US,39.1586113,-76.70963287,2022-12-18 06:25:09
Dunkin,4829 N Broadway St, ,Knoxville,TN,37918,US,36.02614212,-83.92761993,2022-12-18 06:25:09
Dunkin,720 Merchant Dr, ,Knoxville,TN,37912,US,36.00576782,-83.97852325,2022-12-18 06:25:09
Dunkin,1527 White Ave,University of Tennessee,Knoxville,TN,37916,US,35.9588356,-83.92938995,2022-12-18 06:25:09
Dunkin,1188 Phillip Fulmer Way,Thompson Boling Arena,Knoxville,TN,37996,US,35.95545197,-83.92579651,2022-12-18 06:25:09
Dunkin,1188 Phillip Fulmer Ave,Thompson Boling Arena,Knoxville,TN,37996,US,35.95446014,-83.92404175,2022-12-18 06:25:09
Dunkin,1600 Phillip Fulmer Way,Thompson Boling Arena,Knoxville,TN,37996,US,35.95096588,-83.92539215,2022-12-18 06:25:09
Dunkin,4466 Western Ave, ,Knoxville,TN,37921,US,35.97244263,-83.98780823,2022-12-18 06:25:09
Dunkin,2303 Andersonville Highway, ,Clinton,TN,37716,US,36.16572571,-84.08499908,2022-12-18 06:25:09
Dunkin,7114 Kingston Pike, ,Knoxville,TN,37919,US,35.93064499,-84.02606201,2022-12-18 06:25:09
Dunkin,401 N Cedar Bluff Rd, ,Knoxville,TN,37923,US,35.92367554,-84.09431458,2022-12-18 06:25:09
Dunkin,10631 Hardin Valley Rd, ,Knoxville,TN,37932,US,35.95132446,-84.15574646,2022-12-18 06:25:09
Dunkin,9411 Northshore Dr, ,Knoxville,TN,37922,US,35.86369324,-84.06445312,2022-12-18 06:25:09
Dunkin,12401 Shelbyville Rd, ,Louisville,KY,40243,US,38.24633789,-85.52602386,2022-12-18 06:25:11
Dunkin,9913 Brownsboro Rd, ,Louisville,KY,40241,US,38.31502533,-85.56368256,2022-12-18 06:25:11
Dunkin,1530 Midland Trail, ,Shelbyville,KY,40065,US,38.21228027,-85.23778534,2022-12-18 06:25:11
Dunkin,3333 Newburg Rd, ,Louisville,KY,40218,US,38.20019913,-85.6848526,2022-12-18 06:25:11
Dunkin,2711 E 10th St, ,Jeffersonville,IN,47130,US,38.31730652,-85.71580505,2022-12-18 06:25:11
Dunkin,205 Pendleton Rd, ,Pendleton,KY,40055,US,38.45446777,-85.29718018,2022-12-18 06:25:11
Dunkin,140 Shadowmeade Ln, ,Mount Washington,KY,40047,US,38.0587616,-85.54203033,2022-12-18 06:25:11
Dunkin,5201 Preston Highway, ,Louisville,KY,40213,US,38.17327881,-85.71078491,2022-12-18 06:25:11
Dunkin,2815 Fern Valley Rd, ,Louisville,KY,40213,US,38.15756989,-85.71283722,2022-12-18 06:25:11
Dunkin,320 S 4th St, ,Louisville,KY,40202,US,38.25317383,-85.75725555,2022-12-18 06:25:11
Dunkin,3012 Saint Joe Rd, ,New Albany,IN,47150,US,38.34685516,-85.79840851,2022-12-18 06:25:11
Dunkin,4601 Dixie Hwy, ,Shively,KY,40216,US,38.17768478,-85.81894684,2022-12-18 06:25:11
Dunkin,1313 National Hwy, ,LaVale,MD,21502,US,39.6378212,-78.8468399,2022-12-18 06:25:20
Dunkin,8410 Hampton Blvd, ,Norfolk,VA,23505,US,36.92986298,-76.31742859,2022-12-18 07:39:41
Dunkin,3277 Western Branch Blvd, ,Chesapeake,VA,23321,US,36.86510086,-76.41087341,2022-12-07 05:32:45
Dunkin,3112 Western Branch Boulevard, ,Chesapeake,VA,23321,US,36.86246872,-76.40057373,2022-12-18 07:39:41
Dunkin,3901 Hampton Blvd, ,Norfolk,VA,23508,US,36.88076782,-76.30241394,2022-12-18 07:39:41
Dunkin,2300 E. Little Creek Rd, ,Norfolk,VA,23518,US,36.91607285,-76.21975708,2022-12-18 07:39:41
Dunkin,4345 S Telegraph Rd, ,Dearborn Heights,MI,48125,US,42.27838135,-83.27029419,2022-12-18 07:39:41
Dunkin,24235 Michigan Ave, ,Dearborn,MI,48124,US,42.29882431,-83.27425385,2022-12-18 07:39:41
Dunkin,16950 Southfield Rd, ,Allen Park,MI,48101,US,42.26390839,-83.21911621,2022-12-18 07:39:41
Dunkin,11111 Telegraph Rd, ,Taylor,MI,48180,US,42.22543716,-83.26855469,2022-12-18 07:39:41
Dunkin,16100 Northline Road, ,Southgate,MI,48195,US,42.21372223,-83.21929169,2022-12-18 07:39:41
Dunkin,4005 Dix Hwy, ,Lincoln Park,MI,48146,US,42.22566605,-83.19406128,2022-12-18 07:39:41
Dunkin,12951 Michigan Ave, ,Dearborn,MI,48126,US,42.32371902,-83.16976929,2022-12-18 07:39:41
Dunkin,9406 Telegraph Rd, ,Redford,MI,48239,US,42.3637352,-83.27494812,2022-12-18 07:39:41
Dunkin,14791 Eureka Rd, ,Southgate,MI,48195,US,42.19878387,-83.20423126,2022-12-18 07:39:41
Dunkin,1625 S Wayne Rd, ,Westland,MI,48186,US,42.29675674,-83.38808441,2022-12-18 07:39:41
Dunkin,34417 Ford Rd, ,Westland,MI,48185,US,42.32432938,-83.37969971,2022-12-18 07:39:41
Dunkin,21980 Sibley Rd, ,Brownstown,MI,48192,US,42.17082977,-83.24658203,2022-12-18 07:39:41
Dunkin,215 Eureka Rd, ,Wyandotte,MI,48192,US,42.19970322,-83.15184784,2022-12-18 07:39:41
Dunkin,34899 Plymouth Rd, ,Livonia,MI,48150,US,42.36675262,-83.38560486,2022-12-18 07:39:41
Dunkin,20050 West Rd, ,Woodhaven,MI,48183,US,42.14092636,-83.22721863,2022-12-18 07:39:41
Dunkin,41511 Ford Rd, ,Canton,MI,48188,US,42.32247543,-83.45051575,2022-12-18 07:39:41
Dunkin,39600 E Ann Arbor Rd, ,Plymouth,MI,48170,US,42.3597374,-83.43250275,2022-12-18 07:39:41
Dunkin,27050 Telegraph Road, ,Flat Rock,MI,48134,US,42.10870361,-83.28606415,2022-12-18 07:39:41
Dunkin,3980 John R St, ,Detroit,MI,48201,US,42.35185623,-83.05565643,2022-12-18 07:39:41
Dunkin,10954 Belleville Rd, ,Belleville,MI,48111,US,42.22273254,-83.48605347,2022-12-18 07:39:41
Dunkin,1200 S Antoine Street, ,Detroit,MI,48226,US,42.33603668,-83.0409317,2022-12-18 07:39:41
Dunkin,555 East Lafayette Ave., ,Detroit,MI,48226,US,42.33638382,-83.04032898,2022-12-18 07:39:41
Dunkin,15109 Woodward Ave, ,Highland Park,MI,48203,US,42.40980148,-83.10064697,2022-12-18 07:39:41
Dunkin,242 E Union St, ,Newark,NY,14513,US,43.04708862,-77.08968353,2022-12-18 06:25:19
Dunkin,544 E Main St, ,Palmyra,NY,14522,US,43.06317139,-77.2237854,2022-12-18 06:25:13
Dunkin,6250 Furnace Rd, ,Ontario,NY,14519,US,43.22672653,-77.28164673,2022-12-18 06:25:13
Dunkin,1873 Route 104, ,Ontario,NY,14519,US,43.22789764,-77.28959656,2022-12-18 06:25:13
Dunkin,3475 Route 370,Sunoco Gas Station,Cato,NY,13033,US,43.16815948,-76.51103973,2022-12-18 06:25:14
Dunkin,9032 N Seneca St, ,Weedsport,NY,13166,US,43.05496216,-76.55818939,2022-12-18 06:25:11
Dunkin,2014 Route 5 and 20, ,Seneca Falls,NY,13148,US,42.90306091,-76.83026886,2022-12-18 06:25:19
Dunkin,477 Hamilton St, ,Geneva,NY,14456,US,42.85686111,-77.00387573,2022-12-18 06:25:19
Dunkin,1578 Clark Street Rd, ,Auburn,NY,13021,US,42.92760468,-76.61164093,2022-12-18 06:25:11
Dunkin,102 N Central Ave,Suite 102,Phoenix,AZ,85004,US,33.44961929,-112.07420349,2022-12-18 06:25:07
Dunkin,2345 W. Thomas Rd, ,Phoenix,AZ,85015,US,33.48038864,-112.10996246,2022-12-18 06:25:07
Dunkin,2322 E. Thomas Rd, ,Phoenix,AZ,85016,US,33.48040009,-112.03153992,2022-12-18 06:25:07
Dunkin,1909 W Baseline Rd, ,Phoenix,AZ,85041,US,33.37750244,-112.10070801,2022-12-18 06:25:07
Dunkin,2131 E Camelback Rd,Ste 100,Phoenix,AZ,85016,US,33.50920868,-112.03452301,2022-12-18 06:25:07
Dunkin,2420 W. Bethany Home Rd,Suite 129,Phoenix,AZ,85015,US,33.52463913,-112.11064911,2022-12-18 06:25:07
Dunkin,Phoenix Sky Harbor Airport,3800 E Sky Harbor Boulevard,Phoenix,AZ,85034,US,33.43553162,-111.99757385,2022-12-18 06:25:07
Dunkin,1543 E Bethany Home Rd, ,Phoenix,AZ,85014,US,33.52373123,-112.04749298,2022-12-18 06:25:07
Dunkin,4130 E. Thomas Rd, ,Phoenix,AZ,85018,US,33.48054886,-111.99253845,2022-12-18 06:25:07
Dunkin,1025 N 67th Ave,Suite 5,Phoenix,AZ,85043,US,33.45903778,-112.20297241,2022-12-18 06:25:07
Dunkin,3315 E Baseline, ,Phoenix,AZ,85042,US,33.37769318,-112.01024628,2022-12-18 06:25:07
Dunkin,5225 W Baseline Rd,Suite 101,Laveen,AZ,85339,US,33.37701035,-112.17113495,2022-12-18 06:25:07
Dunkin,1931 W. Northern Ave, ,Phoenix,AZ,85021,US,33.55297089,-112.10105896,2022-12-18 06:25:07
Dunkin,1335 W. University Dr,Suite 11,Tempe,AZ,85281,US,33.42105484,-111.960495,2022-12-18 06:25:07
Dunkin,5143 W Olive Ave, ,Glendale,AZ,85302,US,33.56743622,-112.16969299,2022-12-18 06:25:11
Dunkin,1811 N. Scottsdale Rd,Bldg C,Tempe,AZ,85281,US,33.44913101,-111.92645264,2022-12-18 06:25:07
Dunkin,8325 West Camelback Road, ,Glendale,AZ,85033,US,33.50907135,-112.23944855,2022-12-18 06:25:11
Dunkin,9140 W. Thomas Rd,Suite B 101,Phoenix,AZ,85037,US,33.4799881,-112.25739288,2022-12-18 06:25:11
Dunkin,6375 S Kyrene Rd, ,Tempe,AZ,85283,US,33.36410141,-111.94524384,2022-12-18 06:25:07
Dunkin,4715 S Rural Rd, ,Tempe,AZ,85282,US,33.37997818,-111.92786407,2022-12-18 06:25:07
Dunkin,1615 N 99th Ave, ,Phoenix,AZ,85037,US,33.46533585,-112.27189636,2022-12-18 06:25:11
Dunkin,7919 E Thomas Rd, ,Scottsdale,AZ,85251,US,33.4800148,-111.91000366,2022-12-18 06:25:07
Dunkin,1740 E Broadway Rd, ,Tempe,AZ,85282,US,33.40797043,-111.91081238,2022-12-18 06:25:07
Dunkin,1342 W Warner Rd,Ste 101,Tempe,AZ,85284,US,33.33498001,-111.96216583,2022-12-18 06:25:07
Dunkin,678 E Thunderbird Rd, ,Phoenix,AZ,85022,US,33.60779572,-112.0655365,2022-12-18 06:25:07
Dunkin,3137 E Cactus Rd, ,Phoenix,AZ,85032,US,33.59661484,-112.01415253,2022-12-18 06:25:07
Dunkin,4923 E Chandler Blvd, ,Phoenix,AZ,85048,US,33.30477142,-111.97754669,2022-12-18 06:25:07
Dunkin,13887 N 59th Ave, ,Glendale,AZ,85306,US,33.61213303,-112.18540192,2022-12-18 06:25:11
Dunkin,5800 W Chandler Blvd, ,Chandler,AZ,85226,US,33.30579758,-111.94223785,2022-12-18 06:25:07
Dunkin,1830 E Warner Rd, ,Tempe,AZ,85284,US,33.33510208,-111.90929413,2022-12-18 06:25:07
Dunkin,1401 West Princeton Drive, ,Princeton,TX,75407,US,33.17948151,-96.52474976,2022-12-18 06:25:15
Dunkin,3805 W University Dr,Suite 500,McKinney,TX,75071,US,33.21692657,-96.66447449,2022-12-18 06:25:15
Dunkin,3201 W Eldorado Pkwy, ,McKinney,TX,75070,US,33.16733551,-96.66612244,2022-12-18 06:25:15
Dunkin,116 S Custer Rd, ,McKinney,TX,75070,US,33.20245361,-96.73363495,2022-12-18 06:25:15
Dunkin,1921 N Preston Rd,Ste 10,Prosper,TX,75078,US,33.25944519,-96.7854538,2022-12-18 06:25:15
Dunkin,8445 Preston Rd, ,Frisco,TX,75034,US,33.14707184,-96.80529022,2022-12-18 06:25:12
Dunkin,2155 West University Dr., ,Frisco,TX,75033,US,33.21852112,-96.87190247,2022-12-18 06:25:15
Dunkin,7212 Independence Pkwy,Ste B,Plano,TX,75025,US,33.07424545,-96.74980164,2022-12-18 06:25:11
Dunkin,313 E FM 544,Suite 101,Murphy,TX,75094,US,33.01177216,-96.60258484,2022-12-18 06:25:15
Dunkin,2875 Main St, ,Frisco,TX,75034,US,33.15262604,-96.86534119,2022-12-18 06:25:11
Dunkin,18100 Village Mart Dr, ,Olney,MD,20832,US,39.15240479,-77.06454468,2022-12-18 07:39:41
Dunkin,17920 Georgia Ave, ,Olney,MD,20832,US,39.15085602,-77.06712341,2022-12-18 07:39:41
Dunkin,12210 Clarksville Pike, ,Clarksville,MD,21029,US,39.21277618,-76.93717194,2022-12-18 07:39:41
Dunkin,15509 New Hampshire Ave, ,Silver Spring,MD,20905,US,39.11033249,-76.99562836,2022-12-18 07:39:41
Dunkin,14328 Layhill Road, ,Silver Spring,MD,20906,US,39.09143066,-77.04589081,2022-12-18 07:39:41
Dunkin,15640 Old Columbia Pike, ,Burtonsville,MD,20866,US,39.11311722,-76.93356323,2022-12-18 07:39:41
Dunkin,8305 Ice Crystal Dr, ,Scaggsville,MD,20723,US,39.14403534,-76.897789,2022-12-18 07:39:41
Dunkin,7530 Montpelier Rd,Montpelier Retail Ctr,Laurel,MD,20723,US,39.15998077,-76.89149475,2022-12-18 07:39:41
Dunkin,13424 New Hampshire Ave, ,Silver Spring,MD,20904,US,39.07680893,-77.0021286,2022-12-18 07:39:41
Dunkin,5485 Harpers Farm Rd, ,Columbia,MD,21044,US,39.22211456,-76.88949585,2022-12-18 07:39:41
Dunkin,13874 Georgia Ave, ,Silver Spring,MD,20906,US,39.08179855,-77.07749176,2022-12-18 07:39:41
Dunkin,18558 Woodfield Rd, ,Gaithersburg,MD,20879,US,39.16166687,-77.15950012,2022-12-18 07:39:41
Dunkin,13810 Connecticut Ave, ,Aspen Hill,MD,20906,US,39.08090973,-77.08091736,2022-12-18 07:39:41
Dunkin,13804 Outlet Dr, ,Silver Spring,MD,20904,US,39.08272552,-76.94672394,2022-12-18 07:39:41
Dunkin,10430 Shaker Dr,Ste 100,Columbia,MD,21046,US,39.18515015,-76.87084961,2022-12-18 07:39:41
Dunkin,14801 Southlawn Ln, ,Rockville,MD,20850,US,39.09772491,-77.13581085,2022-12-18 07:39:41
Dunkin,10300 Little Patuxent Pkwy, ,Columbia,MD,21044,US,39.21475601,-76.86022949,2022-12-18 07:39:41
Dunkin,2006 Veirs Mill Rd,Twinbrook Shopping Center,Rockville,MD,20851,US,39.07581711,-77.11612701,2022-12-18 07:39:41
Dunkin,12800 Frederick Road, ,West Friendship,MD,21794,US,39.30354691,-76.95541382,2022-12-18 07:39:41
Dunkin,15180 Frederick Rd, ,Rockville,MD,20850,US,39.1040535,-77.1570282,2022-12-18 07:39:41
Dunkin,12200 Viers Mill Rd, ,Silver Spring,MD,20906,US,39.0561409,-77.0832901,2022-12-18 07:39:41
Dunkin,7106 Minstrel Way, ,Columbia,MD,21045,US,39.17778778,-76.84342194,2022-12-18 07:39:41
Dunkin,5880 Robert Oliver Place, ,Columbia,MD,21045,US,39.21008682,-76.84677124,2022-12-18 07:39:41
Dunkin,16268 Frederick Road, ,Gaithersburg,MD,20877,US,39.12149811,-77.17788696,2022-12-18 07:39:41
Dunkin,14600 Frederick Rd, ,Cooksville,MD,21723,US,39.32083511,-77.01960754,2022-12-18 07:39:41
Dunkin,700 Gaither Rd, ,Rockville,MD,20850,US,39.11028671,-77.17467499,2022-12-18 06:25:09
Dunkin,865 Rockville Pike, ,Rockville,MD,20852,US,39.0745163,-77.13681793,2022-12-18 07:39:41
Dunkin,2405 Reedie Dr, ,Wheaton,MD,20902,US,39.03879929,-77.05126953,2022-12-18 07:39:41
Dunkin,1800 Rockville Pike, ,Rockville,MD,20852,US,39.05990219,-77.12168121,2022-12-18 07:39:41
Dunkin,11140 New Hampshire Ave, ,Silver Spring,MD,20904,US,39.03743362,-76.99020386,2022-12-18 07:39:41
Dunkin,440 Veterans Blvd, ,Carlstadt,NJ,07072,US,40.82294464,-74.06097412,2022-12-18 06:25:12
Dunkin,758 Paterson Plank Rd,Citgo,East Rutherford,NJ,07073,US,40.82838058,-74.08117676,2022-12-18 06:25:09
Dunkin,One Metlife Stadium Dr,Metlife Stadium,E Rutherford,NJ,07073,US,40.81307983,-74.07834625,2022-12-18 06:25:12
Dunkin,One Metlife Stadium Dr,Metlife Stadium,E Rutherford,NJ,07073,US,40.81307983,-74.07834625,2022-12-18 06:25:12
Dunkin,1 American Dream Way,American Dream Mall,East Rutherford,NJ,07073,US,40.8091774,-74.06948853,2022-12-18 06:25:12
Dunkin,430 Route 17, ,Carlstadt,NJ,07072,US,40.8352623,-74.08642578,2022-12-18 06:25:09
Dunkin,NJTP MM 116, ,Carlstadt,NJ,07072,US,40.82391739,-74.03009033,2022-12-18 06:25:12
Dunkin,300 Route 17,BJ's Wholesale Club,East Rutherford,NJ,07073,US,40.82413101,-74.09658813,2022-12-18 06:25:09
Dunkin,20 Meadowlands Pky, ,Secaucus,NJ,07094,US,40.7976265,-74.0654068,2022-12-18 06:25:17
Dunkin,131-147 Rte 17 N,Lukoil,Rutherford,NJ,07070,US,40.82030869,-74.10048676,2022-12-18 06:25:12
Dunkin,56 Park Ave, ,Rutherford,NJ,07070,US,40.82783127,-74.10329437,2022-12-18 06:25:09
Dunkin,429 Us Highway 46, ,Little Ferry,NJ,07643,US,40.85620117,-74.04975128,2022-12-18 06:25:09
Dunkin,1351 Paterson Plank Rd, ,Secaucus,NJ,07094,US,40.79215622,-74.05857849,2022-12-18 06:25:17
Dunkin,343 State Rt 17, ,Hasbrouck Heights,NJ,07604,US,40.86174774,-74.0662384,2022-12-18 06:25:09
Dunkin,443 Paterson Ave, ,Wallington,NJ,07057,US,40.84257889,-74.10443878,2022-12-18 06:25:09
Dunkin,250 Bergen Tpke, ,Little Ferry,NJ,07643,US,40.85577011,-74.03449249,2022-12-18 06:25:09
Dunkin,2100 88th St,BJs Wholesale Club,North Bergen,NJ,07047,US,40.81306839,-74.01624298,2022-12-18 06:25:18
Dunkin,7401 Tonnelle Ave, ,North Bergen,NJ,07047,US,40.80392456,-74.0196228,2022-12-18 06:25:20
Dunkin,310 Union Ave, ,Rutherford,NJ,07070,US,40.83678818,-74.11343384,2022-12-18 06:25:09
Dunkin,470 Broad Ave, ,Ridgefield,NJ,07657,US,40.83203888,-74.0099411,2022-12-18 06:25:12
Dunkin,209 Main St, ,Ridgefield Park,NJ,07660,US,40.85731506,-74.02487183,2022-12-18 06:25:09
Dunkin,700 Plaza Dr, ,Secaucus,NJ,07094,US,40.78562546,-74.04566956,2022-12-18 06:25:18
Dunkin,699 Avalon Dr, ,Wood Ridge,NJ,07075,US,40.86343384,-74.09172821,2022-12-18 06:25:09
Dunkin,435 Boulevard, ,Hasbrouck Heights,NJ,07604,US,40.86955261,-74.07085419,2022-12-18 06:25:09
Dunkin,6903 Kennedy Blvd, ,North Bergen,NJ,07047,US,40.7973671,-74.01547241,2022-12-18 06:25:18
Dunkin,222 Bergen Blvd, ,Fairview,NJ,07022,US,40.81887436,-74.00079346,2022-12-18 06:25:18
Dunkin,4108 Tonnelle Ave, ,North Bergen,NJ,07047,US,40.78246689,-74.03496552,2022-12-18 06:25:18
Dunkin,425 Valley Brook Ave, ,Lyndhurst,NJ,07071,US,40.81160736,-74.12368011,2022-12-18 06:25:15
Dunkin,9001 Bergenline Ave, ,North Bergen,NJ,07047,US,40.80858994,-74.0020752,2022-12-18 06:25:18
Dunkin,87 River Dr, ,Garfield,NJ,07026,US,40.86373901,-74.10575104,2022-12-18 06:25:09
Dunkin,3526 Richland Ave W, ,Aiken,SC,29801,US,33.56435776,-81.76383209,2022-12-18 06:25:12
Dunkin,1909B Whiskey Rd,Suite B,Aiken,SC,29803,US,33.5222435,-81.71931458,2022-12-18 06:25:12
Dunkin,574 Bettis Academy Rd, ,Graniteville,SC,29829,US,33.60520172,-81.84312439,2022-12-18 06:25:12
Dunkin,1014 Edgefield Rd, ,North Augusta,SC,29860,US,33.56916046,-81.93862915,2022-12-18 06:25:12
Dunkin,1640 Walton Way, ,Augusta,GA,30904,US,33.47536087,-81.99487305,2022-12-18 06:25:14
Dunkin,3024 Washington Rd, ,Augusta,GA,30907,US,33.51208496,-82.0462265,2022-12-18 06:25:14
Dunkin,2930 Peach Orchard Rd, ,Augusta,GA,30906,US,33.41680145,-82.02323914,2022-12-18 06:25:14
Dunkin,498 Furys Ferry Rd,Suite One,Martinez,GA,30907,US,33.53648758,-82.07913971,2022-12-18 06:25:14
Dunkin,3668 Wheeler Rd,Ste A,Augusta,GA,30909,US,33.4825592,-82.0932312,2022-12-18 06:25:14
Dunkin,1326 West Anaheim St, ,Los Angeles,CA,90744,US,33.77883148,-118.27926636,2022-12-18 07:39:41
Dunkin,3861 N Lakewood Blvd,Suite 100,Long Beach,CA,90808,US,33.83015823,-118.14304352,2022-12-18 07:39:41
Dunkin,5560 E 7th St, ,Long Beach,CA,90804,US,33.77511215,-118.12327576,2022-12-18 07:39:41
Dunkin,14215 Whittier Blvd, ,Whittier,CA,90605,US,33.95650864,-118.02045441,2022-12-18 07:39:41
Dunkin,15482 Goldenwest St, ,Westminster,CA,92683,US,33.73757172,-118.00671387,2022-12-18 07:39:41
Dunkin,288 Oakwood Road, ,Charleston,WV,25314,US,38.34189224,-81.66394043,2022-12-18 06:25:16
Dunkin,35 Davis St, ,Fayetteville,WV,25840,US,38.05711746,-81.10417938,2022-12-18 06:25:14
Dunkin,932 Cross Lanes Dr, ,Cross Lanes,WV,25313,US,38.42023849,-81.79176331,2022-12-18 06:25:16
Dunkin,8406 Little Rd, ,New Port Richey,FL,34654,US,28.27936745,-82.67479706,2022-12-18 06:25:16
Dunkin,9322 State Road 52,Suite A,Hudson,FL,34669,US,28.33070564,-82.66024017,2022-12-18 06:25:16
Dunkin,11409 Us Highway 19, ,Port Richey,FL,34668,US,28.32289124,-82.69966888,2022-12-18 06:25:16
Dunkin,5421 Little Rd,Unit 100,New Port Richey,FL,34655,US,28.23680496,-82.67097473,2022-12-18 06:25:16
Dunkin,16055 State Road 52, ,Land O Lakes,FL,34638,US,28.33134651,-82.54773712,2022-12-18 06:25:13
Dunkin,8419 US Highway 19, ,Port Richey,FL,34668,US,28.27998352,-82.71826935,2022-12-18 06:25:16
Dunkin,7635 State Road #54, ,New Port Richey,FL,34653,US,28.21747017,-82.68804932,2022-12-18 06:25:12
Dunkin,10829 State Road 54,Ste 101,New Port Richey,FL,34655,US,28.19385719,-82.63523865,2022-12-18 06:25:12
Dunkin,5524 Us Highway 19, ,New Port Richey,FL,34652,US,28.23974228,-82.7274704,2022-12-18 06:25:16
Dunkin,13260 State Road 54, ,Odessa,FL,33556,US,28.19307899,-82.5957489,2022-12-18 06:25:13
Dunkin,16737 US Hwy 19, ,Hudson,FL,34667,US,28.40086746,-82.65937042,2022-12-18 06:25:17
Dunkin,17852 Aprile Dr, ,Lutz,FL,33558,US,28.19533157,-82.52087402,2022-12-18 06:25:13
Dunkin,7044 Land O Lakes Blvd, ,Land O Lakes,FL,34638,US,28.26063347,-82.47457886,2022-12-18 06:25:13
Dunkin,2409 Us Highway 19, ,Holiday,FL,34691,US,28.19396782,-82.74056244,2022-12-18 06:25:12
Dunkin,10455 County Line Rd, ,Spring Hill,FL,34609,US,28.4344902,-82.54345703,2022-12-18 06:25:13
Dunkin,1362 Commercial Way, ,Spring Hill,FL,34606,US,28.45354271,-82.62958527,2022-12-18 06:25:13
Dunkin,17691 Gunn Highway, ,Odessa,FL,33556,US,28.12866783,-82.57449341,2022-12-18 06:25:12
Dunkin,11046 Spring Hill Dr, ,Spring Hill,FL,34608,US,28.46060562,-82.54255676,2022-12-18 06:25:13
Dunkin,19130 North Dale Mabry Hwy, ,Lutz,FL,33548,US,28.1572094,-82.48503113,2022-12-18 06:25:13
Dunkin,40076 US Highway 19 N, ,Tarpon Springs,FL,34689,US,28.1362915,-82.74066162,2022-12-18 06:25:12
Dunkin,1143 S Pinellas Ave, ,Tarpon Springs,FL,34689,US,28.13698387,-82.75589752,2022-12-18 06:25:12
Dunkin,22722 State Road 54, ,Lutz,FL,33549,US,28.18535805,-82.44007874,2022-12-18 06:25:13
Dunkin,4471 Commercial Way, ,Spring Hill,FL,34606,US,28.49464035,-82.5969696,2022-12-18 06:25:13
Dunkin,2663 E Lake Rd, ,Palm Harbor,FL,34685,US,28.09073639,-82.69758606,2022-12-18 06:25:11
Dunkin,4287 Mariner Blvd,Suite 101,Spring Hill,FL,34609,US,28.49387169,-82.53960419,2022-12-18 06:25:13
Dunkin,14314 Spring Hill Dr, ,Spring Hill,FL,34609,US,28.47638893,-82.48843384,2022-12-18 06:25:13
Dunkin,17514 US Highway 41, ,Lutz,FL,33549,US,28.12522507,-82.46340942,2022-12-18 06:25:13
Dunkin,5227 Ehrlich Rd, ,Tampa,FL,33624,US,28.08512115,-82.53852844,2022-12-18 06:25:12
Dunkin,12941 Race Track Rd, ,Tampa,FL,33626,US,28.06816483,-82.63367462,2022-12-18 06:25:11
Dunkin,33240 US Highway 19 N, ,Palm Harbor,FL,34684,US,28.07431984,-82.73930359,2022-12-18 06:25:11
Dunkin,6093 Saratoga Blvd,Suite A,Corpus Christi,TX,78414,US,27.68009567,-97.37395477,2022-12-16 15:27:53
Dunkin,6510 Weber Road, ,Corpus Christi,TX,78413,US,27.69864464,-97.41261292,2022-12-16 15:27:53
Dunkin,1629 South Main Street, ,Chelsea,MI,48118,US,42.29656219,-84.02540588,2022-12-18 07:39:41
Dunkin,608 S. Hewitt Rd, ,Ypsilanti,MI,48197,US,42.23045731,-83.64427185,2022-12-18 07:39:41
Dunkin,3864 Mount Hope Rd, ,Grass Lake,MI,49240,US,42.28837967,-84.20484161,2022-12-18 06:25:19
Dunkin,215 Hillcrest Pkwy, ,Chesapeake,VA,23322,US,36.65595627,-76.23164368,2022-12-18 06:25:09
Dunkin,383 Caratoke Highway,Suite A,Moyock,NC,27958,US,36.5332756,-76.18463135,2022-12-18 06:25:09
Dunkin,1444 Mt Pleasant Rd, ,Chesapeake,VA,23322,US,36.71525574,-76.18601227,2022-12-18 06:25:09
Dunkin,1100 Cedar Rd, ,Chesapeake,VA,23322,US,36.71369934,-76.27922058,2022-12-18 07:39:41
Dunkin,1435 Battlefield Blvd N, ,Chesapeake,VA,23320,US,36.7681694,-76.25164032,2022-12-18 07:39:41
Dunkin,1108 Volvo Pkwy,Ste 100,Chesapeake,VA,23320,US,36.76948547,-76.22157288,2022-12-18 07:39:41
Dunkin,6119 Indian River Rd, ,Virginia Beach,VA,23464,US,36.81306839,-76.20736694,2022-12-18 07:39:41
Dunkin,4701 George Washington Hwy, ,Portsmouth,VA,23702,US,36.79735184,-76.32552338,2022-12-18 07:39:41
Dunkin,4540 Princess Anne Rd, ,Virginia Beach,VA,23462,US,36.80500031,-76.13301086,2022-12-18 07:39:41
Dunkin,5284 Providence Rd, ,Virginia Beach,VA,23464,US,36.81451035,-76.1703949,2022-12-18 07:39:41
Dunkin,1336 Poindexter St, ,Chesapeake,VA,23324,US,36.81877136,-76.27268982,2022-12-18 07:39:41
Dunkin,3900 Holland Rd, ,Virginia Beach,VA,23452,US,36.81658936,-76.10944366,2022-12-18 06:25:09
Dunkin,5600 Princess Anne Rd, ,Virginia Beach,VA,23462,US,36.83800125,-76.1798172,2022-12-18 07:39:41
Dunkin,3014 Turnpike Rd,Ste 200,Portsmouth,VA,23707,US,36.82606125,-76.33805847,2022-12-18 07:39:41
Dunkin,841 N Military Hwy, ,Norfolk,VA,23502,US,36.85216522,-76.21058655,2022-12-18 07:39:41
Dunkin,3529 Virginia Beach Blvd, ,Virginia Beach,VA,23452,US,36.84064865,-76.09487915,2022-12-18 07:39:41
Dunkin,627 Independence Blvd, ,Virginia Beach,VA,23462,US,36.85513687,-76.13566589,2022-12-18 07:39:41
