company_name,address_line_1,address_line_2,city,state_alpha,postal_code,country_code,latitude,longitude,when_verified
Jack in the Box,1110 C St,,San Diego,CA,92101,US,32.71696854,-117.15446472,2022-12-18 06:25:21
Jack in the Box,1619 Pacific Hwy,,San Diego,CA,92101,US,32.72232437,-117.17075348,2022-12-18 06:25:21
Jack in the Box,2404 Market St,,San Diego,CA,92102,US,32.7118988,-117.1421051,2022-12-18 06:25:21
Jack in the Box,804 University Ave,,San Diego,CA,92103,US,32.74868393,-117.15723419,2022-12-18 06:25:21
Jack in the Box,220 W Washington St,,San Diego,CA,92103,US,32.75020218,-117.16536713,2022-12-18 06:25:21
Jack in the Box,2959 Upas St,,San Diego,CA,92104,US,32.74084854,-117.1301651,2022-12-18 06:25:21
Jack in the Box,2890 El Cajon Blvd,,San Diego,CA,92104,US,32.75566864,-117.13168335,2022-12-18 06:25:21
Jack in the Box,2890 National Ave,,San Diego,CA,92113,US,32.69616699,-117.13202667,2022-12-18 06:25:21
Jack in the Box,7740 Hazard Center Dr,,San Diego,CA,92108,US,32.77112198,-117.1552887,2022-12-18 06:25:21
Jack in the Box,4075 University Ave,,San Diego,CA,92105,US,32.74943542,-117.1074295,2022-12-18 06:25:21
Jack in the Box,3238 Guadalcanal Rd,,Coronado,CA,92118,US,32.67594147,-117.1609726,2022-12-18 06:25:21
Jack in the Box,1350 S 43rd St,,San Diego,CA,92113,US,32.69225693,-117.10285187,2022-12-18 06:25:21
Jack in the Box,1636 Euclid Ave,,San Diego,CA,92105,US,32.72206497,-117.08540344,2022-12-18 06:25:21
Jack in the Box,3838 Midway Dr,,San Diego,CA,92110,US,32.75452042,-117.21847534,2022-12-18 06:25:21
Jack in the Box,4751 El Cajon Blvd,,San Diego,CA,92115,US,32.75579834,-117.09185791,2022-12-18 06:25:21
Jack in the Box,7170 Linda Vista Rd,,San Diego,CA,92111,US,32.78985214,-117.16802216,2022-12-18 06:25:21
Jack in the Box,1340 Rosecrans St,,San Diego,CA,92106,US,32.72433853,-117.22988892,2022-12-18 06:25:21
Jack in the Box,700 Roosevelt Ave,,National City,CA,91950,US,32.67618179,-117.10860443,2022-12-18 06:25:21
Jack in the Box,6080 Mission Gorge Rd,,San Diego,CA,92120,US,32.78468704,-117.09812927,2022-12-16 15:27:44
Jack in the Box,1745 Highland Ave,,National City,CA,91950,US,32.66988754,-117.09526062,2022-12-18 06:25:21
Jack in the Box,780 E Flamingo Rd,,Las Vegas,NV,89119,US,36.11502457,-115.14697266,2022-12-18 06:25:15
Jack in the Box,3235 W Tropicana Ave,,Las Vegas,NV,89103,US,36.10027313,-115.18419647,2022-12-18 06:25:19
Jack in the Box,4866 S Maryland Pkwy,,Las Vegas,NV,89119,US,36.10175323,-115.1364975,2022-12-18 06:25:15
Jack in the Box,2550 S Maryland Pkwy,,Las Vegas,NV,89109,US,36.14281082,-115.13647461,2022-12-18 06:25:15
Jack in the Box,4970 Spring Mountain Rd,,Las Vegas,NV,89146,US,36.12659073,-115.2090683,2022-12-18 06:25:21
Jack in the Box,4860 S Decatur Blvd,,Las Vegas,NV,89103,US,36.10166168,-115.20748138,2022-12-18 06:25:19
Jack in the Box,1591 S Main St,,Las Vegas,NV,89104,US,36.15241241,-115.15366364,2022-12-16 15:27:42
Jack in the Box,6150 Las Vegas Blvd S,,Las Vegas,NV,89119,US,36.07447433,-115.17341614,2022-12-18 06:25:15
Jack in the Box,2301 S Decatur Blvd,,Las Vegas,NV,89102,US,36.14579391,-115.20750427,2022-12-18 06:25:21
Jack in the Box,2970 E Desert Inn Rd,,Las Vegas,NV,89121,US,36.13011169,-115.11021423,2022-12-18 06:25:15
Jack in the Box,2780 Fremont St,,Las Vegas,NV,89104,US,36.15430832,-115.11215973,2022-12-18 06:25:15
Jack in the Box,3703 E Flamingo Rd,,Las Vegas,NV,89121,US,36.1149559,-115.0933075,2022-12-18 06:25:15
Jack in the Box,4040 S Rainbow Blvd,,Las Vegas,NV,89103,US,36.11491013,-115.24252319,2022-12-18 06:25:19
Jack in the Box,3790 E Tropicana Ave,,Las Vegas,NV,89121,US,36.10059357,-115.09210968,2022-12-18 06:25:15
Jack in the Box,5605 S Rainbow Blvd,,Las Vegas,NV,89118,US,36.08667374,-115.2432785,2022-12-18 06:25:19
Jack in the Box,580 N Eastern Ave,,Las Vegas,NV,89101,US,36.17324448,-115.11573029,2022-12-16 15:27:42
Jack in the Box,6400 W Charleston Blvd,,Las Vegas,NV,89146,US,36.15952682,-115.23523712,2022-12-18 06:25:21
Jack in the Box,800 N Decatur,,Las Vegas,NV,89107,US,36.17971039,-115.20563507,2022-12-18 06:25:21
Jack in the Box,1480 W Lake Mead Blvd,,Las Vegas,NV,89106,US,36.19622421,-115.16038513,2022-12-16 15:27:42
Jack in the Box,3680 Blue Diamond Rd,,Las Vegas,NV,89139,US,36.04148483,-115.18920135,2022-12-18 06:25:19
Jack in the Box,9055 John Hickman Pkwy,,Frisco,TX,75034,US,33.11282349,-96.80482483,2022-12-18 06:25:20
Jack in the Box,9133 Legacy Dr,,Frisco,TX,75034,US,33.15441132,-96.84870148,2022-12-18 06:25:20
Jack in the Box,2063 FM 423,,Little Elm,TX,75068,US,33.16666031,-96.88994598,2022-12-18 06:25:20
Jack in the Box,5960 Dallas Pkwy,,Plano,TX,75093,US,33.05424881,-96.82865143,2022-12-18 06:25:21
Jack in the Box,4683 Highway 121,,The Colony,TX,75056,US,33.06478882,-96.89352417,2022-12-18 06:25:21
Jack in the Box,4750 W University Dr,,Prosper,TX,75078,US,33.21968079,-96.878685,2022-12-18 06:25:17
Jack in the Box,905 Legacy Dr,,Plano,TX,75023,US,33.07030487,-96.71087646,2022-12-18 06:25:20
Jack in the Box,1101 Preston Rd,,Plano,TX,75093,US,33.01531982,-96.7959671,2022-12-16 15:27:44
Jack in the Box,804 W Mcdermott Dr,,Allen,TX,75013,US,33.10251236,-96.68006897,2022-12-18 06:25:20
Jack in the Box,1000 E Hebron Pkwy,,Carrollton,TX,75007,US,33.02048492,-96.91506958,2022-12-18 06:25:21
Jack in the Box,18220 Dallas Pkwy,,Dallas,TX,75287,US,32.99860001,-96.82855225,2022-12-16 15:27:44
Jack in the Box,201 W Parker Rd,,Plano,TX,75023,US,33.03920746,-96.7068634,2022-12-18 06:25:20
Jack in the Box,2666 Josey Ln,,Carrollton,TX,75007,US,32.98962021,-96.8894577,2022-12-16 15:27:45
Jack in the Box,394 E Stacy Rd,,Allen,TX,75002,US,33.1289711,-96.6476059,2022-12-18 06:25:20
Jack in the Box,2230 N Coit Rd,,Richardson,TX,75080,US,32.98252487,-96.76751709,2022-12-16 15:27:44
Jack in the Box,11920 US Hwy 380,,Cross Roads,TX,76227,US,33.22569656,-96.98258972,2022-12-18 06:25:20
Jack in the Box,732 Hebron Pkwy,,Lewisville,TX,75057,US,33.00986481,-96.96733856,2022-12-18 06:25:21
Jack in the Box,1205 Jupiter Rd,,Plano,TX,75074,US,33.01599121,-96.68312073,2022-12-18 06:25:17
Jack in the Box,7900 S Interstate 35 E,,Corinth,TX,76210,US,33.13093185,-97.04177856,2022-12-18 06:25:21
Jack in the Box,3206 Belt Line Rd,,Farmers Branch,TX,75234,US,32.95295334,-96.87017822,2022-12-16 15:27:45
Jack in the Box,1480 S Grand Pkwy,,Katy,TX,77494,US,29.75874329,-95.77716827,2022-12-18 06:25:19
Jack in the Box,25105 Market Place Dr,,Katy,TX,77494,US,29.78181076,-95.80228424,2022-12-18 06:25:19
Jack in the Box,903 S Mason Rd,,Katy,TX,77450,US,29.76944733,-95.75121307,2022-12-18 06:25:19
Jack in the Box,22803 Morton Ranch Rd,,Katy,TX,77449,US,29.81678963,-95.7696228,2022-12-18 06:25:19
Jack in the Box,20350 Park Row Blvd,,Katy,TX,77449,US,29.79059601,-95.73465729,2022-12-18 06:25:19
Jack in the Box,7975 W Grand Pkwy S Ste 100,,Richmond,TX,77407,US,29.66272354,-95.74007416,2022-12-18 06:54:29
Jack in the Box,3072 N Fry Rd,,Katy,TX,77449,US,29.81451988,-95.71995544,2022-12-18 06:25:19
Jack in the Box,8102 Fm 1464 Rd,,Richmond,TX,77407,US,29.69117737,-95.688797,2022-12-18 06:54:29
Jack in the Box,321 Fm 359 Rd S,,Brookshire,TX,77423,US,29.77758408,-95.95079803,2022-12-18 06:25:19
Jack in the Box,14540 Westheimer,,Houston,TX,77077,US,29.73610306,-95.64282227,2022-12-18 06:25:19
Jack in the Box,14521 Bellaire Blvd,,Houston,TX,77083,US,29.70366859,-95.64163208,2022-12-18 06:54:29
Jack in the Box,7021 Fry Rd,,Cypress,TX,77433,US,29.88080215,-95.72454071,2022-12-18 06:25:19
Jack in the Box,13351 Briar Forest Dr,,Houston,TX,77077,US,29.75396156,-95.62403107,2022-12-18 06:25:19
Jack in the Box,6325 Barker Cypress Rd,,Houston,TX,77084,US,29.86617279,-95.68384552,2022-12-16 15:27:38
Jack in the Box,5004 Avenue H,,Rosenberg,TX,77471,US,29.56903267,-95.7776947,2022-12-18 06:54:29
Jack in the Box,12680 Beechnut St,,Houston,TX,77072,US,29.68964577,-95.60370636,2022-12-16 15:27:42
Jack in the Box,11910 Westheimer Rd,,Houston,TX,77077,US,29.7369709,-95.58951569,2022-12-16 15:27:42
Jack in the Box,13325 W Airport Blvd,,Sugar Land,TX,77478,US,29.65040779,-95.61795807,2022-12-18 06:54:29
Jack in the Box,6902 Highway 6 N,,Houston,TX,77084,US,29.87792206,-95.64459991,2022-12-16 15:27:44
Jack in the Box,9310 Barker Cypress Rd,,Cypress,TX,77433,US,29.91205215,-95.68560028,2022-12-16 15:27:38
Jack in the Box,1106 N Pleasantburg Dr,,Greenville,SC,29607,US,34.8698349,-82.35774994,2022-12-18 06:25:19
Jack in the Box,1343 S Pleasantburg Dr,,Greenville,SC,29605,US,34.79941559,-82.37593842,2022-12-18 06:25:19
Jack in the Box,2609 Woodruff Rd,,Simpsonville,SC,29681,US,34.80596161,-82.22982788,2022-12-18 06:25:19
Jack in the Box,1490 Poinsett Hwy,,Greenville,SC,29609,US,34.88732147,-82.40470886,2022-12-18 06:25:19
Jack in the Box,6601 Calhoun Memorial Hwy,,Easley,SC,29640,US,34.82115555,-82.58724976,2022-12-18 06:25:19
Jack in the Box,1500 Wo Ezell Blvd,,Spartanburg,SC,29301,US,34.93723679,-81.98748779,2022-12-18 06:25:19
Jack in the Box,76 Highlands Square Dr,,Hendersonville,NC,28792,US,35.34764481,-82.43364716,2022-12-18 06:25:19
Jack in the Box,7770 Lyles Ln,,Concord,NC,28027,US,35.36618805,-80.71108246,2022-12-18 06:25:16
Jack in the Box,943 Concord Pkwy S,,Concord,NC,28027,US,35.39334488,-80.61979675,2022-12-18 06:25:16
Jack in the Box,10121 N Tryon St,,Charlotte,NC,28262,US,35.32326126,-80.73299408,2022-12-18 06:25:16
Jack in the Box,7000 Wt Harris Blvd,,Charlotte,NC,28269,US,35.34804916,-80.84328461,2022-12-18 06:25:16
Jack in the Box,220 N Hoskins Rd,,Charlotte,NC,28216,US,35.26609421,-80.88237,2022-12-18 06:25:16
Jack in the Box,4505 Randolph Rd,,Charlotte,NC,28211,US,35.17558289,-80.79767609,2022-12-18 06:25:16
Jack in the Box,7806 Forest Point Blvd,,Charlotte,NC,28217,US,35.13679123,-80.90373993,2022-12-18 06:25:16
Jack in the Box,7725 Pineville Matthews Rd,,Charlotte,NC,28226,US,35.08723068,-80.85032654,2022-12-18 06:25:16
Jack in the Box,337 Westinghouse Blvd,,Charlotte,NC,28273,US,35.11247635,-80.92060852,2022-12-18 06:25:16
Jack in the Box,10730 S Tryon St,,Charlotte,NC,28273,US,35.11846161,-80.95623016,2022-12-18 06:25:16
Jack in the Box,3618 E Franklin Blvd,,Gastonia,NC,28056,US,35.2583847,-81.11595917,2022-12-18 06:25:17
Jack in the Box,102 College View Dr,,Dallas,NC,28034,US,35.31544495,-81.18914032,2022-12-18 06:25:17
Jack in the Box,1600 E Roosevelt Blvd,,Monroe,NC,28112,US,34.97237396,-80.51579285,2022-12-18 06:25:16
Jack in the Box,1929 Springsteen Rd,,Rock Hill,SC,29730,US,34.94039917,-80.9802475,2022-12-18 06:25:17
Jack in the Box,510 10th St Nw,,Conover,NC,28613,US,35.71722412,-81.23108673,2022-12-18 06:25:17
Jack in the Box,895 Heckle Blvd,,Rock Hill,SC,29730,US,34.93185425,-81.05883026,2022-12-18 06:25:17
Jack in the Box,1776 Catawba Valley Blvd Se,,Hickory,NC,28602,US,35.70299911,-81.31090546,2022-12-18 06:25:17
Jack in the Box,603 Us Highway 321 Nw,,Hickory,NC,28601,US,35.74176407,-81.36676788,2022-12-18 06:25:17
Jack in the Box,455 Earl Rd,,Shelby,NC,28150,US,35.27692413,-81.53270721,2022-12-18 06:25:17
Jack in the Box,4020 E Bell Rd,,Phoenix,AZ,85032,US,33.6412468,-111.99485779,2022-12-16 15:27:51
Jack in the Box,12223 N 32nd St,,Phoenix,AZ,85032,US,33.59805679,-112.01273346,2022-12-16 15:27:39
Jack in the Box,17017 N Cave Creek Rd,,Phoenix,AZ,85032,US,33.64120483,-112.0304184,2022-12-16 15:27:42
Jack in the Box,2420 E Beardsley Rd,,Phoenix,AZ,85050,US,33.67009735,-112.02980042,2022-12-16 15:27:42
Jack in the Box,13610 N Scottsdale Rd Ste 31,,Scottsdale,AZ,85254,US,33.61011887,-111.92620087,2022-12-16 15:27:51
Jack in the Box,18441 N 7th St,,Phoenix,AZ,85024,US,33.65447998,-112.06506348,2022-12-16 15:27:42
Jack in the Box,1802 W Bell Rd,,Phoenix,AZ,85023,US,33.64063644,-112.09780121,2022-12-18 06:25:19
Jack in the Box,20385 N Hayden Rd,,Scottsdale,AZ,85255,US,33.66999054,-111.90536499,2022-12-16 15:27:51
Jack in the Box,1935 W Thunderbird Rd,,Phoenix,AZ,85023,US,33.61074448,-112.10212708,2022-12-18 06:25:19
Jack in the Box,14842 Frank Lloyd Wright Blvd,,Scottsdale,AZ,85260,US,33.62070084,-111.87508392,2022-12-16 15:27:51
Jack in the Box,8951 N 19th Ave,,Phoenix,AZ,85021,US,33.56689453,-112.09915924,2022-12-18 06:25:19
Jack in the Box,2141 W Deer Valley Rd,,Phoenix,AZ,85027,US,33.68336868,-112.10631561,2022-12-18 06:25:19
Jack in the Box,6351 N 7th St,,Phoenix,AZ,85014,US,33.53071594,-112.06473541,2022-12-16 15:27:39
Jack in the Box,19818 N 27th Ave,,Phoenix,AZ,85027,US,33.66594315,-112.11782837,2022-12-18 06:25:19
Jack in the Box,2800 W Dunlap Ave,,Phoenix,AZ,85051,US,33.56797791,-112.1193924,2022-12-18 06:25:19
Jack in the Box,3512 W Thunderbird Rd,,Phoenix,AZ,85053,US,33.61117172,-112.13486481,2022-12-18 06:25:19
Jack in the Box,2113 W Happy Valley Rd,,Phoenix,AZ,85085,US,33.71215057,-112.10514069,2022-12-18 06:25:22
Jack in the Box,4151 W Bell Rd,,Phoenix,AZ,85053,US,33.63904953,-112.1485672,2022-12-18 06:25:19
Jack in the Box,2520 W Glendale Ave,,Phoenix,AZ,85051,US,33.53900909,-112.11335754,2022-12-18 06:25:19
Jack in the Box,2202 E Indian School Rd,,Phoenix,AZ,85016,US,33.49507523,-112.03436279,2022-12-16 15:27:39
Jack in the Box,7425 Tylersville Rd,,West Chester,OH,45069,US,39.35370255,-84.37136078,2022-12-18 06:25:18
Jack in the Box,5234 Ridge Ave,,Cincinnati,OH,45213,US,39.16835785,-84.42327881,2022-12-18 06:25:18
Jack in the Box,12207 Montwood Dr,,El Paso,TX,79938,US,31.76102257,-106.26609802,2022-12-16 15:27:44
Jack in the Box,1448 N Lee Trevino Dr,,El Paso,TX,79936,US,31.74850655,-106.31825256,2022-12-16 15:27:44
Jack in the Box,1318a George Dieter Dr,,El Paso,TX,79936,US,31.72455406,-106.30210876,2022-12-16 15:27:44
Jack in the Box,1115 McRae Blvd,,El Paso,TX,79925,US,31.76057243,-106.35562897,2022-12-16 15:27:44
Jack in the Box,6700 Montana Ave,,El Paso,TX,79925,US,31.78943825,-106.39514923,2022-12-16 15:27:44
Jack in the Box,13640 HORIZON BLVD,,Horizon,TX,79928,US,31.68221283,-106.20639038,2022-12-16 15:27:44
Jack in the Box,5519 W Alameda Ave,,El Paso,TX,79905,US,31.76851845,-106.42350769,2022-12-16 15:27:44
Jack in the Box,5350 Montana Ave,,El Paso,TX,79903,US,31.78331184,-106.42583466,2022-12-16 15:27:44
Jack in the Box,9004 Dyer St,,El Paso,TX,79904,US,31.8674202,-106.42925262,2022-12-18 06:25:19
Jack in the Box,4160 N Mesa Dr,,El Paso,TX,79902,US,31.79308319,-106.50823212,2022-12-18 06:25:19
Jack in the Box,655 Redd Rd,,El Paso,TX,79912,US,31.85996819,-106.56097412,2022-12-18 06:25:19
Jack in the Box,8040 N Mesa St,,El Paso,TX,79932,US,31.84153366,-106.57883453,2022-12-18 06:25:19
Jack in the Box,7911-A Artcraft Rd,,El Paso,TX,79932,US,31.88329315,-106.58426666,2022-12-18 06:25:19
Jack in the Box,501 S Telshor Blvd,,Las Cruces,NM,88011,US,32.31516266,-106.74411774,2022-12-18 06:25:19
Jack in the Box,4615 Sonoma Ranch Blvd,,Las Cruces,NM,88011,US,32.36962128,-106.73890686,2022-12-18 06:25:19
Jack in the Box,10014 S Memorial Dr E,,Tulsa,OK,74133,US,36.01894379,-95.88729095,2022-12-18 06:25:16
Jack in the Box,2221 W Kenosha St,,Broken Arrow,OK,74012,US,36.06033325,-95.81632233,2022-12-18 06:25:16
Jack in the Box,4840 S Yale Ave,,Tulsa,OK,74135,US,36.09218216,-95.92292786,2022-12-18 06:25:16
Jack in the Box,10861 E 41st St,,Tulsa,OK,74146,US,36.10498428,-95.85596466,2022-12-18 06:25:16
Jack in the Box,8112 E 11th St,,Tulsa,OK,74112,US,36.14766312,-95.8862915,2022-12-18 06:25:16
Jack in the Box,2207 S Interstate 35,,San Marcos,TX,78666,US,29.85583496,-97.95319366,2022-12-18 06:25:15
Jack in the Box,345 N L B J Dr,,San Marcos,TX,78666,US,29.88513947,-97.94080353,2022-12-18 06:25:15
Jack in the Box,5061 Kyle Center Dr,,Kyle,TX,78640,US,30.01438522,-97.86507416,2022-12-18 06:25:15
Jack in the Box,1260 S Seguin Ave,,New Braunfels,TX,78130,US,29.69306755,-98.11115265,2022-12-18 06:25:15
Jack in the Box,15320 S Intersate 35,,Buda,TX,78610,US,30.08628845,-97.82137299,2022-12-18 06:25:15
Jack in the Box,1810 W Ih 10,,Seguin,TX,78155,US,29.58519554,-97.99460602,2022-12-18 06:25:15
Jack in the Box,1070 E Court St,,Seguin,TX,78155,US,29.56942749,-97.95057678,2022-12-18 06:25:15
Jack in the Box,9300 IH 35 Frontage Rd  Bldg G,,Austin,TX,78748,US,30.16538239,-97.78825378,2022-12-18 06:25:15
Jack in the Box,110 E William Cannon DR,,Austin,TX,78745,US,30.19339752,-97.77836609,2022-12-18 06:25:15
Jack in the Box,6210 W William Cannon Dr,,Austin,TX,78749,US,30.23135376,-97.86430359,2022-12-18 06:25:11
Jack in the Box,1801 W Ben White Blvd,,Austin,TX,78704,US,30.22828674,-97.78652954,2022-12-18 06:25:11
Jack in the Box,6133 E Ben White Blvd,,Austin,TX,78741,US,30.21160126,-97.71331024,2022-12-18 06:25:15
Jack in the Box,1936 E Oltorf St,,Austin,TX,78741,US,30.23142624,-97.73407745,2022-12-18 06:25:15
Jack in the Box,2517 E Highway 71,,Austin,TX,78617,US,30.21304512,-97.65765381,2022-12-18 06:25:15
Jack in the Box,1151 Airport Blvd,,Austin,TX,78702,US,30.27414513,-97.69767761,2022-12-18 06:25:15
Jack in the Box,15037 Nacogdoches Rd,,San Antonio,TX,78247,US,29.57825279,-98.37323761,2022-12-18 06:25:18
Jack in the Box,1000 E 41st St Unit K,,Austin,TX,78751,US,30.29909325,-97.72013855,2022-12-18 06:25:11
Jack in the Box,11615 N IH 35,,San Antonio,TX,78233,US,29.54685974,-98.36830902,2022-12-18 06:25:18
Jack in the Box,21034 Us Highway 281 N,,San Antonio,TX,78258,US,29.63887978,-98.45420074,2022-12-18 06:25:18
Jack in the Box,7720 Fm 78,,San Antonio,TX,78244,US,29.49135208,-98.33370209,2022-12-18 06:25:18
Jack in the Box,5656 Old Hickory Blvd,,Hermitage,TN,37076,US,36.17438889,-86.60174561,2022-12-18 07:39:41
Jack in the Box,5615 Charlotte Pike,,Nashville,TN,37209,US,36.14965057,-86.85842133,2022-12-18 07:39:41
Jack in the Box,3900 Dickerson Pike,,Nashville,TN,37207,US,36.26968384,-86.75600433,2022-12-18 07:39:41
Jack in the Box,3146 S State Hwy 161,,Grand Prairie,TX,75052,US,32.69403458,-97.02565002,2022-12-16 15:27:45
Jack in the Box,2401 Se Green Oaks Blvd,,Arlington,TX,76018,US,32.66119003,-97.06589508,2022-12-16 15:27:45
Jack in the Box,4004 S Belt Line Rd,,Grand Prairie,TX,75052,US,32.67115784,-96.98592377,2022-12-16 15:27:44
Jack in the Box,2880 E Pioneer Pkwy,,Arlington,TX,76010,US,32.71198654,-97.05937195,2022-12-16 15:27:45
Jack in the Box,2514 S Belt Line Rd,,Grand Prairie,TX,75052,US,32.70775604,-96.99369812,2022-12-16 15:27:45
Jack in the Box,901 Interstate 20 E,,Arlington,TX,76018,US,32.68004227,-97.09451294,2022-12-16 15:27:45
Jack in the Box,1807 E Park Row Dr,,Arlington,TX,76010,US,32.7211647,-97.08240509,2022-12-16 15:27:45
Jack in the Box,712 E Pioneer Pkwy,,Arlington,TX,76010,US,32.70772934,-97.09887695,2022-12-16 15:27:45
Jack in the Box,5340 Matlock Rd,,Arlington,TX,76018,US,32.66017914,-97.11562347,2022-12-18 06:25:18
Jack in the Box,101 E Main St,,Grand Prairie,TX,75050,US,32.74524689,-97.00312805,2022-12-16 15:27:45
Jack in the Box,1734 E Division St,,Arlington,TX,76011,US,32.74119186,-97.08401489,2022-12-16 15:27:42
Jack in the Box,3737 S Cooper St,,Arlington,TX,76015,US,32.68637848,-97.13092804,2022-12-16 15:27:45
Jack in the Box,5920 S Cooper St,,Arlington,TX,76017,US,32.65007019,-97.13536072,2022-12-18 06:25:18
Jack in the Box,900 N Collins St,,Arlington,TX,76011,US,32.74822617,-97.09774017,2022-12-16 15:27:42
Jack in the Box,700 W Division St,,Arlington,TX,76012,US,32.73883438,-97.11476135,2022-12-16 15:27:42
Jack in the Box,2501 W Pioneer Pkwy,,Pantego,TX,76013,US,32.71023178,-97.14958954,2022-12-16 15:27:42
Jack in the Box,107 E Camp Wisdom Rd,,Duncanville,TX,75116,US,32.66226196,-96.90583038,2022-12-18 06:25:18
Jack in the Box,3140 E Broad St,,Mansfield,TX,76063,US,32.5736618,-97.08679199,2022-12-18 06:25:18
Jack in the Box,753 W Lamar Blvd,,Arlington,TX,76012,US,32.76070786,-97.11478424,2022-12-16 15:27:42
Jack in the Box,412 N Highway 67,,Cedar Hill,TX,75104,US,32.59560776,-96.93812561,2022-12-18 06:25:18
Jack in the Box,1516 S Tennessee St,,Mckinney,TX,75069,US,33.18111038,-96.61904144,2022-12-18 06:25:17
Jack in the Box,1825 W University Dr,,Mckinney,TX,75069,US,33.21601486,-96.63497162,2022-12-18 06:25:17
Jack in the Box,200 E Princeton Dr,,Princeton,TX,75407,US,33.17477036,-96.49842072,2022-12-18 06:25:17
Jack in the Box,106 W Fm 544,,Murphy,TX,75094,US,33.01114273,-96.61391449,2022-12-18 06:25:17
Jack in the Box,201 S Highway 78,,Wylie,TX,75098,US,33.01098251,-96.54045105,2022-12-18 07:39:41
Jack in the Box,3480 Arapaho Rd,,Garland,TX,75044,US,32.96017838,-96.68223572,2022-12-18 06:25:17
Jack in the Box,16802 Stuebner Airline Rd,,Spring,TX,77379,US,30.02148628,-95.52385712,2022-12-16 15:27:44
Jack in the Box,4720 Spring Cypress Rd,,Spring,TX,77379,US,30.05051231,-95.49373627,2022-12-16 15:27:44
Jack in the Box,9065 Farm to Market 2920,,Houston,TX,77375,US,30.07618713,-95.55860138,2022-12-18 06:25:21
Jack in the Box,14555 Falling Creek Dr,,Houston,TX,77014,US,29.99292946,-95.4872818,2022-12-16 15:27:47
Jack in the Box,3842 Fm 2920 Rd,,Spring,TX,77388,US,30.07104111,-95.47515869,2022-12-16 15:27:42
Jack in the Box,19602 Tomball Pkwy,,Houston,TX,77070,US,29.98054123,-95.56624603,2022-12-16 15:27:48
Jack in the Box,8603 Fm 1960 Rd W,,Houston,TX,77070,US,29.95499229,-95.55343628,2022-12-16 15:27:49
Jack in the Box,19715 Holzwarth Rd,,Spring,TX,77388,US,30.05319023,-95.43402863,2022-12-16 15:27:42
Jack in the Box,12102 Veterans Memorial Dr,,Houston,TX,77067,US,29.96147156,-95.47799683,2022-12-16 15:27:48
Jack in the Box,11214 Fm 2920 Rd,,Tomball,TX,77375,US,30.10014153,-95.59516144,2022-12-18 06:25:21
Jack in the Box,607 Fm 1960 Rd E,,Houston,TX,77073,US,30.02406311,-95.42024994,2022-12-16 15:27:42
Jack in the Box,12235 Jones Rd,,Houston,TX,77070,US,29.9518013,-95.58547974,2022-12-16 15:27:49
Jack in the Box,14054 Grant Road,,Cypress,TX,77429,US,30.00530434,-95.63717651,2022-12-16 15:27:49
Jack in the Box,28423 Tomball Pkwy,,Tomball,TX,77375,US,30.08655548,-95.6322937,2022-12-18 06:25:21
Jack in the Box,14775 North Fwy,,Houston,TX,77090,US,29.98109627,-95.42345428,2022-12-16 15:27:47
Jack in the Box,8055 N Sam Houston Pkwy W,,Houston,TX,77064,US,29.92926979,-95.54305267,2022-12-16 15:27:50
Jack in the Box,25520 Aldine Westfield Rd,,Spring,TX,77373,US,30.07144737,-95.40858459,2022-12-16 15:27:42
Jack in the Box,10742 Veterans Memorial Dr,,Houston,TX,77038,US,29.93626404,-95.45845032,2022-12-16 15:27:48
Jack in the Box,25060 Interstate 45,,Spring,TX,77386,US,30.12643814,-95.4420929,2022-12-18 06:25:21
Jack in the Box,13706 State Highway 249,,Houston,TX,77086,US,29.92063904,-95.49410248,2022-12-16 15:27:48
Jack in the Box,5656 N Eldridge Pkwy,,Houston,TX,77041,US,29.8502388,-95.60574341,2022-12-16 15:27:44
Jack in the Box,11833 Barker Cypress Rd,,Houston,TX,77433,US,29.94827461,-95.67650604,2022-12-16 15:27:38
Jack in the Box,10450 Huffmeister Rd,,Houston,TX,77065,US,29.92494392,-95.62798309,2022-12-16 15:27:49
Jack in the Box,2277 W Sam Houston Pkwy N,,Houston,TX,77043,US,29.81222534,-95.56454468,2022-12-16 15:27:42
Jack in the Box,2365 E Windmill Ln,,Las Vegas,NV,89123,US,36.04195404,-115.12018585,2022-12-18 06:25:15
Jack in the Box,4640 E Russell Rd,,Las Vegas,NV,89120,US,36.08611298,-115.0721283,2022-12-18 06:25:15
Jack in the Box,455 Silverado Ranch Blvd,,Las Vegas,NV,89123,US,36.01290131,-115.15356445,2022-12-18 06:25:15
Jack in the Box,3311 S Nellis Blvd,,Las Vegas,NV,89121,US,36.12883759,-115.06596375,2022-12-18 06:25:15
Jack in the Box,1127 W Manchester Blvd,,Inglewood,CA,90301,US,33.9602623,-118.37638092,2022-12-18 06:25:20
Jack in the Box,1220 Centinela Ave,,Inglewood,CA,90302,US,33.9767952,-118.36052704,2022-12-18 06:25:20
Jack in the Box,5400 Sepulveda Blvd,,Culver City,CA,90230,US,33.99494171,-118.39505005,2022-12-18 06:25:20
Jack in the Box,4737 Imperial Hwy,,Inglewood,CA,90304,US,33.93126678,-118.36062622,2022-12-16 15:27:42
Jack in the Box,4069 W Century Blvd,,Inglewood,CA,90304,US,33.94576263,-118.34643555,2022-12-16 15:27:42
Jack in the Box,5016 El Segundo Blvd,,Hawthorne,CA,90250,US,33.91615677,-118.36626434,2022-12-16 15:27:42
Jack in the Box,12403 Washington Pl,,Los Angeles,CA,90066,US,33.9996109,-118.4308548,2022-12-18 06:25:20
Jack in the Box,3107 W Manchester Blvd,,Inglewood,CA,90305,US,33.96030045,-118.32696533,2022-12-16 15:27:42
Jack in the Box,11306 Crenshaw Blvd,,Inglewood,CA,90303,US,33.93231583,-118.32621765,2022-12-16 15:27:42
Jack in the Box,10701 Venice Blvd,,Los Angeles,CA,90034,US,34.01886368,-118.40742493,2022-12-18 06:25:20
Jack in the Box,4210 Crenshaw Blvd,,Los Angeles,CA,90008,US,34.00795364,-118.33479309,2022-12-18 06:25:20
Jack in the Box,2220 W Slauson Ave,,Los Angeles,CA,90043,US,33.98887253,-118.31829834,2022-12-16 15:27:42
Jack in the Box,7201 S Western Ave,,Los Angeles,CA,90047,US,33.9742775,-118.30929565,2022-12-16 15:27:42
Jack in the Box,15025 Hawthorne Blvd,,Lawndale,CA,90260,US,33.89482498,-118.35307312,2022-12-16 15:27:42
Jack in the Box,5101 Jefferson Blvd,,Los Angeles,CA,90016,US,34.02575684,-118.35522461,2022-12-18 06:25:20
Jack in the Box,13510 Western Ave,,Gardena,CA,90249,US,33.90890121,-118.30879974,2022-12-18 06:25:12
Jack in the Box,11010 Pico Blvd,,Los Angeles,CA,90064,US,34.0379715,-118.43241119,2022-12-18 06:25:20
Jack in the Box,805 W Manchester Ave,,Los Angeles,CA,90044,US,33.96036911,-118.28739929,2022-12-16 15:27:42
Jack in the Box,1000 W Slauson Ave,,Los Angeles,CA,90044,US,33.98888016,-118.29184723,2022-12-18 06:25:19
Jack in the Box,2025 Lincoln Blvd,,Santa Monica,CA,90405,US,34.01122284,-118.48126221,2022-12-18 06:25:20
Jack in the Box,1782 Highway 157 N,,Mansfield,TX,76063,US,32.59897232,-97.14546204,2022-12-18 06:25:18
Jack in the Box,4950 W Sublett Rd,,Arlington,TX,76001,US,32.64579391,-97.18679047,2022-12-18 06:25:18
Jack in the Box,5775 W Pleasant Ridge Rd,,Arlington,TX,76016,US,32.68210602,-97.19551849,2022-12-16 15:27:45
Jack in the Box,3308 Se Loop 820,,Fort Worth,TX,76140,US,32.66065979,-97.27355957,2022-12-18 06:25:18
Jack in the Box,17926 Spring Cypress Rd,,Cypress,TX,77429,US,29.97236633,-95.69337463,2022-12-16 15:27:38
Jack in the Box,12446 Fm 1960 Rd W,,Houston,TX,77065,US,29.92264938,-95.60434723,2022-12-16 15:27:49
Jack in the Box,9429 Jones Rd,,Houston,TX,77065,US,29.90897179,-95.58519745,2022-12-16 15:27:44
Jack in the Box,16003 Fm 2920 Rd,,Tomball,TX,77375,US,30.07896423,-95.66493225,2022-12-18 06:25:21
Jack in the Box,5533 Stevenson Blvd,,Fremont,CA,94538,US,37.52546692,-121.98625946,2022-12-16 15:27:44
Jack in the Box,41115 Fremont Blvd,,Fremont,CA,94538,US,37.5308075,-121.95922852,2022-12-16 15:27:44
Jack in the Box,39017 Cedar Blvd,,Newark,CA,94560,US,37.52444839,-122.00761414,2022-12-16 15:27:42
Jack in the Box,43921 Osgood Rd,,Fremont,CA,94539,US,37.51300049,-121.94271851,2022-12-16 15:27:44
Jack in the Box,40015 Mission Blvd,,Fremont,CA,94539,US,37.55706787,-121.951828,2022-12-16 15:27:42
Jack in the Box,36848 Fremont Blvd,,Fremont,CA,94536,US,37.56164169,-122.0128479,2022-12-16 15:27:42
Jack in the Box,46351 Mission Blvd,,Fremont,CA,94539,US,37.4925766,-121.92695618,2022-12-16 15:27:44
Jack in the Box,34701 Ardenwood Blvd,,Fremont,CA,94555,US,37.55245209,-122.05471802,2022-12-16 15:27:42
Jack in the Box,31005 Mission Blvd,,Hayward,CA,94544,US,37.62023926,-122.03678894,2022-12-16 15:27:42
Jack in the Box,1740 S Main St,,Milpitas,CA,95035,US,37.40564728,-121.90241241,2022-12-18 06:25:15
Jack in the Box,2195 Morrill Ave,,San Jose,CA,95132,US,37.41513824,-121.8752594,2022-12-16 15:27:45
Jack in the Box,1075 W Tennyson Rd,,Hayward,CA,94544,US,37.63170242,-122.07488251,2022-12-16 15:27:42
Jack in the Box,2845 Augustine Dr,,Santa Clara,CA,95054,US,37.38275528,-121.97835541,2022-12-18 06:25:15
Jack in the Box,1875 Valley Ave,,Pleasanton,CA,94566,US,37.65807724,-121.89614868,2022-12-16 15:27:44
Jack in the Box,1401 Willow Rd,,Menlo Park,CA,94025,US,37.47985077,-122.15141296,2022-12-16 15:27:47
Jack in the Box,510 N Shoreline Blvd,,Mountain View,CA,94043,US,37.40223694,-122.07884216,2022-12-16 15:27:47
Jack in the Box,25198 Hesperian Blvd,,Hayward,CA,94545,US,37.64400864,-122.10433197,2022-12-16 15:27:42
Jack in the Box,200 W El Camino Real,,Mountain View,CA,94040,US,37.38311005,-122.07782745,2022-12-16 15:27:47
Jack in the Box,24175 Mission Blvd,,Hayward,CA,94544,US,37.66507339,-122.07831573,2022-12-16 15:27:42
Jack in the Box,4896 El Camino Real,,Los Altos,CA,94022,US,37.39836884,-122.10883331,2022-12-16 15:27:47
Jack in the Box,2115 S Victoria Ave,,Ventura,CA,93003,US,34.25443649,-119.21064758,2022-12-18 06:25:20
Jack in the Box,2352 E Thompson Blvd,,Ventura,CA,93003,US,34.27317047,-119.26558685,2022-12-18 06:25:20
Jack in the Box,2580 N Vineyard Ave,,Oxnard,CA,93030,US,34.23435211,-119.17087555,2022-12-18 06:25:20
Jack in the Box,960 N Ventura Rd,,Oxnard,CA,93030,US,34.21126175,-119.19420624,2022-12-18 06:25:20
Jack in the Box,11044 Citrus Dr,,Ventura,CA,93004,US,34.29153824,-119.1569519,2022-12-18 06:25:20
Jack in the Box,550 S Victoria Ave,,Oxnard,CA,93035,US,34.19652557,-119.22068787,2022-12-18 06:25:20
Jack in the Box,2800 S Rose Ave,,Oxnard,CA,93033,US,34.17453766,-119.15962982,2022-12-18 06:25:20
Jack in the Box,814 N Ventura Rd,,Port Hueneme,CA,93041,US,34.15514755,-119.19469452,2022-12-18 06:25:20
Jack in the Box,1650 Daily Dr,,Camarillo,CA,93010,US,34.21829605,-119.04940796,2022-12-18 06:25:20
Jack in the Box,306 S Palm Ave,,Santa Paula,CA,93060,US,34.3465271,-119.06995392,2022-12-18 06:25:20
Jack in the Box,4901 Verdugo Way,,Camarillo,CA,93012,US,34.21640778,-119.00499725,2022-12-16 15:27:41
Jack in the Box,917 Academy Dr,,Thousand Oaks,CA,91320,US,34.19153595,-118.93886566,2022-12-16 15:27:41
Jack in the Box,538 W New Los Angeles Ave,,Moorpark,CA,93021,US,34.2785759,-118.88828278,2022-12-16 15:27:41
Jack in the Box,484 Moorpark Rd,,Thousand Oaks,CA,91360,US,34.18503571,-118.87483215,2022-12-16 15:27:41
Jack in the Box,130 Cochran St,,Simi Valley,CA,93065,US,34.28116608,-118.79433441,2022-12-16 15:27:41
Jack in the Box,1579 Los Angeles Ave,,Simi Valley,CA,93065,US,34.27219391,-118.7687149,2022-12-16 15:27:42
Jack in the Box,5033 N Kanan Rd,,Agoura,CA,91301,US,34.14421844,-118.7620697,2022-12-16 15:27:42
Jack in the Box,501 N Milpas St,,Santa Barbara,CA,93103,US,34.42628098,-119.68574524,2022-12-18 06:25:16
Jack in the Box,5798 E Los Angeles Ave,,Simi Valley,CA,93063,US,34.27131653,-118.67887115,2022-12-16 15:27:42
Jack in the Box,26510 Agoura Rd,,Calabasas,CA,91302,US,34.14373779,-118.6991806,2022-12-16 15:27:42
Jack in the Box,1503 W League City Pkwy,,League City,TX,77573,US,29.48776054,-95.10565186,2022-12-16 15:27:44
Jack in the Box,1908 E Main St,,League City,TX,77573,US,29.52121735,-95.07824707,2022-12-16 15:27:44
Jack in the Box,1665 W Fm 646 Rd,,League City,TX,77573,US,29.46906662,-95.08686066,2022-12-16 15:27:44
Jack in the Box,3134 Fm 528 Rd,,Webster,TX,77598,US,29.5228138,-95.16110992,2022-12-16 15:27:44
Jack in the Box,4457 Nasa Pkwy # 1,,Seabrook,TX,77586,US,29.56621742,-95.05847168,2022-12-18 06:25:21
Jack in the Box,2420 Bay Area Blvd,,Houston,TX,77058,US,29.57416344,-95.10787201,2022-12-16 15:27:44
Jack in the Box,418 El Dorado Blvd,,Webster,TX,77598,US,29.55911064,-95.14435577,2022-12-16 15:27:44
Jack in the Box,4605 Highway 146,,Bacliff,TX,77518,US,29.49878311,-94.99455261,2022-12-18 06:25:21
Jack in the Box,101 E Parkwood Ave,,Friendswood,TX,77546,US,29.50902176,-95.18774414,2022-12-16 15:27:42
Jack in the Box,2101 Fm 2004 Rd,,Texas City,TX,77591,US,29.4068203,-95.03166962,2022-12-18 06:25:21
Jack in the Box,13620 Highway 6,,Santa Fe,TX,77517,US,29.38065338,-95.11090851,2022-12-16 15:27:45
Jack in the Box,11912 Galveston Rd Ste A,,Houston,TX,77034,US,29.59981728,-95.17717743,2022-12-16 15:27:44
Jack in the Box,1521 Broadway St,,Pearland,TX,77581,US,29.54748344,-95.23113251,2022-12-16 15:27:42
Jack in the Box,11080 Scarsdale Blvd,,Houston,TX,77089,US,29.58714676,-95.2098999,2022-12-16 15:27:44
Jack in the Box,2805 N Highway 35,,Alvin,TX,77511,US,29.44728088,-95.23957062,2022-12-18 06:25:18
Jack in the Box,4308 Texas Ave,,La Marque,TX,77568,US,29.37780571,-95.00530243,2022-12-18 06:25:21
Jack in the Box,11605 S Sam Houston Pkwy E,,Houston,TX,77089,US,29.60204887,-95.2151947,2022-12-16 15:27:44
Jack in the Box,9629 W Fairmont Pkwy,,La Porte,TX,77571,US,29.65182495,-95.08752441,2022-12-16 15:27:44
Jack in the Box,615 S Gordon St,,Alvin,TX,77511,US,29.4193325,-95.24356842,2022-12-18 06:25:18
Jack in the Box,1018 Highway 146 S,,La Porte,TX,77571,US,29.65312195,-95.03103638,2022-12-18 06:25:21
Jack in the Box,7206 Blanco Rd,,San Antonio,TX,78216,US,29.52320099,-98.50444031,2022-12-18 06:25:18
Jack in the Box,7150 San Pedro Ave,,San Antonio,TX,78216,US,29.51332474,-98.49835205,2022-12-18 06:25:18
Jack in the Box,4319 Vance Jackson Rd,,San Antonio,TX,78230,US,29.51275444,-98.53547668,2022-12-18 06:25:18
Jack in the Box,9330 Wurzbach Rd,,San Antonio,TX,78240,US,29.52882004,-98.56396484,2022-12-18 06:25:18
Jack in the Box,4626 Fredericksburg Rd,,San Antonio,TX,78201,US,29.49366951,-98.55367279,2022-12-18 06:25:18
Jack in the Box,2235 Ne Loop 410,,San Antonio,TX,78217,US,29.51664734,-98.42337799,2022-12-18 06:25:18
Jack in the Box,10683 Huebner Rd Ste 101,,San Antonio,TX,78240,US,29.54261208,-98.58187103,2022-12-18 06:25:18
Jack in the Box,2465 Babcock Rd,,San Antonio,TX,78229,US,29.50634766,-98.58574677,2022-12-18 06:25:18
Jack in the Box,1619 Bandera Rd,,San Antonio,TX,78228,US,29.46941566,-98.5712738,2022-12-18 07:39:41
Jack in the Box,2100 Culebra Rd,,San Antonio,TX,78228,US,29.44630432,-98.54082489,2022-12-18 07:39:41
Jack in the Box,502 N New Braunfels Ave,,San Antonio,TX,78202,US,29.42536163,-98.46077728,2022-12-18 07:39:41
Jack in the Box,118 N General Mcmullen Dr,,San Antonio,TX,78237,US,29.43141747,-98.55356598,2022-12-18 07:39:41
Jack in the Box,718 S Zarzamora St,,San Antonio,TX,78207,US,29.42095375,-98.52737427,2022-12-18 07:39:41
Jack in the Box,5850 Culebra Rd,,San Antonio,TX,78228,US,29.44805336,-98.60216522,2022-12-18 07:39:41
Jack in the Box,6405 Nw Loop 410,,San Antonio,TX,78238,US,29.46466446,-98.62149048,2022-12-18 07:39:41
Jack in the Box,903 Probandt St,,San Antonio,TX,78204,US,29.39765739,-98.49610901,2022-12-18 07:39:41
Jack in the Box,1214 W Old Us Highway 90,,San Antonio,TX,78227,US,29.4190979,-98.58895111,2022-12-18 07:39:41
Jack in the Box,16330 R R 620,,Round Rock,TX,78681,US,30.49451447,-97.72575378,2022-12-18 06:25:09
Jack in the Box,7404 Mcneil Dr,,Austin,TX,78729,US,30.43532181,-97.76841736,2022-12-18 06:25:09
Jack in the Box,2120 S Interstate 35,,Round Rock,TX,78681,US,30.48947906,-97.67855072,2022-12-18 06:25:09
Jack in the Box,1121 E Palm Valley Blvd,,Round Rock,TX,78664,US,30.51747894,-97.66810608,2022-12-18 06:25:09
Jack in the Box,14910 Fm 1825,,Pflugerville,TX,78660,US,30.44215584,-97.66648102,2022-12-18 06:25:11
Jack in the Box,9825 Burnet Rd,,Austin,TX,78758,US,30.38301277,-97.72367859,2022-12-18 06:25:09
Jack in the Box,1001 Leander Rd,,Georgetown,TX,78628,US,30.62042809,-97.69090271,2022-12-18 06:25:09
Jack in the Box,7901 Burnet Rd,,Austin,TX,78757,US,30.35623932,-97.73032379,2022-12-18 06:25:11
Jack in the Box,710 W University Ave,,Georgetown,TX,78626,US,30.63273811,-97.68289948,2022-12-18 06:25:09
Jack in the Box,3760 Gattis School Rd,,Round Rock,TX,78664,US,30.49768639,-97.61443329,2022-12-18 06:25:11
Jack in the Box,8630 N Lamar Blvd,,Austin,TX,78753,US,30.35561371,-97.70329285,2022-12-18 06:25:11
Jack in the Box,904 E Braker Ln,,Austin,TX,78753,US,30.37613678,-97.67308807,2022-12-18 06:25:11
Jack in the Box,814 E Rundberg Ln,,Austin,TX,78753,US,30.35794258,-97.6865921,2022-12-18 06:25:11
Jack in the Box,12309 Dessau Rd,,Austin,TX,78754,US,30.38785553,-97.6473999,2022-12-18 06:25:11
Jack in the Box,1700 Fm 685,,Pflugerville,TX,78660,US,30.45443726,-97.60366821,2022-12-18 06:25:20
Jack in the Box,6419 Airport Blvd,,Austin,TX,78752,US,30.32914543,-97.71517944,2022-12-18 06:25:11
Jack in the Box,6800 Berkman Dr.,,Austin,TX,78723,US,30.32049942,-97.68952179,2022-12-18 06:25:11
Jack in the Box,8706 E Us Highway 290,,Austin,TX,78724,US,30.32930756,-97.65833282,2022-12-18 06:25:11
Jack in the Box,6540 Ed Bluestein Blvd,,Austin,TX,78723,US,30.30382919,-97.66184998,2022-12-18 06:25:15
Jack in the Box,2105 W 136th Ave,,Broomfield,CO,80023,US,39.943573,-105.01222992,2022-12-18 06:25:14
Jack in the Box,64 W Bromley Lane,,Brighton,CO,80601,US,39.97182846,-104.82353973,2022-12-18 06:25:14
Jack in the Box,9703 Washington St,,Thornton,CO,80229,US,39.87292862,-104.9784317,2022-12-18 06:25:14
Jack in the Box,7311 Sheridan Blvd,,Westminster,CO,80003,US,39.82979202,-105.05413055,2022-12-18 06:25:14
Jack in the Box,6902 W 10th St,,Greeley,CO,80634,US,40.42092896,-104.79029083,2022-12-18 06:25:14
Jack in the Box,5165 Kipling St,,Wheat Ridge,CO,80033,US,39.7905159,-105.11004639,2022-12-18 06:25:14
Jack in the Box,6015 E Parkway Dr,,Commerce City,CO,80022,US,39.80622482,-104.93099976,2022-12-18 06:25:14
Jack in the Box,16750 W Colfax Ave,,Golden,CO,80401,US,39.7242775,-105.18878174,2022-12-18 06:25:14
Jack in the Box,15255 E 38th Ave,,Aurora,CO,80011,US,39.76926422,-104.81072998,2022-12-18 06:25:14
Jack in the Box,2020 S Federal Blvd,,Denver,CO,80219,US,39.68023682,-105.02463531,2022-12-18 06:25:14
Jack in the Box,15399 E Mississippi Ave,,Aurora,CO,80017,US,39.69698715,-104.80871582,2022-12-18 06:25:14
Jack in the Box,11179 S Pikes Peak Dr,,Parker,CO,80138,US,39.51321793,-104.76355743,2022-12-18 06:25:14
Jack in the Box,20209 N 59th Ave,,Glendale,AZ,85308,US,33.66998672,-112.18624878,2022-12-18 06:25:19
Jack in the Box,8236 W Deer Valley Rd,,Peoria,AZ,85382,US,33.68199158,-112.23628235,2022-12-18 06:25:22
Jack in the Box,5104 W Thunderbird Ave,,Glendale,AZ,85306,US,33.61114883,-112.1690979,2022-12-18 06:25:19
Jack in the Box,7425 W Cactus Rd,,Peoria,AZ,85381,US,33.59560013,-112.21841431,2022-12-18 06:25:19
Jack in the Box,9906 W Thunderbird Blvd,,Sun City,AZ,85351,US,33.60968399,-112.26837158,2022-12-18 06:25:19
Jack in the Box,10621 N 43rd Ave,,Phoenix,AZ,85029,US,33.58277512,-112.15098572,2022-12-18 06:25:19
Jack in the Box,9021 N 59th Ave,,Glendale,AZ,85302,US,33.56834793,-112.18585968,2022-12-18 06:25:19
Jack in the Box,9841 W Happy Valley Rd,,Peoria,AZ,85383,US,33.71014023,-112.2711792,2022-12-18 06:25:22
Jack in the Box,11101 Nw Grand Ave,,Youngtown,AZ,85363,US,33.60494614,-112.29902649,2022-12-18 06:25:22
Jack in the Box,9066 W Olive Ave,,Peoria,AZ,85345,US,33.56683731,-112.25402069,2022-12-18 06:25:19
Jack in the Box,7850 N 35th Ave,,Phoenix,AZ,85051,US,33.55267715,-112.13474274,2022-12-18 06:25:19
Jack in the Box,17820 W 119th St,,Olathe,KS,66061,US,38.91330338,-94.79109955,2022-12-18 06:25:08
Jack in the Box,10317 Metcalf Ave,,Overland Park,KS,66212,US,38.94012451,-94.66675568,2022-12-18 06:25:08
Jack in the Box,9101 Johnson Dr,,Merriam,KS,66202,US,39.02180099,-94.69080353,2022-12-18 06:25:08
Jack in the Box,211 S 18th St,,Kansas City,KS,66102,US,39.0983963,-94.64874268,2022-12-18 06:25:08
Jack in the Box,10630 Parallel Pkwy,,Kansas City,KS,66109,US,39.12913132,-94.82608032,2022-12-18 06:25:08
Jack in the Box,14000 E 42nd St S,,Independence,MO,64055,US,39.04500198,-94.41484833,2022-12-18 06:25:08
Jack in the Box,951 Ne Sam Walton Lane,,Lees Summit,MO,64086,US,38.92939377,-94.36083984,2022-12-18 06:25:09
Jack in the Box,808 N 7 Hwy,,Blue Springs,MO,64014,US,39.02735519,-94.27125549,2022-12-18 06:25:09
Jack in the Box,28175 Walker Rd S,,Walker,LA,70785,US,30.47601509,-90.86390686,2022-12-18 06:25:08
Jack in the Box,14219 Coit Rd,,Dallas,TX,75254,US,32.94256592,-96.7696228,2022-12-16 15:27:44
Jack in the Box,510 W Arapaho Rd,,Richardson,TX,75080,US,32.96183395,-96.73525238,2022-12-18 06:25:17
Jack in the Box,13555 Preston Rd,,Dallas,TX,75240,US,32.93242264,-96.80408478,2022-12-16 15:27:44
Jack in the Box,7940 Lbj Fwy,,Dallas,TX,75251,US,32.92315292,-96.76964569,2022-12-16 15:27:44
Jack in the Box,14050 N. Stemmons Fwy,,Farmers Branch,TX,75234,US,32.93796539,-96.90151978,2022-12-16 15:27:45
Jack in the Box,2001 N Town East Blvd,,Mesquite,TX,75150,US,32.81157684,-96.63001251,2022-12-18 07:39:41
Jack in the Box,1150 Us Highway 67,,Mesquite,TX,75150,US,32.83161545,-96.61323547,2022-12-18 07:39:41
Jack in the Box,1728 Scyene Rd,,Mesquite,TX,75149,US,32.76816559,-96.62471771,2022-12-18 07:39:41
Jack in the Box,3232 N Buckner Blvd,,Dallas,TX,75228,US,32.80636978,-96.68199921,2022-12-18 06:25:17
Jack in the Box,311 S Galloway Ave,,Mesquite,TX,75149,US,32.76499939,-96.59909821,2022-12-18 07:39:41
Jack in the Box,1001 W Centerville Rd,,Garland,TX,75041,US,32.85901642,-96.64589691,2022-12-18 06:25:17
Jack in the Box,4015 Bobtown Rd,,Garland,TX,75043,US,32.85167694,-96.56994629,2022-12-18 07:39:41
Jack in the Box,11404 Garland Rd,,Dallas,TX,75218,US,32.84918594,-96.68276215,2022-12-18 06:25:17
Jack in the Box,3050 Highland Rd,,Dallas,TX,75228,US,32.79501724,-96.70045471,2022-12-18 06:25:17
Jack in the Box,3101 S 1st St,,Garland,TX,75041,US,32.878479,-96.63127136,2022-12-18 06:25:17
Jack in the Box,12325 Lake June Rd,,Balch Springs,TX,75180,US,32.73444748,-96.61553192,2022-12-18 07:39:41
Jack in the Box,2021 S Buckner Blvd,,Dallas,TX,75217,US,32.74700165,-96.68347168,2022-12-18 06:25:17
Jack in the Box,335 S Garland Ave,,Garland,TX,75040,US,32.91012955,-96.6484375,2022-12-18 06:25:17
Jack in the Box,5336 Philip Ave,,Dallas,TX,75223,US,32.7919426,-96.75061798,2022-12-18 06:25:17
Jack in the Box,5410 Rowlett Rd,,Rowlett,TX,75089,US,32.9089241,-96.56871033,2022-12-18 07:39:41
Jack in the Box,6308 Gaston Ave,,Dallas,TX,75214,US,32.81230164,-96.75419617,2022-12-16 15:27:48
Jack in the Box,6355 E Mockingbird Ln,,Dallas,TX,75214,US,32.83686829,-96.75333405,2022-12-16 15:27:42
Jack in the Box,9661 Skillman St,,Dallas,TX,75243,US,32.9087677,-96.70727539,2022-12-18 06:25:17
Jack in the Box,1228 Robert B Cullum Blvd,,Dallas,TX,75210,US,32.77639771,-96.76469421,2022-12-18 06:25:17
Jack in the Box,8227 Park Ln,,Dallas,TX,75231,US,32.87181854,-96.76361847,2022-12-16 15:27:45
Jack in the Box,1818 N Foster Rd,,San Antonio,TX,78244,US,29.44678879,-98.36035156,2022-12-18 06:25:19
Jack in the Box,5311 Rigsby Ave,,San Antonio,TX,78222,US,29.39872932,-98.38764191,2022-12-18 06:25:19
Jack in the Box,3523 Se Military Dr,,San Antonio,TX,78223,US,29.35410881,-98.42581177,2022-12-18 07:39:41
Jack in the Box,4815 Voltaire St,,San Diego,CA,92107,US,32.74988937,-117.24362946,2022-12-18 06:25:21
Jack in the Box,401 Blue Ravine Rd,,Folsom,CA,95630,US,38.66956711,-121.15296173,2022-12-18 06:25:16
Jack in the Box,9550 Greenback Ln,,Folsom,CA,95630,US,38.67778015,-121.19642639,2022-12-18 06:25:16
Jack in the Box,1023 Saratoga Way,,El Dorado Hills,CA,95762,US,38.65465164,-121.07043457,2022-12-18 06:25:16
Jack in the Box,8100 Greenback Ln,,Fair Oaks,CA,95628,US,38.6781044,-121.26173401,2022-12-18 06:25:16
Jack in the Box,7807 Sunrise Blvd,,Citrus Heights,CA,95610,US,38.70795822,-121.27224731,2022-12-18 06:25:16
Jack in the Box,1923 Douglas Blvd,,Roseville,CA,95661,US,38.74464798,-121.25531006,2022-12-18 06:25:16
Jack in the Box,8655 Auburn Blvd,,Roseville,CA,95661,US,38.72173309,-121.29082489,2022-12-18 06:25:16
Jack in the Box,10699 Folsom Blvd,,Rancho Cordova,CA,95670,US,38.59617615,-121.28965759,2022-12-18 06:25:17
Jack in the Box,6131 Greenback Ln,,Citrus Heights,CA,95621,US,38.67988586,-121.32103729,2022-12-18 06:25:16
Jack in the Box,4410 Rocklin Rd,,Rocklin,CA,95677,US,38.78798676,-121.22553253,2022-12-18 06:25:16
Jack in the Box,5845 Marconi Ave,,Carmichael,CA,95608,US,38.61741638,-121.32904053,2022-12-18 06:25:17
Jack in the Box,6691 Stanford Ranch Rd,,Rocklin,CA,95677,US,38.78210068,-121.26530457,2022-12-18 06:25:16
Jack in the Box,4849 Madison Ave,,Sacramento,CA,95841,US,38.66123962,-121.35099792,2022-12-18 06:25:16
Jack in the Box,5150 Foothills Blvd,,Roseville,CA,95747,US,38.76257324,-121.31165314,2022-12-18 06:25:16
Jack in the Box,4300 Madison Ave,,Sacramento,CA,95842,US,38.66044617,-121.36354065,2022-12-18 06:25:16
Jack in the Box,9680 Business Park Dr,,Sacramento,CA,95827,US,38.56819916,-121.33570099,2022-12-16 15:27:38
Jack in the Box,4990 Watt Ave,,North Highlands,CA,95660,US,38.65739441,-121.38228607,2022-12-18 06:25:16
Jack in the Box,3500 Marconi Ave,,Sacramento,CA,95821,US,38.61750412,-121.38259125,2022-12-18 06:25:17
Jack in the Box,1661 Watt Ave,,Sacramento,CA,95864,US,38.59538269,-121.38348389,2022-12-18 06:25:17
Jack in the Box,7949 Watt Ave,,Antelope,CA,95843,US,38.71381378,-121.39345551,2022-12-18 06:25:16
Jack in the Box,721 S Mill Ave,,Tempe,AZ,85281,US,33.42258072,-111.93962097,2022-12-16 15:27:44
Jack in the Box,901 E Curry Rd,,Tempe,AZ,85281,US,33.43996429,-111.92601776,2022-12-16 15:27:45
Jack in the Box,942 E Broadway Rd,,Tempe,AZ,85282,US,33.40782166,-111.92483521,2022-12-16 15:27:44
Jack in the Box,1350 W Broadway Rd,,Tempe,AZ,85281,US,33.40768433,-111.96033478,2022-12-16 15:27:44
Jack in the Box,2145 E University Dr,,Tempe,AZ,85281,US,33.42168427,-111.89379883,2022-12-16 15:27:44
Jack in the Box,3102 S Mill Ave,,Tempe,AZ,85282,US,33.39482117,-111.94013214,2022-12-16 15:27:44
Jack in the Box,7412 E Mcdowell Rd,,Scottsdale,AZ,85257,US,33.46613312,-111.92089081,2022-12-16 15:27:45
Jack in the Box,1945 W Main St,,Mesa,AZ,85201,US,33.41439438,-111.87392426,2022-12-16 15:27:44
Jack in the Box,4749 E Southern Ave,,Phoenix,AZ,85042,US,33.3924408,-111.97871399,2022-12-16 15:27:44
Jack in the Box,2711 S. 40th Street,,Phoenix,AZ,85034,US,33.42256927,-111.99517059,2022-12-16 15:27:45
Jack in the Box,1860 W Southern Ave,,Mesa,AZ,85202,US,33.39356232,-111.87228394,2022-12-16 15:27:44
Jack in the Box,4741 E Mcdowell Rd,,Phoenix,AZ,85008,US,33.46522903,-111.97891235,2022-12-16 15:27:39
Jack in the Box,850 E Guadalupe Rd,,Tempe,AZ,85283,US,33.36426926,-111.92912292,2022-12-16 15:27:44
Jack in the Box,1145 W University Dr,,Mesa,AZ,85201,US,33.42180252,-111.8555603,2022-12-16 15:27:44
Jack in the Box,3150 E Washington St,,Phoenix,AZ,85034,US,33.4484787,-112.01331329,2022-12-16 15:27:39
Jack in the Box,1232 W Baseline Rd,,Mesa,AZ,85202,US,33.37903595,-111.86080933,2022-12-16 15:27:42
Jack in the Box,427 W Mckellips Rd,,Mesa,AZ,85201,US,33.45104218,-111.84064484,2022-12-16 15:27:44
Jack in the Box,3545 E Thomas Rd,,Phoenix,AZ,85018,US,33.48017502,-112.00456238,2022-12-16 15:27:39
Jack in the Box,1001 N 24th St,,Phoenix,AZ,85008,US,33.45920944,-112.02983093,2022-12-16 15:27:39
Jack in the Box,440 E Southern Ave,,Mesa,AZ,85204,US,33.3937149,-111.82180786,2022-12-18 06:25:18
Jack in the Box,2130 N Post Rd,,Indianapolis,IN,46219,US,39.79758835,-86.01018524,2022-12-18 07:39:41
Jack in the Box,5613 W 38th St,,Indianapolis,IN,46254,US,39.82313538,-86.25978088,2022-12-18 07:39:41
Jack in the Box,8950 S Us 31,,Indianapolis,IN,46227,US,39.63581848,-86.12783051,2022-12-18 07:39:41
Jack in the Box,1703 S Broadway Ave,,Tyler,TX,75701,US,32.33066177,-95.3011322,2022-12-18 07:39:41
Jack in the Box,121 N Northwest Loop 323,,Tyler,TX,75702,US,32.35485077,-95.34282684,2022-12-18 07:39:41
Jack in the Box,516 N Wood St,,Gilmer,TX,75644,US,32.73337173,-94.94314575,2022-12-18 07:39:41
Jack in the Box,490 E Loop 281,,Longview,TX,75605,US,32.54037094,-94.73165894,2022-12-18 07:39:41
Jack in the Box,2207 W Oak St,,Palestine,TX,75801,US,31.74555016,-95.65512085,2022-12-18 06:25:19
Jack in the Box,509 N 1st St,,Mabank,TX,75147,US,32.3714447,-96.09803772,2022-12-18 07:39:41
Jack in the Box,1563 W Main St,,Lewisville,TX,75067,US,33.04273605,-97.0320282,2022-12-18 06:25:21
Jack in the Box,3500 Grapevine Mills Pkwy #200,,Grapevine,TX,76051,US,32.97327805,-97.03591156,2022-12-16 15:27:48
Jack in the Box,8655 Cypress Waters Blvd,,Irving,TX,75063,US,32.92484665,-96.99246216,2022-12-16 15:27:45
Jack in the Box,1290 William D Tate Ave,,Grapevine,TX,76051,US,32.92677307,-97.08805847,2022-12-16 15:27:45
Jack in the Box,2452 Luna Rd,,Carrollton,TX,75006,US,32.91909027,-96.92581177,2022-12-16 15:27:45
Jack in the Box,5340 Macarthur Blvd,,Irving,TX,75038,US,32.88209915,-96.96343994,2022-12-16 15:27:45
Jack in the Box,2405 Royal Ln,,Dallas,TX,75229,US,32.89627838,-96.89881134,2022-12-16 15:27:45
Jack in the Box,3195 Royal Ln,,Dallas,TX,75229,US,32.89553833,-96.87142944,2022-12-16 15:27:45
Jack in the Box,2952 N Belt Line Rd,,Irving,TX,75062,US,32.84674835,-96.99184418,2022-12-16 15:27:45
Jack in the Box,300 Sw Wilshire Blvd,,Burleson,TX,76028,US,32.54171371,-97.33137512,2022-12-18 06:25:18
Jack in the Box,800 S Crowley Rd,,Crowley,TX,76036,US,32.56827164,-97.35310364,2022-12-18 06:25:18
Jack in the Box,7960 South Fwy,,Fort Worth,TX,76134,US,32.63285065,-97.32242584,2022-12-18 06:25:18
Jack in the Box,8513 S Hulen St,,Fort Worth,TX,76123,US,32.61829376,-97.38775635,2022-12-18 06:25:18
Jack in the Box,3459 Altamesa Blvd,,Fort Worth,TX,76133,US,32.64907455,-97.36659241,2022-12-18 06:25:18
Jack in the Box,804 E Seminary Dr,,Fort Worth,TX,76115,US,32.6839447,-97.3194809,2022-12-18 06:25:18
Jack in the Box,2105 Seminary Dr,,Fort Worth,TX,76115,US,32.68413162,-97.35089111,2022-12-18 06:25:18
Jack in the Box,7351 Oakmont Blvd,,Fort Worth,TX,76132,US,32.6615448,-97.41940308,2022-12-18 06:25:18
Jack in the Box,4610 S Hulen St,,Fort Worth,TX,76132,US,32.67952347,-97.39450836,2022-12-18 06:25:18
Jack in the Box,5780 S I-35 W,,Alvarado,TX,76009,US,32.41729736,-97.22879791,2022-12-18 06:25:18
Jack in the Box,2851 W Berry St,,Fort Worth,TX,76109,US,32.70589828,-97.35754395,2022-12-18 06:25:18
Jack in the Box,110 W Katherine P Rains Rd,,Cleburne,TX,76033,US,32.38399506,-97.39322662,2022-12-18 06:25:18
Jack in the Box,2916 E Berry St,,Ft Worth,TX,76105,US,32.71276855,-97.2831192,2022-12-16 15:27:47
Jack in the Box,1500 S University Dr,,Fort Worth,TX,76107,US,32.73012161,-97.36195374,2022-12-18 06:25:19
Jack in the Box,1001 South Fwy,,Fort Worth,TX,76104,US,32.73390198,-97.31977844,2022-12-16 15:27:44
Jack in the Box,15750 South Fwy,,Pearland,TX,77584,US,29.56900024,-95.38779449,2022-12-18 06:25:18
Jack in the Box,2702 Reid Blvd,,Pearland,TX,77581,US,29.55978775,-95.33164215,2022-12-16 15:27:42
Jack in the Box,14220 Cullen Blvd,,Houston,TX,77047,US,29.60024834,-95.35446167,2022-12-16 15:27:42
Jack in the Box,1240 W Orem Dr,,Houston,TX,77047,US,29.6270771,-95.3887558,2022-12-16 15:27:42
Jack in the Box,4400 W Fuqua St,,Houston,TX,77045,US,29.61368942,-95.44317627,2022-12-16 15:27:42
Jack in the Box,16310 S Post Oak Rd,,Houston,TX,77053,US,29.59034729,-95.47027588,2022-12-18 06:25:18
Jack in the Box,17502 Highway 6,,Manvel,TX,77578,US,29.48135376,-95.40023041,2022-12-18 06:54:29
Jack in the Box,12331 Highway 6,,Fresno,TX,77545,US,29.51760864,-95.47940826,2022-12-18 06:54:29
Jack in the Box,13602 S. Post Oak,,Houston,TX,77045,US,29.62809372,-95.46581268,2022-12-16 15:27:42
Jack in the Box,3426 Main St Ste 102,,Pearland,TX,77581,US,29.54721832,-95.2781601,2022-12-16 15:27:42
Jack in the Box,2709 Reed Rd,,Houston,TX,77051,US,29.6583519,-95.38532257,2022-12-16 15:27:42
Jack in the Box,5248 Allum Rd,,Houston,TX,77045,US,29.64128685,-95.46294403,2022-12-16 15:27:42
Jack in the Box,10004 Telephone Rd,,Houston,TX,77075,US,29.62009239,-95.28581238,2022-12-16 15:27:42
Jack in the Box,8497 S Sam Houston Pkwy E,,Houston,TX,77075,US,29.60122299,-95.26777649,2022-12-16 15:27:42
Jack in the Box,5715 Bellfort Ave,,Houston,TX,77033,US,29.66682816,-95.33646393,2022-12-16 15:27:44
Jack in the Box,13915 Fondren Rd,,Missouri City,TX,77489,US,29.6193428,-95.50800323,2022-12-18 06:25:19
Jack in the Box,9310 State Highway 6,,Missouri City,TX,77459,US,29.53696442,-95.53020477,2022-12-18 06:54:29
Jack in the Box,4920 W Bellfort St,,Houston,TX,77035,US,29.67097664,-95.46276093,2022-12-16 15:27:44
Jack in the Box,8767 S Main St,,Houston,TX,77025,US,29.69042969,-95.41679382,2022-12-16 15:27:44
Jack in the Box,1504 Texas Ave S,,College Station,TX,77840,US,30.61659622,-96.32155609,2022-12-18 06:25:08
Jack in the Box,2906 S Texas Ave,,Bryan,TX,77802,US,30.64344597,-96.35402679,2022-12-18 06:25:08
Jack in the Box,900 N Earl Rudder Fwy,,Bryan,TX,77802,US,30.67270851,-96.3367157,2022-12-18 06:25:08
Jack in the Box,400 Highway 290 W,,Brenham,TX,77833,US,30.14347458,-96.39673615,2022-12-18 06:25:08
Jack in the Box,1925 Fm 1488 Rd,,Hempstead,TX,77445,US,30.10506058,-96.04920959,2022-12-18 06:25:08
Jack in the Box,17607 Fm 1488 Rd,,Magnolia,TX,77354,US,30.21827316,-95.74047089,2022-12-18 06:25:08
Jack in the Box,3005 State Highway 30 W,,Huntsville,TX,77340,US,30.71776772,-95.57203674,2022-12-18 06:25:08
Jack in the Box,31014 Fm 2920 Rd,,Waller,TX,77484,US,30.06168747,-95.91038513,2022-12-18 06:25:08
Jack in the Box,2251 Sam Houston Ave,,Huntsville,TX,77340,US,30.70828438,-95.54981995,2022-12-18 06:25:08
Jack in the Box,14640 Highway 105 W,,Montgomery,TX,77356,US,30.3549614,-95.58401489,2022-12-18 06:25:08
Jack in the Box,3355 Harwood Rd,,Bedford,TX,76021,US,32.85240173,-97.11161804,2022-12-16 15:27:42
Jack in the Box,206 N Main St,,Euless,TX,76039,US,32.83969879,-97.08215332,2022-12-16 15:27:42
Jack in the Box,8416 Davis Blvd,,North Richland Hills,TX,76180,US,32.90641403,-97.19122314,2022-12-16 15:27:42
Jack in the Box,14100 Trinity Blvd,,Fort Worth,TX,76155,US,32.82176208,-97.05947113,2022-12-16 15:27:42
Jack in the Box,4206 W Airport Fwy,,Irving,TX,75062,US,32.83570099,-97.01088715,2022-12-16 15:27:45
Jack in the Box,3001 W Euless Blvd,,Euless,TX,76040,US,32.81594467,-97.13426208,2022-12-16 15:27:42
Jack in the Box,1491 Precinct Line Rd,,Hurst,TX,76053,US,32.83769226,-97.18683624,2022-12-16 15:27:42
Jack in the Box,2500 W Irving Blvd,,Irving,TX,75061,US,32.82811737,-96.9777298,2022-12-16 15:27:45
Jack in the Box,515 W Airport Fwy,,Irving,TX,75062,US,32.83806229,-96.95226288,2022-12-16 15:27:45
Jack in the Box,103 N Main St,,Keller,TX,76248,US,32.93514633,-97.25437927,2022-12-18 06:25:21
Jack in the Box,2085 N Highway 360,,Grand Prairie,TX,75050,US,32.78437805,-97.06053925,2022-12-16 15:27:42
Jack in the Box,6151 Highway 6,,Missouri City,TX,77459,US,29.56731606,-95.56502533,2022-12-18 06:54:29
Jack in the Box,1744 Dulles Ave,,Sugar Land,TX,77478,US,29.60025215,-95.58262634,2022-12-18 06:54:29
Jack in the Box,13124 S Dairy Ashford Rd,,Sugar Land,TX,77478,US,29.62452126,-95.60359955,2022-12-18 06:54:29
Jack in the Box,12175 Southwest Fwy,,Stafford,TX,77477,US,29.64392853,-95.57499695,2022-12-18 06:54:29
Jack in the Box,8601 W Bellfort St,,Houston,TX,77031,US,29.65533829,-95.52851105,2022-12-16 15:27:42
Jack in the Box,10806 Bissonnet St,,Houston,TX,77099,US,29.67460632,-95.56900024,2022-12-16 15:27:42
Jack in the Box,1418 Crabb River Rd,,Richmond,TX,77469,US,29.55335426,-95.69377899,2022-12-18 06:54:29
Jack in the Box,8410 Hillcroft St,,Houston,TX,77096,US,29.68735886,-95.49282837,2022-12-16 15:27:42
Jack in the Box,10901 Bellaire Blvd,,Houston,TX,77072,US,29.70355988,-95.57158661,2022-12-16 15:27:42
Jack in the Box,7221 Fondren Rd,,Houston,TX,77036,US,29.70207024,-95.51911926,2022-12-16 15:27:42
Jack in the Box,27 Wolfensberger Rd,,Castle Rock,CO,80109,US,39.38074875,-104.86360168,2022-12-18 06:25:14
Jack in the Box,3654 Austin Bluffs Pkwy,,Colorado Springs,CO,80918,US,38.89130783,-104.75836182,2022-12-18 06:25:15
Jack in the Box,3690 New Center Point Blvd,,Colorado Springs,CO,80922,US,38.88471985,-104.71813965,2022-12-18 06:25:15
Jack in the Box,6314 S US Highway 85-87,,Fountain,CO,80817,US,38.74004745,-104.73466492,2022-12-18 06:25:15
Jack in the Box,910 W US Highway 50,,Pueblo,CO,81008,US,38.30748367,-104.62107086,2022-12-18 06:25:15
Jack in the Box,4145 S Durango Dr,,Las Vegas,NV,89147,US,36.1139183,-115.27962494,2022-12-18 06:25:19
Jack in the Box,9360 W Tropicana Ave,,Las Vegas,NV,89147,US,36.10052872,-115.29633331,2022-12-18 06:25:19
Jack in the Box,7980 S Rainbow Blvd,,Las Vegas,NV,89139,US,36.04332733,-115.24292755,2022-12-18 06:25:19
Jack in the Box,7025 S Durango Dr,,Las Vegas,NV,89113,US,36.05998993,-115.27986908,2022-12-18 06:25:19
Jack in the Box,8661 W Charleston Blvd,,Las Vegas,NV,89117,US,36.15856552,-115.2824173,2022-12-18 06:25:21
Jack in the Box,2301 S Fort Apache Rd,,Las Vegas,NV,89117,US,36.1467247,-115.29832458,2022-12-18 06:25:21
Jack in the Box,40 Dover Crossing Rd,,Clarksville,TN,37042,US,36.55381775,-87.39664459,2022-12-18 06:25:09
Jack in the Box,1261 W Warm Springs Rd,,Henderson,NV,89014,US,36.05576324,-115.03987122,2022-12-18 06:25:15
Jack in the Box,6451 Boulder Hwy,,Las Vegas,NV,89122,US,36.08469772,-115.0315094,2022-12-18 06:25:15
Jack in the Box,5 S Gibson Rd,,Henderson,NV,89012,US,36.03085327,-115.02999115,2022-12-18 06:25:15
Jack in the Box,290 S Boulder Hwy,,Henderson,NV,89015,US,36.03679276,-114.97793579,2022-12-18 06:25:15
Jack in the Box,26 W Horizon Ridge Pkwy #110,,Henderson,NV,89012,US,36.01215363,-114.99188232,2022-12-18 06:25:15
Jack in the Box,10505 S Eastern Ave,,Henderson,NV,89052,US,36.00018692,-115.10667419,2022-12-18 06:25:15
Jack in the Box,4345 E Charleston Blvd,,Las Vegas,NV,89104,US,36.15853882,-115.07913971,2022-12-18 06:25:15
Jack in the Box,11353 Firestone Blvd,,Norwalk,CA,90650,US,33.91790771,-118.09085846,2022-12-16 15:27:48
Jack in the Box,12603 Norwalk Blvd,,Norwalk,CA,90650,US,33.91669464,-118.07292175,2022-12-16 15:27:48
Jack in the Box,12060 Rosecrans Ave,,Norwalk,CA,90650,US,33.90196228,-118.07590485,2022-12-16 15:27:44
Jack in the Box,10205 E Rosecrans Ave,,Bellflower,CA,90706,US,33.90229034,-118.11630249,2022-12-16 15:27:45
Jack in the Box,9511 Firestone Blvd,,Downey,CA,90241,US,33.93083572,-118.11346436,2022-12-16 15:27:48
Jack in the Box,13402 Imperial Hwy,,Santa Fe Springs,CA,90670,US,33.91661453,-118.04646301,2022-12-16 15:27:44
Jack in the Box,9501 Imperial Hwy,,Downey,CA,90242,US,33.91732788,-118.12480927,2022-12-16 15:27:48
Jack in the Box,11442 Telegraph Rd,,Santa Fe Springs,CA,90670,US,33.94831848,-118.08944702,2022-12-16 15:27:48
Jack in the Box,13400 Telegraph Rd,,Whittier,CA,90605,US,33.93980408,-118.04627228,2022-12-16 15:27:48
Jack in the Box,18299 Pioneer Blvd,,Artesia,CA,90701,US,33.86595535,-118.08260345,2022-12-16 15:27:44
Jack in the Box,10037 Lakewood Blvd,,Downey,CA,90240,US,33.94792938,-118.11748505,2022-12-16 15:27:44
Jack in the Box,17600 Bellflower Blvd,,Bellflower,CA,90706,US,33.8727951,-118.12471771,2022-12-16 15:27:42
Jack in the Box,14437 Telegraph Rd,,Whittier,CA,90604,US,33.92464828,-118.02298737,2022-12-16 15:27:44
Jack in the Box,7905 E Imperial Hwy,,Downey,CA,90242,US,33.92544937,-118.15401459,2022-12-16 15:27:48
Jack in the Box,8433 Alondra Blvd,,Paramount,CA,90723,US,33.8895607,-118.1522522,2022-12-16 15:27:45
Jack in the Box,8136 Telegraph Blvd,,Downey,CA,90240,US,33.96724701,-118.11663055,2022-12-16 15:27:44
Jack in the Box,11303 Washington Blvd,,Whittier,CA,90606,US,33.97210693,-118.0705719,2022-12-16 15:27:48
Jack in the Box,7930 Rosecrans Ave,,Paramount,CA,90723,US,33.90325928,-118.16074371,2022-12-16 15:27:45
Jack in the Box,13561 Whittier Blvd,,Whittier,CA,90605,US,33.9618721,-118.02999878,2022-12-16 15:27:48
Jack in the Box,5990 Orangethorpe Ave,,Buena Park,CA,90620,US,33.85836411,-118.02921295,2022-12-16 15:27:44
Jack in the Box,802 3rd Ave,,Chula Vista,CA,91911,US,32.62360382,-117.07339478,2022-12-16 15:27:44
Jack in the Box,370 E H St,,Chula Vista,CA,91910,US,32.64014053,-117.04924011,2022-12-18 06:25:21
Jack in the Box,486 Broadway,,Chula Vista,CA,91910,US,32.63133621,-117.09004974,2022-12-16 15:27:44
Jack in the Box,5 N 4th Ave,,Chula Vista,CA,91910,US,32.65109634,-117.08765411,2022-12-16 15:27:44
Jack in the Box,4011 Bonita Rd,,Bonita,CA,91902,US,32.658535,-117.04073334,2022-12-18 06:25:21
Jack in the Box,1408 3rd Ave,,Chula Vista,CA,91911,US,32.60279083,-117.06522369,2022-12-16 15:27:44
Jack in the Box,585 Palomar St,,Chula Vista,CA,91911,US,32.60324478,-117.07782745,2022-12-16 15:27:44
Jack in the Box,3138 Plaza Blvd,,National City,CA,91950,US,32.68212891,-117.07258606,2022-12-16 15:27:44
Jack in the Box,2905 Alta View Dr,,San Diego,CA,92139,US,32.67627716,-117.0397644,2022-12-18 06:25:21
Jack in the Box,1132 30th St,,San Diego,CA,92154,US,32.57553101,-117.0692215,2022-12-16 15:27:44
Jack in the Box,947 Otay Lake Rd,,Chula Vista,CA,91913,US,32.64131165,-116.99224854,2022-12-18 06:25:21
Jack in the Box,1880 Coronado Ave,,San Diego,CA,92154,US,32.57686234,-117.09325409,2022-12-16 15:27:45
Jack in the Box,942 Dennery Rd,,Otay Mesa,CA,92154,US,32.57671738,-117.0352478,2022-12-18 06:25:21
Jack in the Box,890 Palm Ave,,Imperial Beach,CA,91932,US,32.58428574,-117.11458588,2022-12-16 15:27:45
Jack in the Box,402 W San Ysidro Blvd,,San Ysidro,CA,92173,US,32.55520248,-117.05216217,2022-12-18 06:25:21
Jack in the Box,7101 Will Clayton Pkwy,,Humble,TX,77338,US,29.98374557,-95.28103638,2022-12-16 15:27:42
Jack in the Box,7810 Fm 1960 Bypass Rd W,,Humble,TX,77338,US,30.00382042,-95.30795288,2022-12-16 15:27:42
Jack in the Box,18 Wilson Rd,,Humble,TX,77338,US,30.0017395,-95.251091,2022-12-18 06:25:21
Jack in the Box,2800 N Terminal Rd,,Houston,TX,77032,US,29.98760986,-95.34918976,2022-12-16 15:27:42
Jack in the Box,7019 N Sam Houston Pkwy E,,Humble,TX,77396,US,29.94152832,-95.28113556,2022-12-16 15:27:42
Jack in the Box,15819 John F Kennedy Blvd,,Houston,TX,77032,US,29.94834137,-95.33235168,2022-12-16 15:27:42
Jack in the Box,21510 Aldine Westfield Rd,,Humble,TX,77338,US,30.02792931,-95.38037872,2022-12-16 15:27:42
Jack in the Box,7417 Fm 1960 Rd E,,Humble,TX,77346,US,29.99875641,-95.16348267,2022-12-18 06:25:21
Jack in the Box,739 N Sam Houston Pkwy E,,Houston,TX,77060,US,29.93992805,-95.38453674,2022-12-16 15:27:48
Jack in the Box,3907 Aldine Mail Rd,,Houston,TX,77039,US,29.90286446,-95.33427429,2022-12-16 15:27:42
Jack in the Box,11911 Eastex Fwy,,Houston,TX,77039,US,29.89689445,-95.31581116,2022-12-16 15:27:42
Jack in the Box,647 Rankin Rd,,Houston,TX,77073,US,29.96643066,-95.40302277,2022-12-16 15:27:48
Jack in the Box,23183 Fm 1314 Rd,,Porter,TX,77365,US,30.11235046,-95.26432037,2022-12-18 06:25:21
Jack in the Box,251 Greens Rd,,Houston,TX,77060,US,29.95018387,-95.41259003,2022-12-16 15:27:48
Jack in the Box,11234 Airline Dr,,Houston,TX,77037,US,29.91983795,-95.40632629,2022-12-16 15:27:42
Jack in the Box,2218 Little York Rd,,Houston,TX,77093,US,29.87050819,-95.35122681,2022-12-16 15:27:42
Jack in the Box,1055 N Park Ave,,Tucson,AZ,85719,US,32.23571014,-110.95700836,2022-12-18 06:25:12
Jack in the Box,3121 N Campbell Ave,,Tucson,AZ,85719,US,32.26366806,-110.94420624,2022-12-18 06:25:12
Jack in the Box,305 W Grant Rd,,Tucson,AZ,85705,US,32.24985886,-110.97703552,2022-12-18 06:25:12
Jack in the Box,3326 E Grant Rd,,Tucson,AZ,85716,US,32.25014114,-110.92172241,2022-12-18 06:25:12
Jack in the Box,1202 W St Marys Rd,,Tucson,AZ,85745,US,32.22987366,-110.99002838,2022-12-18 06:25:12
Jack in the Box,4450 1st Ave,,Tucson,AZ,85719,US,32.28753281,-110.9604187,2022-12-18 06:25:12
Jack in the Box,4455 E Broadway Blvd,,Tucson,AZ,85711,US,32.22190475,-110.89693451,2022-12-18 06:25:12
Jack in the Box,4949 N Oracle Rd,,Tucson,AZ,85704,US,32.29687119,-110.9789505,2022-12-18 06:25:12
Jack in the Box,3397 S 6th Ave,,Tucson,AZ,85713,US,32.18521881,-110.96784973,2022-12-18 06:25:12
Jack in the Box,1195 S Craycroft Rd,,Tucson,AZ,85711,US,32.20735168,-110.87454224,2022-12-18 06:25:12
Jack in the Box,3749 S Mission Rd,,Tucson,AZ,85713,US,32.17943573,-111.00291443,2022-12-18 06:25:12
Jack in the Box,6380 E Golf Links Rd,,Tucson,AZ,85730,US,32.19136047,-110.85556793,2022-12-18 06:25:12
Jack in the Box,7910 E Speedway Blvd,,Tucson,AZ,85710,US,32.23492432,-110.82330322,2022-12-18 06:25:12
Jack in the Box,550 W Valencia Rd,,Tucson,AZ,85706,US,32.13438034,-110.9773407,2022-12-18 06:25:12
Jack in the Box,4479 W Ina Rd,,Tucson,AZ,85741,US,32.33719635,-111.06043243,2022-12-18 06:25:13
Jack in the Box,5000 E Valencia Rd,,Tucson,AZ,85756,US,32.13348007,-110.88594055,2022-12-18 06:25:12
Jack in the Box,2985 W Valencia Rd,,Tucson,AZ,85746,US,32.13319016,-111.03135681,2022-12-18 06:25:12
Jack in the Box,9530 E 22nd St,,Tucson,AZ,85748,US,32.20537567,-110.78915405,2022-12-18 06:25:12
Jack in the Box,13925 N Sandario Rd,,Marana,AZ,85653,US,32.45928574,-111.2175293,2022-12-18 06:25:13
Jack in the Box,601 E. 4th St,,Benson,AZ,85602,US,31.970047,-110.30744171,2022-12-18 06:25:12
Jack in the Box,26547 Bouquet Canyon Rd,,Santa Clarita,CA,91350,US,34.42851257,-118.53669739,2022-12-16 15:27:44
Jack in the Box,28083 Newhall Ranch Rd,,Valencia,CA,91355,US,34.44195557,-118.57527924,2022-12-16 15:27:44
Jack in the Box,28144 The Old Rd,,Valencia,CA,91355,US,34.43296432,-118.59151459,2022-12-16 15:27:44
Jack in the Box,24820 Pico Canyon Rd,,Santa Clarita,CA,91381,US,34.38000107,-118.56928253,2022-12-16 15:27:45
Jack in the Box,22908 Lyons Ave,,Santa Clarita,CA,91321,US,34.37998199,-118.53331757,2022-12-16 15:27:44
Jack in the Box,28090 N Hasley Canyon Rd,,Castaic,CA,91384,US,34.44989014,-118.62558746,2022-12-16 15:27:45
Jack in the Box,18955 W Soledad Cyn Rd,,Canyon Country,CA,91351,US,34.41621399,-118.46676636,2022-12-16 15:27:44
Jack in the Box,18525 Via Princessa,,Santa Clarita,CA,91387,US,34.4035759,-118.45848083,2022-12-16 15:27:44
Jack in the Box,31769 The Old Rd,,Castaic,CA,91384,US,34.49546814,-118.62523651,2022-12-16 15:27:44
Jack in the Box,11216 Tampa Ave,,Northridge,CA,91326,US,34.27400208,-118.55600739,2022-12-16 15:27:44
Jack in the Box,16945 San Fernando Mission,,Granada Hills,CA,91344,US,34.27227783,-118.5014801,2022-12-16 15:27:44
Jack in the Box,13622 Foothill Blvd,,Sylmar,CA,91342,US,34.30703354,-118.43032837,2022-12-16 15:27:44
Jack in the Box,17744 Chatsworth St,,Granada Hills,CA,91344,US,34.26464844,-118.52129364,2022-12-16 15:27:44
Jack in the Box,314 San Fernando Mission Blvd,,San Fernando,CA,91340,US,34.2832222,-118.4438858,2022-12-16 15:27:44
Jack in the Box,9855 Mason Ave,,Chatsworth,CA,91311,US,34.24901581,-118.58000946,2022-12-16 15:27:45
Jack in the Box,9433 Reseda Blvd,,Northridge,CA,91324,US,34.24207687,-118.53640747,2022-12-16 15:27:44
Jack in the Box,13648 Van Nuys Blvd,,Pacoima,CA,91331,US,34.2600174,-118.43000793,2022-12-16 15:27:44
Jack in the Box,15651 Nordhoff St,,Sepulveda,CA,91343,US,34.23596191,-118.47380066,2022-12-16 15:27:44
Jack in the Box,19322 Roscoe Blvd,,Northridge,CA,91324,US,34.22021103,-118.55436707,2022-12-16 15:27:44
Jack in the Box,3025 E Shaw Ave,,Fresno,CA,93710,US,36.80813599,-119.73587799,2022-12-18 06:25:14
Jack in the Box,1680 Herndon Ave,,Clovis,CA,93611,US,36.83705902,-119.68449402,2022-12-18 06:25:14
Jack in the Box,3120 Fowler Ave,,Clovis,CA,93611,US,36.79547882,-119.68253326,2022-12-18 06:25:14
Jack in the Box,8008 N Cedar Ave,,Fresno,CA,93720,US,36.85285187,-119.75624084,2022-12-18 06:25:14
Jack in the Box,1167 N Clovis Ave,,Fresno,CA,93727,US,36.75841904,-119.70088196,2022-12-18 06:25:14
Jack in the Box,6720 N Blackstone Ave,,Fresno,CA,93710,US,36.8359375,-119.78965759,2022-12-18 06:25:14
Jack in the Box,2124 N Blackstone Hwy,,Fresno,CA,93703,US,36.77025223,-119.79020691,2022-12-18 06:25:14
Jack in the Box,4968 E Kings Canyon Rd,,Fresno,CA,93727,US,36.73558044,-119.72942352,2022-12-18 06:25:14
Jack in the Box,3110 E Tulare St,,Fresno,CA,93702,US,36.74281311,-119.77198029,2022-12-18 06:25:14
Jack in the Box,2195 W Shaw Ave,,Fresno,CA,93711,US,36.80781555,-119.83063507,2022-12-18 06:25:14
Jack in the Box,1405 W. Olive Ave,,Fresno,CA,93708,US,36.75716019,-119.82805634,2022-12-18 06:25:14
Jack in the Box,3058 W Clinton Ave,,Fresno,CA,93722,US,36.77223206,-119.84520721,2022-12-18 06:25:14
Jack in the Box,6759 N Milburn Ave,,Fresno,CA,93722,US,36.83571243,-119.87956238,2022-12-18 06:25:14
Jack in the Box,3085 E Central Ave,,Fresno,CA,93725,US,36.67736053,-119.7358551,2022-12-18 06:25:14
Jack in the Box,1300 Jensen Ave,,Sanger,CA,93657,US,36.70811462,-119.55677032,2022-12-18 06:25:14
Jack in the Box,206 S 10th St,,Fowler,CA,93625,US,36.62670135,-119.6831131,2022-12-18 06:25:14
Jack in the Box,2867 Highland Ave,,Selma,CA,93662,US,36.57588196,-119.63071442,2022-12-18 06:25:14
Jack in the Box,14761 W Whitesbridge Ave,,Kerman,CA,93630,US,36.73458481,-120.05670166,2022-12-18 06:25:15
Jack in the Box,605 I St,,Reedley,CA,93654,US,36.60144424,-119.46128082,2022-12-18 06:25:14
Jack in the Box,1545 E Yosemite Rd,,Madera,CA,93638,US,36.97421646,-120.04244232,2022-12-18 06:25:17
Jack in the Box,3493 Mckee Rd,,San Jose,CA,95127,US,37.38104248,-121.82731628,2022-12-18 06:25:17
Jack in the Box,911 El Camino Real,,Santa Clara,CA,95050,US,37.35497284,-121.94654846,2022-12-18 06:25:15
Jack in the Box,15 S Capitol Ave,,San Jose,CA,95127,US,37.36183548,-121.83570862,2022-12-18 06:25:17
Jack in the Box,148 E San Carlos St,,San Jose,CA,95112,US,37.33266068,-121.88413239,2022-12-18 06:25:15
Jack in the Box,1841 Story Rd,,San Jose,CA,95122,US,37.34147644,-121.84155273,2022-12-18 06:25:15
Jack in the Box,3367 El Camino Real,,Santa Clara,CA,95051,US,37.35271454,-121.98825073,2022-12-18 06:25:15
Jack in the Box,1558 W San Carlos St,,San Jose,CA,95126,US,37.32310867,-121.91928101,2022-12-18 06:25:15
Jack in the Box,3395 Stevens Creek Blvd,,Santa Clara,CA,95050,US,37.32360458,-121.95819092,2022-12-18 06:25:15
Jack in the Box,1490 Monterey Rd,,San Jose,CA,95110,US,37.3150177,-121.87206268,2022-12-18 06:25:15
Jack in the Box,3465 Homestead Rd,,Santa Clara,CA,95051,US,37.33811569,-121.99261475,2022-12-18 06:25:15
Jack in the Box,1075 Willow St,,San Jose,CA,95125,US,37.309021,-121.9006424,2022-12-18 06:25:15
Jack in the Box,1632 Tully Rd,,San Jose,CA,95122,US,37.3205719,-121.82777405,2022-12-18 06:25:17
Jack in the Box,13000 SD-244 Test Lab,,Keystone,SD,57751,US,43.8765564,-103.45469666,2022-12-18 06:25:21
Jack in the Box,1072 Edgebrook Dr,,Houston,TX,77034,US,29.64250946,-95.23989868,2022-12-16 15:27:45
Jack in the Box,8111 Airport Blvd,,Houston,TX,77061,US,29.65865135,-95.2698822,2022-12-16 15:27:44
Jack in the Box,1202 College Ave,,South Houston,TX,77587,US,29.65695572,-95.24349213,2022-12-16 15:27:47
Jack in the Box,8000 Howard Dr,,Houston,TX,77017,US,29.67643356,-95.26598358,2022-12-16 15:27:44
Jack in the Box,1 Corvette Dr,,Litchfield,IL,62056,US,39.17610931,-89.67581177,2022-12-18 06:25:08
Jack in the Box,1382 Belt Line Rd,,Garland,TX,75040,US,32.94466782,-96.6476059,2022-12-18 06:25:17
Jack in the Box,1350 S Plano Rd,,Richardson,TX,75081,US,32.93225479,-96.70062256,2022-12-18 06:25:17
Jack in the Box,3317 1st St,,Rosenberg,TX,77471,US,29.53348923,-95.80776978,2022-12-18 06:54:29
Jack in the Box,5106 Mcpherson Ave,,Laredo,TX,78041,US,27.54191971,-99.48387146,2022-12-18 06:25:14
Jack in the Box,7101 San Dario Ave,,Laredo,TX,78045,US,27.56744766,-99.50205231,2022-12-18 06:25:14
Jack in the Box,3501 San Dario Ave,,Laredo,TX,78041,US,27.53122139,-99.50225067,2022-12-18 06:25:14
Jack in the Box,5002 Saunders St,,Laredo,TX,78041,US,27.52895927,-99.4441452,2022-12-18 06:25:14
Jack in the Box,2612 Cortez St,,Laredo,TX,78043,US,27.5032196,-99.469841,2022-12-18 06:25:14
Jack in the Box,10519 McPherson Rd,,Laredo,TX,78045,US,27.60599136,-99.47599792,2022-12-18 06:25:14
Jack in the Box,4502 S Zapata Hwy,,Laredo,TX,78046,US,27.45112419,-99.47865295,2022-12-18 06:25:14
Jack in the Box,11729 Bandera Rd,,San Antonio,TX,78250,US,29.55168343,-98.66725159,2022-12-18 06:25:18
Jack in the Box,2070 N Dobson Rd,,Chandler,AZ,85224,US,33.33603668,-111.87709808,2022-12-18 06:25:22
Jack in the Box,4900 W Ray Rd,,Chandler,AZ,85226,US,33.32039261,-111.92571259,2022-12-18 06:25:22
Jack in the Box,4950 E Ray Rd,,Phoenix,AZ,85044,US,33.32045746,-111.97670746,2022-12-18 06:25:22
Jack in the Box,2330 E Baseline Rd,,Phoenix,AZ,85042,US,33.37836456,-112.03142548,2022-12-16 15:27:44
Jack in the Box,3501 State Highway 528 NW,,Albuquerque,NM,87114,US,35.20578003,-106.64975739,2022-12-18 07:39:41
Jack in the Box,2721 Carlisle Blvd Ne,,Albuquerque,NM,87110,US,35.11265182,-106.60475922,2022-12-18 07:39:41
Jack in the Box,7601 Menaul Blvd Ne,,Albuquerque,NM,87110,US,35.10951614,-106.5595932,2022-12-18 07:39:41
Jack in the Box,301 98th St Nw,,Albuquerque,NM,87121,US,35.07765198,-106.74446869,2022-12-18 07:39:41
Jack in the Box,3609 State Highway 528 Ne,,Rio Rancho,NM,87144,US,35.32051086,-106.57581329,2022-12-18 07:39:41
Jack in the Box,10100 Central Ave Se,,Albuquerque,NM,87123,US,35.07170868,-106.53508759,2022-12-18 07:39:41
Jack in the Box,1120 S Mooney Blvd,,Visalia,CA,93277,US,36.32052994,-119.3135376,2022-12-18 06:25:14
Jack in the Box,107 W Caldwell Ave,,Visalia,CA,93277,US,36.2976799,-119.29193878,2022-12-18 06:25:14
Jack in the Box,5340 W Cypress Ave,,Visalia,CA,93277,US,36.32532501,-119.35037994,2022-12-18 06:25:14
Jack in the Box,1400 N Ben Maddox Way,,Visalia,CA,93292,US,36.34218979,-119.27838135,2022-12-18 06:25:14
Jack in the Box,3416 N Dinuba Blvd,,Visalia,CA,93291,US,36.36032486,-119.29632568,2022-12-18 06:25:14
Jack in the Box,131 N Ferne St,,Visalia,CA,93291,US,36.33044434,-119.38955688,2022-12-18 06:25:14
Jack in the Box,1662 N Farmersville Blvd,,Farmersville,CA,93223,US,36.31190872,-119.2066803,2022-12-18 06:25:14
Jack in the Box,444 E Tulare Ave,,Tulare,CA,93274,US,36.20891571,-119.34260559,2022-12-18 06:25:14
Jack in the Box,958 S Mooney Blvd,,Tulare,CA,93274,US,36.19690704,-119.31304169,2022-12-18 06:25:14
Jack in the Box,2100 E El Monte Way,,Dinuba,CA,93618,US,36.54520035,-119.37198639,2022-12-18 06:25:14
Jack in the Box,1518 N 11th Ave,,Hanford,CA,93230,US,36.34206009,-119.65554047,2022-12-18 06:25:15
Jack in the Box,1650 W Lacey Blvd,,Hanford,CA,93230,US,36.32839203,-119.67192078,2022-12-18 06:25:15
Jack in the Box,1075 W Henderson Ave,,Porterville,CA,93257,US,36.0800705,-119.04111481,2022-12-18 06:25:14
Jack in the Box,390 W Olive Ave,,Porterville,CA,93257,US,36.06623077,-119.02579498,2022-12-18 06:25:14
Jack in the Box,31 E Hanford Armona Rd,,Lemoore,CA,93245,US,36.31304932,-119.78028107,2022-12-18 06:25:15
Jack in the Box,830 S Broadway,,Santa Maria,CA,93454,US,34.943367,-120.43553925,2022-12-18 06:25:16
Jack in the Box,705 E Betteravia Rd,,Santa Maria,CA,93454,US,34.92405701,-120.42367554,2022-12-18 06:25:16
Jack in the Box,1041 E Main St,,Santa Maria,CA,93454,US,34.9534874,-120.41846466,2022-12-18 06:25:16
Jack in the Box,2306 S Broadway,,Santa Maria,CA,93454,US,34.91841888,-120.43553162,2022-12-18 06:25:16
Jack in the Box,5001 Orcutt Rd,,Orcutt,CA,93455,US,34.86448669,-120.43572998,2022-12-18 06:25:16
Jack in the Box,1208 Grand Ave,,Arroyo Grande,CA,93420,US,35.12089157,-120.60079956,2022-12-18 06:25:16
Jack in the Box,334 Five Cities Dr,,Pismo Beach,CA,93449,US,35.13715363,-120.62847137,2022-12-18 06:25:16
Jack in the Box,539 N H St,,Lompoc,CA,93436,US,34.64670181,-120.4581604,2022-12-18 06:25:16
Jack in the Box,250 E Highway 246,,Buellton,CA,93427,US,34.61035156,-120.186203,2022-12-18 06:25:16
Jack in the Box,390 Santa Rosa St,,San Luis Obispo,CA,93405,US,35.28784561,-120.66423798,2022-12-16 15:27:50
Jack in the Box,9000 W Front St,,Atascadero,CA,93422,US,35.46828842,-120.65403748,2022-12-16 15:27:50
Jack in the Box,1900 Ramada Dr,,Paso Robles,CA,93446,US,35.58958435,-120.69372559,2022-12-16 15:27:50
Jack in the Box,6875 Hollister Ave,,Goleta,CA,93117,US,34.42986298,-119.86878967,2022-12-18 06:25:16
Jack in the Box,1499 Creston Rd,,Paso Robles,CA,93446,US,35.61610794,-120.65871429,2022-12-16 15:27:50
Jack in the Box,1790 W Chandler Blvd,,Chandler,AZ,85224,US,33.30644989,-111.87445831,2022-12-18 06:25:22
Jack in the Box,141 N Arizona Ave,,Chandler,AZ,85225,US,33.30538559,-111.84098053,2022-12-18 06:25:20
Jack in the Box,2090 N Arizona Ave,,Chandler,AZ,85225,US,33.33673096,-111.84228516,2022-12-18 06:25:22
Jack in the Box,4250 S Arizona Ave,,Chandler,AZ,85248,US,33.24469376,-111.8418808,2022-12-18 06:25:20
Jack in the Box,900 N Cooper Rd,,Chandler,AZ,85225,US,33.31961823,-111.80738831,2022-12-18 06:25:20
Jack in the Box,955 E Riggs Rd,,Chandler,AZ,85249,US,33.2182312,-111.82626343,2022-12-18 06:25:20
Jack in the Box,4119 N 7th St,,Phoenix,AZ,85014,US,33.49544525,-112.06468201,2022-12-16 15:27:39
Jack in the Box,132 W Mcdowell Rd,,Phoenix,AZ,85003,US,33.46607208,-112.07756042,2022-12-16 15:27:39
Jack in the Box,1601 E Van Buren St,,Phoenix,AZ,85006,US,33.45112228,-112.04723358,2022-12-16 15:27:39
Jack in the Box,2440 W Thomas Rd,,Phoenix,AZ,85015,US,33.48100281,-112.11230469,2022-12-16 15:27:39
Jack in the Box,620 E Buckeye Rd,,Phoenix,AZ,85004,US,33.43719101,-112.0655899,2022-12-16 15:27:45
Jack in the Box,2701 W Camelback Rd,,Phoenix,AZ,85017,US,33.50918961,-112.11741638,2022-12-16 15:27:39
Jack in the Box,5959 W Baseline Rd,,Phoenix,AZ,85339,US,33.45119858,-112.09926605,2022-12-16 15:27:39
Jack in the Box,1833 W Van Buren St,,Phoenix,AZ,85007,US,33.4509964,-112.0993042,2022-12-16 15:27:45
Jack in the Box,1902 W Buckeye Rd,,Phoenix,AZ,85009,US,33.43725204,-112.10030365,2022-12-16 15:27:45
Jack in the Box,3455 W Mcdowell Rd,,Phoenix,AZ,85009,US,33.46561432,-112.13404083,2022-12-16 15:27:50
Jack in the Box,13738 W Bell Rd,,Surprise,AZ,85374,US,33.6391716,-112.35482788,2022-12-18 06:25:22
Jack in the Box,16760 W Bell Rd,,Surprise,AZ,85374,US,33.63935852,-112.41927338,2022-12-18 06:25:22
Jack in the Box,15333 W Waddell Rd,,Surprise,AZ,85379,US,33.60895538,-112.3911438,2022-12-18 06:25:22
Jack in the Box,13860 W Camelback Rd,,Litchfield Park,AZ,85340,US,33.50937653,-112.35752869,2022-12-18 06:25:22
Jack in the Box,9152 W Glendale Ave,,Glendale,AZ,85305,US,33.53806686,-112.25727081,2022-12-18 06:25:22
Jack in the Box,9920 W Indian School Rd,,Phoenix,AZ,85037,US,33.49429321,-112.27407074,2022-12-16 15:27:37
Jack in the Box,8225 W Camelback Rd,,Phoenix,AZ,85033,US,33.50839615,-112.23668671,2022-12-16 15:27:37
Jack in the Box,13088 W Rancho Santa Fe Blvd,,Avondale,AZ,85392,US,33.46121979,-112.34043884,2022-12-16 15:27:37
Jack in the Box,520 N Estrella Pkwy,,Goodyear,AZ,85338,US,33.45245743,-112.39323425,2022-12-18 06:25:22
Jack in the Box,9050 W Thomas Rd,,Phoenix,AZ,85037,US,33.48115921,-112.25469971,2022-12-16 15:27:37
Jack in the Box,10307 W McDowell Rd,,Avondale,AZ,85323,US,33.4642334,-112.28164673,2022-12-16 15:27:37
Jack in the Box,1231 W Whittier Blvd,,La Habra,CA,90631,US,33.93944168,-117.96003723,2022-12-16 15:27:42
Jack in the Box,439 E Imperial Hwy,,Fullerton,CA,92835,US,33.9177475,-117.92469025,2022-12-16 15:27:42
Jack in the Box,15948 Whittier Blvd,,Whittier,CA,90603,US,33.9425621,-117.98956299,2022-12-16 15:27:44
Jack in the Box,315 S Brea Blvd,,Brea,CA,92821,US,33.91596603,-117.90110016,2022-12-16 15:27:42
Jack in the Box,1010 N Harbor Blvd,,Fullerton,CA,92832,US,33.87989807,-117.92408752,2022-12-16 15:27:42
Jack in the Box,5460 Beach Blvd,,Buena Park,CA,90621,US,33.88195419,-117.99703979,2022-12-16 15:27:44
Jack in the Box,2315 W Orangethorpe Ave,,Fullerton,CA,92833,US,33.85947418,-117.96880341,2022-12-16 15:27:42
Jack in the Box,235 E Orangethorpe Ave,,Fullerton,CA,92832,US,33.85975647,-117.92081451,2022-12-16 15:27:42
Jack in the Box,1155 N Euclid Ave,,Anaheim,CA,92801,US,33.84938812,-117.94212341,2022-12-16 15:27:42
Jack in the Box,751 N Placentia Ave,,Fullerton,CA,92831,US,33.87656784,-117.87863159,2022-12-16 15:27:42
Jack in the Box,1101 N Magnolia Ave,,Anaheim,CA,92801,US,33.84747314,-117.97678375,2022-12-16 15:27:44
Jack in the Box,18950 Colima Rd,,Rowland Heights,CA,91748,US,33.9873085,-117.89025879,2022-12-16 15:27:42
Jack in the Box,1159 S Hacienda Blvd,,Hacienda Heights,CA,91745,US,34.00925446,-117.96406555,2022-12-16 15:27:42
Jack in the Box,1159 S Hacienda Blvd,,Hacienda Heights,CA,91745,US,34.00925446,-117.96406555,2022-12-16 15:27:42
Jack in the Box,797 W Orangethorpe Ave,,Placentia,CA,92870,US,33.86040497,-117.88259125,2022-12-16 15:27:42
Jack in the Box,22730 Victory Blvd,,Woodland Hills,CA,91367,US,34.18621445,-118.62223053,2022-12-16 15:27:45
Jack in the Box,7264 Topanga Canyon Blvd,,Canoga Park,CA,91303,US,34.20254135,-118.60562134,2022-12-16 15:27:45
Jack in the Box,20840 Roscoe Blvd,,Canoga Park,CA,91306,US,34.21971893,-118.5877533,2022-12-16 15:27:45
Jack in the Box,22664 Ventura Blvd,,Woodland Hills,CA,91364,US,34.16667938,-118.62030792,2022-12-16 15:27:47
Jack in the Box,6800 De Soto Ave,,Canoga Park,CA,91303,US,34.19414902,-118.58795166,2022-12-16 15:27:45
Jack in the Box,20037 Ventura Blvd,,Woodland Hills,CA,91364,US,34.1717186,-118.56986237,2022-12-18 06:25:20
Jack in the Box,804 N Nellis Blvd,,Las Vegas,NV,89110,US,36.17442322,-115.0616684,2022-12-18 06:25:15
Jack in the Box,1610 N Lamb Blvd,,Las Vegas,NV,89115,US,36.18890762,-115.07952118,2022-12-16 15:27:42
Jack in the Box,2104 Las Vegas Blvd N,,North Las Vegas,NV,89030,US,36.19778061,-115.12580872,2022-12-16 15:27:42
Jack in the Box,1331 Sw Loop 410,,San Antonio,TX,78227,US,29.42237854,-98.65036774,2022-12-18 07:39:41
Jack in the Box,11211 Potranco Rd,,San Antonio,TX,78253,US,29.43555832,-98.7148819,2022-12-18 07:39:41
Jack in the Box,6811 W Military Dr,,San Antonio,TX,78227,US,29.40420532,-98.62941742,2022-12-18 07:39:41
Jack in the Box,506 New Valley Hi Dr,,San Antonio,TX,78227,US,29.37912941,-98.64199829,2022-12-18 07:39:41
Jack in the Box,3702 Sw Military Dr,,San Antonio,TX,78211,US,29.35816383,-98.56231689,2022-12-18 07:39:41
Jack in the Box,3706 S Zarzamora St,,San Antonio,TX,78225,US,29.38755226,-98.53252411,2022-12-18 07:39:41
Jack in the Box,207 E Fairview Ave,,Meridian,ID,83642,US,43.61893082,-116.38983154,2022-12-18 06:25:17
Jack in the Box,3010 E Goldstone Dr Unit E,,Meridian,ID,83642,US,43.58628464,-116.35530853,2022-12-18 06:25:17
Jack in the Box,10496 Overland Rd,,Boise,ID,83709,US,43.59069061,-116.3129425,2022-12-18 06:25:17
Jack in the Box,6300 N Eagle Rd,,Boise,ID,83713,US,43.66233826,-116.3532486,2022-12-18 06:25:17
Jack in the Box,9052 W Fairview Ave,,Boise,ID,83704,US,43.61977386,-116.29468536,2022-12-18 06:25:17
Jack in the Box,3220 N Cole Rd,,Boise,ID,83704,US,43.63428879,-116.27362061,2022-12-18 06:25:17
Jack in the Box,16101 Idaho Center Blvd,,Nampa,ID,83687,US,43.60709763,-116.5137558,2022-12-18 06:25:17
Jack in the Box,7040 W State St,,Boise,ID,83714,US,43.66767502,-116.27727509,2022-12-18 06:25:17
Jack in the Box,1302 S Orchard St,,Boise,ID,83705,US,43.59238434,-116.24311829,2022-12-18 06:25:17
Jack in the Box,3220 W State St,,Boise,ID,83703,US,43.6362381,-116.22902679,2022-12-18 06:25:17
Jack in the Box,1124 S Vista Ave,,Boise,ID,83705,US,43.59375381,-116.21338654,2022-12-18 06:25:17
Jack in the Box,1700 N Franklin Blvd,,Nampa,ID,83687,US,43.60003281,-116.55243683,2022-12-18 06:25:17
Jack in the Box,2611 S Broadway Ave,,Boise,ID,83706,US,43.57873535,-116.19403076,2022-12-18 06:25:17
Jack in the Box,804 12th Ave Rd,,Nampa,ID,83686,US,43.56097031,-116.57245636,2022-12-18 06:25:17
Jack in the Box,1920 Caldwell Blvd,,Nampa,ID,83651,US,43.60672379,-116.60429382,2022-12-18 06:25:17
Jack in the Box,4214 E Ustick Rd,,Caldwell,ID,83605,US,43.63349152,-116.64609528,2022-12-18 06:25:17
Jack in the Box,712 W. Main Street,,Middleton,ID,83644,US,43.70655823,-116.63279724,2022-12-18 06:25:17
Jack in the Box,703 N 10th Ave,,Caldwell,ID,83605,US,43.66976547,-116.67926025,2022-12-18 06:25:17
Jack in the Box,1115 N Whitley Dr,,Fruitland,ID,83619,US,44.02243042,-116.92401123,2022-12-18 06:25:17
Jack in the Box,1407 Sw 4th Ave,,Ontario,OR,97914,US,44.02525711,-116.98602295,2022-12-18 06:25:17
Jack in the Box,1419 Gessner Dr,,Houston,TX,77080,US,29.79608536,-95.54515839,2022-12-16 15:27:42
Jack in the Box,25800 Jeronimo Rd Ste 500,,Mission Viejo,CA,92691,US,33.61647415,-117.67970276,2022-12-18 07:39:41
Jack in the Box,25852 El Paseo,,Mission Viejo,CA,92691,US,33.58513641,-117.6732254,2022-12-18 07:39:41
Jack in the Box,23812 El Toro Rd,,El Toro,CA,92630,US,33.61646652,-117.70474243,2022-12-18 07:39:41
Jack in the Box,28592 Oso Pkwy,,Rancho Santa Margarita,CA,92688,US,33.58335114,-117.63204956,2022-12-18 07:39:41
Jack in the Box,22661 Lake Forest Dr,,Lake Forest,CA,92630,US,33.63333893,-117.711586,2022-12-18 07:39:41
Jack in the Box,28651 Marguerite Pkwy,,Mission Viejo,CA,92692,US,33.54806519,-117.67192841,2022-12-18 07:39:41
Jack in the Box,20101 Lake Forest Dr,,Lake Forest,CA,92630,US,33.67023087,-117.66194153,2022-12-18 07:39:41
Jack in the Box,21602 Plano Trabuco Rd,,Trabuco Canyon,CA,92679,US,33.64859009,-117.57702637,2022-12-18 07:39:41
Jack in the Box,6565 Burt Rd,,Irvine,CA,92618,US,33.67636871,-117.75796509,2022-12-18 07:39:41
Jack in the Box,1201 S Coast Hwy,,Laguna Beach,CA,92651,US,33.53297043,-117.77645111,2022-12-18 07:39:41
Jack in the Box,4289 Campus Dr,,Irvine,CA,92612,US,33.64871979,-117.83805847,2022-12-18 07:39:41
Jack in the Box,3089 Edinger Ave,,Tustin,CA,92780,US,33.70570755,-117.8062973,2022-12-18 07:39:41
Jack in the Box,14002 Newport Ave,,Tustin,CA,92780,US,33.73771667,-117.82219696,2022-12-16 15:27:44
Jack in the Box,720 E Dyer Rd,,Santa Ana,CA,92705,US,33.70810699,-117.85526276,2022-12-18 07:39:41
Jack in the Box,1730 E Edinger Ave,,Santa Ana,CA,92705,US,33.72639847,-117.84248352,2022-12-16 15:27:44
Jack in the Box,2602 Newport Blvd,,Costa Mesa,CA,92627,US,33.66288376,-117.89598083,2022-12-18 07:39:41
Jack in the Box,2398 S El Camino Real,,San Clemente,CA,92672,US,33.41237259,-117.60100555,2022-12-18 07:39:41
Jack in the Box,17401 17th St,,Tustin,CA,92780,US,33.76018524,-117.82746887,2022-12-16 15:27:44
Jack in the Box,3710 S Bristol St,,Santa Ana,CA,92704,US,33.69717407,-117.88610077,2022-12-18 07:39:41
Jack in the Box,385 E 17th St,,Costa Mesa,CA,92627,US,33.63087082,-117.91275024,2022-12-18 07:39:41
Jack in the Box,151 W 16th St,,Yuma,AZ,85364,US,32.69823456,-114.62187195,2022-12-18 07:39:41
Jack in the Box,2678 W 16th St,,Yuma,AZ,85364,US,32.69891357,-114.65261078,2022-12-16 15:27:40
Jack in the Box,3023 S 4th Ave,,Yuma,AZ,85364,US,32.67370224,-114.62395477,2022-12-18 07:39:41
Jack in the Box,2325 32nd St,,Yuma,AZ,85364,US,32.66894913,-114.6479187,2022-12-16 15:27:40
Jack in the Box,1244 S Castle Dome Ave,,Yuma,AZ,85365,US,32.70475769,-114.60786438,2022-12-18 07:39:41
Jack in the Box,140 S 4th Ave,,Yuma,AZ,85364,US,32.72431183,-114.62486267,2022-12-18 07:39:41
Jack in the Box,3951 S Avenue 3 E,,Yuma,AZ,85365,US,32.65599442,-114.58082581,2022-12-18 07:39:41
Jack in the Box,6440 E 32nd St,,Yuma,AZ,85364,US,32.67075348,-114.52269745,2022-12-18 07:39:41
Jack in the Box,251 E Main St,,Somerton,AZ,85350,US,32.59628677,-114.70825958,2022-12-16 15:27:42
Jack in the Box,10685 Fortuna Rd,,Yuma,AZ,85367,US,32.67432404,-114.44354248,2022-12-18 07:39:41
Jack in the Box,606 N Main St,,San Luis,AZ,85349,US,32.48880005,-114.78292847,2022-12-16 15:27:42
Jack in the Box,28882 Commerce Way,,Wellton,AZ,85356,US,32.65776062,-114.14264679,2022-12-18 07:39:41
Jack in the Box,1791 Maggio Rd,,Calexico,CA,92231,US,32.68559265,-115.38034821,2022-12-16 15:27:42
Jack in the Box,1071 Birch St,,Calexico,CA,92231,US,32.67984009,-115.48370361,2022-12-16 15:27:42
Jack in the Box,721 E San Ysidro Blvd,,San Ysidro,CA,92173,US,32.5453186,-117.02990723,2022-12-18 06:25:21
Jack in the Box,"2015 Birch Rd, Ste 2700",,Chula Vista,CA,91915,US,32.62215424,-116.96738434,2022-12-18 06:25:19
Jack in the Box,2525 Otay Center Dr,,San Diego,CA,92154,US,32.55384064,-116.94197083,2022-12-18 06:25:21
Jack in the Box,925 Eastlake Parkway,,Chula Vista,CA,91914,US,32.65026855,-116.96575928,2022-12-18 06:25:19
Jack in the Box,21292 E Ocotillo Rd,,Queen Creek,AZ,85142,US,33.24907303,-111.62399292,2022-12-18 06:25:18
Jack in the Box,37723 N Gantzel Rd,,San Tan Valley,AZ,85140,US,33.22235107,-111.56269073,2022-12-18 06:25:18
Jack in the Box,3270 S Higley Rd,,Gilbert,AZ,85297,US,33.2913475,-111.72134399,2022-12-18 06:25:18
Jack in the Box,5207 S Power Rd,,Mesa,AZ,85212,US,33.32130432,-111.68626404,2022-12-18 06:25:18
Jack in the Box,4338 S Signal Butte Rd,,Mesa,AZ,85212,US,33.33618546,-111.6015625,2022-12-18 06:25:18
Jack in the Box,4910 S Val Vista Dr,,Gilbert,AZ,85296,US,33.26106262,-111.75618744,2022-12-18 06:25:20
Jack in the Box,534 E Hunt Hwy,,Queen Creek,AZ,85143,US,33.16062927,-111.56174469,2022-12-18 06:25:20
Jack in the Box,9113 E Guadalupe Rd,,Mesa,AZ,85212,US,33.36400604,-111.63772583,2022-12-18 06:25:18
Jack in the Box,1585 E Warner Rd,,Gilbert,AZ,85296,US,33.33512878,-111.75618744,2022-12-18 06:25:18
Jack in the Box,1911 S Power Rd,,Mesa,AZ,85206,US,33.3805542,-111.68721771,2022-12-18 06:25:18
Jack in the Box,1403 S Crismon Rd,,Mesa,AZ,85209,US,33.38937378,-111.61486053,2022-12-18 06:25:18
Jack in the Box,4361 E Baseline Rd,,Gilbert,AZ,85234,US,33.37879181,-111.74028015,2022-12-18 06:25:18
Jack in the Box,9147 E Broadway Rd,,Mesa,AZ,85208,US,33.40771484,-111.63329315,2022-12-18 06:25:18
Jack in the Box,2600 W Apache Trl,,Apache Junction,AZ,85120,US,33.41576385,-111.57459259,2022-12-18 06:25:18
Jack in the Box,1105 S Val Vista Dr,,Mesa,AZ,85204,US,33.3953476,-111.75339508,2022-12-18 06:25:18
Jack in the Box,5961 E Main St,,Mesa,AZ,85205,US,33.41525269,-111.70233154,2022-12-18 06:25:18
Jack in the Box,6478 E Us Highway 60,,Gold Canyon,AZ,85118,US,33.36624146,-111.47631073,2022-12-18 06:25:18
Jack in the Box,3940 Redondo Beach Blvd,,Torrance,CA,90504,US,33.87733078,-118.34280396,2022-12-16 15:27:42
Jack in the Box,2186 Redondo Beach Blvd,,Torrance,CA,90504,US,33.88553238,-118.31756592,2022-12-18 06:25:12
Jack in the Box,17916 Hawthorne Blvd,,Torrance,CA,90504,US,33.86765671,-118.35212708,2022-12-16 15:27:42
Jack in the Box,1000 W Rosecrans Ave,,Gardena,CA,90247,US,33.90165329,-118.29227448,2022-12-18 06:25:12
Jack in the Box,1160 Aviation Blvd,,Hermosa Beach,CA,90254,US,33.86514282,-118.38659668,2022-12-16 15:27:47
Jack in the Box,11400 S Figueroa St,,Los Angeles,CA,90061,US,33.93072128,-118.28217316,2022-12-18 06:25:12
Jack in the Box,12735 S Main St,,Los Angeles,CA,90061,US,33.91680908,-118.27428436,2022-12-18 06:25:12
Jack in the Box,1099 W Artesia Blvd,,Gardena,CA,90248,US,33.87327576,-118.29216766,2022-12-18 06:25:12
Jack in the Box,4911 Torrance Blvd,,Torrance,CA,90503,US,33.83792114,-118.36608124,2022-12-16 15:27:47
Jack in the Box,1300 W Edinger Ave,,Santa Ana,CA,92704,US,33.72689056,-117.88560486,2022-12-16 15:27:44
Jack in the Box,2502 S Harbor Blvd,,Santa Ana,CA,92704,US,33.7135849,-117.92015076,2022-12-16 15:27:44
Jack in the Box,1502 S Main St,,Santa Ana,CA,92707,US,33.72685242,-117.8681488,2022-12-16 15:27:44
Jack in the Box,1205 Baker St,,Costa Mesa,CA,92626,US,33.67984772,-117.90856171,2022-12-18 07:39:41
Jack in the Box,719 N Bristol St,,Santa Ana,CA,92703,US,33.75130463,-117.88478088,2022-12-16 15:27:44
Jack in the Box,820 N Harbor Dr,,Santa Ana,CA,92703,US,33.75209808,-117.92054749,2022-12-16 15:27:44
Jack in the Box,601 N Main St,,Santa Ana,CA,92701,US,33.7501297,-117.86735535,2022-12-16 15:27:44
Jack in the Box,1406 E First St,,Santa Ana,CA,92701,US,33.74525452,-117.85001373,2022-12-16 15:27:44
Jack in the Box,15521 Brookhurst St,,Westminster,CA,92683,US,33.73722458,-117.95517731,2022-12-16 15:27:44
Jack in the Box,19090 Brookhurst St,,Huntington Beach,CA,92646,US,33.68539429,-117.95370483,2022-12-16 15:27:44
Jack in the Box,13282 Harbor Blvd,,Garden Grove,CA,92843,US,33.77005386,-117.91992188,2022-12-16 15:27:44
Jack in the Box,2235 Harbor Blvd,,Costa Mesa,CA,92627,US,33.65559006,-117.91952515,2022-12-18 07:39:41
Jack in the Box,3050 W Chapman Ave,,Orange,CA,92868,US,33.78723145,-117.88458252,2022-12-16 15:27:42
Jack in the Box,2181 S Sherwood Forest Blvd,,Baton Rouge,LA,70816,US,30.43314743,-91.05696869,2022-12-18 06:25:08
Jack in the Box,11310 Airline Hwy,,Baton Rouge,LA,70816,US,30.39909744,-91.05532837,2022-12-18 06:25:08
Jack in the Box,13520 Florida Blvd,,Baton Rouge,LA,70819,US,30.46214676,-91.03465271,2022-12-18 06:25:08
Jack in the Box,8110 Florida Blvd,,Baton Rouge,LA,70806,US,30.45141983,-91.10413361,2022-12-18 06:25:08
Jack in the Box,8919 Siegen Ln,,Baton Rouge,LA,70810,US,30.36844063,-91.07377625,2022-12-18 06:25:08
Jack in the Box,7725 Airline Hwy,,Baton Rouge,LA,70815,US,30.47076607,-91.10788727,2022-12-18 06:25:08
Jack in the Box,508 S Foster Dr,,Baton Rouge,LA,70806,US,30.44420242,-91.13877106,2022-12-18 06:25:08
Jack in the Box,9316 Burbank Dr,,Baton Rouge,LA,70820,US,30.36024666,-91.12519073,2022-12-18 06:25:08
Jack in the Box,10432 Sullivan Rd,,Baton Rouge,LA,70818,US,30.54371262,-91.0283432,2022-12-18 06:25:08
Jack in the Box,3255 Highland Rd,,Baton Rouge,LA,70802,US,30.41898727,-91.17637634,2022-12-18 06:25:08
Jack in the Box,2805 Scenic Hwy,,Baton Rouge,LA,70805,US,30.47332382,-91.16877747,2022-12-18 06:25:08
Jack in the Box,11682 Plank Rd,,Baton Rouge,LA,70811,US,30.5519619,-91.13497162,2022-12-18 06:25:08
Jack in the Box,8008 Scenic Hwy,,Baton Rouge,LA,70807,US,30.52080345,-91.17840576,2022-12-18 06:25:08
Jack in the Box,1703 N Airline Hwy,,Gonzales,LA,70737,US,30.24690437,-90.92208862,2022-12-18 06:25:08
Jack in the Box,2123 W Highway 30,,Gonzales,LA,70737,US,30.21028328,-90.94477844,2022-12-18 06:25:08
Jack in the Box,9645 Westheimer Rd,,Houston,TX,77063,US,29.73680687,-95.53809357,2022-12-16 15:27:42
Jack in the Box,2801 Hillcroft Ave,,Houston,TX,77057,US,29.73579788,-95.50041199,2022-12-16 15:27:42
Jack in the Box,9310 Clay Rd,,Houston,TX,77080,US,29.83303642,-95.52337646,2022-12-16 15:27:44
Jack in the Box,7699 Katy Fwy,,Houston,TX,77024,US,29.78328705,-95.46763611,2022-12-16 15:27:42
Jack in the Box,10454 Richmond Ave,,Houston,TX,77042,US,29.72816086,-95.55947876,2022-12-16 15:27:42
Jack in the Box,11630 Hempstead Hwy,,Houston,TX,77092,US,29.81838989,-95.48266602,2022-12-16 15:27:42
Jack in the Box,6006 Hillcroft Ave,,Houston,TX,77081,US,29.71552849,-95.49848175,2022-12-16 15:27:42
Jack in the Box,4550 San Felipe St,,Houston,TX,77027,US,29.74728012,-95.45558167,2022-12-16 15:27:45
Jack in the Box,5757 Hollister St,,Houston,TX,77040,US,29.85016823,-95.50549316,2022-12-16 15:27:44
Jack in the Box,3402 Mangum Rd,,Houston,TX,77092,US,29.8200016,-95.45906067,2022-12-16 15:27:42
Jack in the Box,5316 Antoine Dr,,Houston,TX,77091,US,29.84129715,-95.47285461,2022-12-16 15:27:42
Jack in the Box,5415 S Rice Ave,,Houston,TX,77081,US,29.72241402,-95.46760559,2022-12-16 15:27:42
Jack in the Box,5550 Gulfton St,,Houston,TX,77081,US,29.71695328,-95.47688293,2022-12-16 15:27:42
Jack in the Box,5801 Bellaire Blvd,,Houston,TX,77081,US,29.70519066,-95.48275757,2022-12-16 15:27:42
Jack in the Box,2120 E Baseline Rd,,Mesa,AZ,85204,US,33.37934494,-111.78649139,2022-12-18 06:25:18
Jack in the Box,2846 E Main St,,Mesa,AZ,85213,US,33.41596985,-111.76846313,2022-12-18 06:25:18
Jack in the Box,525 N Stapley Dr,,Mesa,AZ,85203,US,33.42446899,-111.80482483,2022-12-18 06:25:18
Jack in the Box,1900 148th Ave Ne,,Bellevue,WA,98007,US,47.62698746,-122.1426239,2022-12-18 06:25:21
Jack in the Box,3179 156th Ave Se,,Bellevue,WA,98007,US,47.58159637,-122.13552856,2022-12-18 06:25:21
Jack in the Box,16280 Ne 87th St,,Redmond,WA,98052,US,47.6800499,-122.12248993,2022-12-18 06:25:21
Jack in the Box,12409 Ne 116th St,,Kirkland,WA,98034,US,47.7036972,-122.17544556,2022-12-18 06:25:21
Jack in the Box,4749 University Way Ne,,Seattle,WA,98105,US,47.66476059,-122.31334686,2022-12-18 06:25:21
Jack in the Box,1907 4th Ave S,,Seattle,WA,98134,US,47.58571625,-122.32955933,2022-12-18 06:25:21
Jack in the Box,9102 Rainier Ave S,,Seattle,WA,98118,US,47.52170563,-122.26963806,2022-12-18 06:25:21
Jack in the Box,5903 1st Ave S,,Seattle,WA,98108,US,47.54998016,-122.33468628,2022-12-18 06:25:21
Jack in the Box,2813 Sunset Blvd Ne,,Renton,WA,98056,US,47.5008316,-122.17905426,2022-12-18 06:25:21
Jack in the Box,740 Nw Gilman Blvd,,Issaquah,WA,98027,US,47.54468918,-122.05010223,2022-12-18 06:25:21
Jack in the Box,8502 Aurora Ave N,,Seattle,WA,98103,US,47.6908226,-122.34401703,2022-12-18 06:25:21
Jack in the Box,999 Nw Leary Way,,Seattle,WA,98107,US,47.66317749,-122.36986542,2022-12-18 06:25:21
Jack in the Box,4810 Ne 4th St,,Renton,WA,98059,US,47.48887634,-122.15472412,2022-12-18 06:25:21
Jack in the Box,4203 Sw Admiral Way,,Seattle,WA,98116,US,47.58095932,-122.38562012,2022-12-18 06:25:21
Jack in the Box,17445 131st Ave Ne,,Woodinville,WA,98072,US,47.75365829,-122.16599274,2022-12-18 06:25:12
Jack in the Box,479 Rainier Ave S,,Renton,WA,98055,US,47.4769249,-122.21611786,2022-12-18 06:25:21
Jack in the Box,13050 Interurban Ave S,,Tukwila,WA,98168,US,47.48537827,-122.27219391,2022-12-18 06:25:21
Jack in the Box,12515 Aurora Ave N,,Seattle,WA,98133,US,47.72032928,-122.34558868,2022-12-18 06:25:21
Jack in the Box,6100 Ne Bothell Way,,Kenmore,WA,98028,US,47.75870132,-122.26154327,2022-12-18 06:25:21
Jack in the Box,3742 S 144th St,,Tukwila,WA,98168,US,47.47450256,-122.28476715,2022-12-18 06:25:21
Jack in the Box,4570 W Cactus Ave,,Las Vegas,NV,89141,US,35.99901962,-115.20236206,2022-12-18 06:25:19
Jack in the Box,4161 Saint Rose Pkwy Ste B,,Henderson,NV,89044,US,35.96746063,-115.16876221,2022-12-18 06:25:19
Jack in the Box,15354 Manchester Rd,,Ellisville,MO,63011,US,38.59243011,-90.56069946,2022-12-13 15:34:01
Jack in the Box,986 S Highway Dr,,Fenton,MO,63026,US,38.54208755,-90.46401978,2022-12-13 15:34:01
Jack in the Box,5300 Caroline Dr,,High Ridge,MO,63049,US,38.47551346,-90.52203369,2022-12-18 06:25:08
Jack in the Box,10460 Page Blvd,,Saint Louis,MO,63132,US,38.69127274,-90.39168549,2022-12-13 15:34:01
Jack in the Box,9970 Kennerly Rd,,Saint Louis,MO,63128,US,38.50738144,-90.37721252,2022-12-18 06:25:08
Jack in the Box,6096 Mid Rivers Mall Dr,,Saint Peters,MO,63304,US,38.74467087,-90.63381195,2022-12-13 15:34:03
Jack in the Box,7960 Watson Rd,,Marlborough,MO,63119,US,38.56794739,-90.33940887,2022-12-18 06:25:08
Jack in the Box,7520 Manchester Rd,,Maplewood,MO,63143,US,38.61233521,-90.32397461,2022-12-13 15:33:59
Jack in the Box,12298 Saint Charles Rock Rd,,Bridgeton,MO,63044,US,38.75289536,-90.42893219,2022-12-18 06:25:09
Jack in the Box,11122 Saint Charles Rock Rd,,Saint Ann,MO,63074,US,38.73548126,-90.3959198,2022-12-18 06:25:09
Jack in the Box,1016 S 5th St,,Saint Charles,MO,63301,US,38.77466202,-90.48984528,2022-12-13 15:34:03
Jack in the Box,6950 Olive Blvd,,University City,MO,63130,US,38.66450119,-90.31487274,2022-12-18 06:25:08
Jack in the Box,4124 Mexico Rd,,Saint Peters,MO,63376,US,38.79187393,-90.57600403,2022-12-18 06:25:09
Jack in the Box,4292 Bayless Ave,,Saint Louis,MO,63123,US,38.54854584,-90.29325104,2022-12-18 06:25:08
Jack in the Box,1242 Hampton Ave,,Saint Louis,MO,63139,US,38.62691116,-90.28726196,2022-12-13 15:33:56
Jack in the Box,9707 Natural Bridge Rd,,Berkeley,MO,63134,US,38.7298317,-90.34481812,2022-12-18 06:25:08
Jack in the Box,1289 Jeffco Blvd,,Arnold,MO,63010,US,38.43865967,-90.37389374,2022-12-18 06:25:08
Jack in the Box,4201 S Kingshighway Blvd,,Saint Louis,MO,63109,US,38.59128189,-90.27389526,2022-12-18 06:25:08
Jack in the Box,2666 Telegraph Rd,,Saint Louis,MO,63125,US,38.510849,-90.29138947,2022-12-18 06:25:08
Jack in the Box,299 Salt Lick Rd Ste 100,,Saint Peters,MO,63376,US,38.79838943,-90.65605164,2022-12-13 15:34:03
Jack in the Box,415 S Main St,,O Fallon,MO,63366,US,38.80580902,-90.70056915,2022-12-18 06:25:09
Jack in the Box,3710 Elm St,,Saint Charles,MO,63301,US,38.82048416,-90.5136795,2022-12-18 06:25:09
Jack in the Box,910 Bryan Rd,,O Fallon,MO,63366,US,38.79953384,-90.73379517,2022-12-18 06:25:09
Jack in the Box,459 Hawk Ridge Trail Dr,,Lake Saint Louis,MO,63367,US,38.76811981,-90.78077698,2022-12-18 06:25:09
Jack in the Box,6100 Howdershell Rd,,Hazelwood,MO,63042,US,38.78229141,-90.38260651,2022-12-18 06:25:17
Jack in the Box,158 Howdershell Rd,,Florissant,MO,63031,US,38.80764008,-90.35971069,2022-12-13 15:33:57
Jack in the Box,1992 Wentzville Pkwy,,Wentzville,MO,63385,US,38.81323624,-90.87414551,2022-12-18 06:25:09
Jack in the Box,2095 N US Highway 67,,Florissant,MO,63033,US,38.80163574,-90.31388855,2022-12-13 15:33:56
