company_name,address_line_1,address_line_2,city,state_alpha,postal_code,country_code,latitude,longitude,when_verified
Pizza Hut,"2600 W Sahara Ave, Suite 102",,Las Vegas,NV,89102,US,36.14519882,-115.17700195,2022-12-18 06:25:08
Pizza Hut,1131 Tropicana Ave Suite B,,Las Vegas,NV,89119,US,36.10010147,-115.13800049,2022-12-18 06:25:08
Pizza Hut,5255 S. Decatur Blvd.,,Las Vegas,NV,89118,US,36.09469986,-115.20899963,2022-12-18 06:25:08
Pizza Hut,1840 East Charleston Blvd.,,Las Vegas,NV,89104,US,36.15790176,-115.12400055,2022-12-18 06:25:08
Pizza Hut,3050 E Desert Inn Rd.,,Las Vegas,NV,89121,US,36.13059998,-115.10900116,2022-12-18 06:25:08
Pizza Hut,6370 W Flamingo Rd.,,Las Vegas,NV,89103,US,36.11520004,-115.23200226,2022-12-18 06:25:08
Pizza Hut,274 S Decatur Blvd,,Las Vegas,NV,89107,US,36.17100143,-115.20700073,2022-12-18 06:25:08
Pizza Hut,2625 E Tropicana Ave Ste H,,Las Vegas,NV,89121,US,36.09930038,-115.11399841,2022-12-18 06:25:08
Pizza Hut,931 S Rainbow Blvd,,Las Vegas,NV,89145,US,36.16070175,-115.24500275,2022-12-18 06:25:08
Pizza Hut,4620 E Flamingo Rd. Suite A,,Las Vegas,NV,89121,US,36.11579895,-115.07299805,2022-12-18 06:25:08
Pizza Hut,2509 E Lake Mead Blvd,,North Las Vegas,NV,89030,US,36.19549942,-115.11599731,2022-12-18 06:25:08
Pizza Hut,6130 W Lake Mead Blvd,,Las Vegas,NV,89108,US,36.19720078,-115.22399902,2022-12-18 06:25:10
Pizza Hut,4450 E Charleston Blvd Ste 1,,Las Vegas,NV,89110,US,36.15999985,-115.07800293,2022-12-18 06:25:08
Pizza Hut,445 E Windmill Lane,,Las Vegas,NV,89123,US,36.04150009,-115.15299988,2022-12-18 06:25:08
Pizza Hut,4440 S Durango Dr Ste H,,Las Vegas,NV,89147,US,36.10879898,-115.27799988,2022-12-18 06:25:10
Pizza Hut,"5105 E. Sahara Ave., suite K",,Las Vegas,NV,89142,US,36.14440155,-115.06300354,2022-12-18 06:25:08
Pizza Hut,560 N. Nellis Blvd.,,Las Vegas,NV,89110,US,36.1692009,-115.06199646,2022-12-18 06:25:08
Pizza Hut,8140 S. Eastern Ave.,,Las Vegas,NV,89123,US,36.04180145,-115.11699677,2022-12-18 06:25:08
Pizza Hut,7645 S. Rainbow Blvd.,,Las Vegas,NV,89139,US,36.04959869,-115.2440033,2022-12-18 06:25:08
Pizza Hut,9014 West Sahara Ave.,,Las Vegas,NV,89117,US,36.145401,-115.29499817,2022-12-18 06:25:10
Pizza Hut,3925 Martin Luther King Jr. Blvd.,,North Las Vegas,NV,89030,US,36.23059845,-115.16300201,2022-12-18 06:25:08
Pizza Hut,3101 Las Vegas Blvd N,,Las Vegas,NV,89115,US,36.2154007,-115.09799957,2022-12-18 06:25:08
Pizza Hut,4945 W Craig Rd.,,Las Vegas,NV,89130,US,36.23799896,-115.20999908,2022-12-18 06:25:13
Pizza Hut,345 E Silverado Ranch Blvd,,Las Vegas,NV,89183,US,36.01279831,-115.15699768,2022-12-18 06:25:08
Pizza Hut,2233 N Rampart Blvd,,Las Vegas,NV,89128,US,36.20199966,-115.28299713,2022-12-18 06:25:10
Pizza Hut,6415 S Fort Apache Rd Ste 110,,Las Vegas,NV,89148,US,36.07189941,-115.29799652,2022-12-18 06:25:10
Pizza Hut,1500 N Green Valley Pkwy.,,Henderson,NV,89074,US,36.02959824,-115.08599854,2022-12-18 06:25:08
Pizza Hut,"6510 Boulder Hwy,",,Henderson,NV,89122,US,36.08330154,-115.03199768,2022-12-18 06:25:08
Pizza Hut,10260 W. Charleston Blvd,,Las Vegas,NV,89135,US,36.15950012,-115.31900024,2022-12-18 06:25:10
Pizza Hut,1280 Warm Springs Rd.,,Henderson,NV,89014,US,36.05680084,-115.04000092,2022-12-18 06:25:08
Pizza Hut,7060 International Dr,,Orlando,FL,32819,US,28.45669937,-81.47119904,2022-12-18 06:25:08
Pizza Hut,7536 Dr Phillips Blvd.,,Orlando,FL,32819,US,28.45409966,-81.48889923,2022-12-18 06:25:08
Pizza Hut,9100 International Dr,,Orlando,FL,32819,US,28.43289948,-81.47219849,2022-12-18 06:25:08
Pizza Hut,2153 Americana Blvd,,Orlando,FL,32839,US,28.48830032,-81.40809631,2022-12-18 06:25:08
Pizza Hut,2426 S Kirkman Rd,,Orlando,FL,32811,US,28.51609993,-81.4598999,2022-12-18 06:25:08
Pizza Hut,5628 Hansel Ave,,Edgewood,FL,32809,US,28.47640038,-81.36840057,2022-12-18 06:25:08
Pizza Hut,12195 S Apopka Vineland Rd,,Orlando,FL,32836,US,28.3878994,-81.50569916,2022-12-18 06:25:08
Pizza Hut,7970 Winter Garden Vineland Rd.,,Windermere,FL,34786,US,28.44519997,-81.55930328,2022-12-18 06:25:08
Pizza Hut,6607 W Colonial Dr,,Orlando,FL,32818,US,28.55260086,-81.47319794,2022-12-18 06:25:10
Pizza Hut,3908 Town Center Blvd,,Orlando,FL,32837,US,28.36190033,-81.42359924,2022-12-18 06:25:08
Pizza Hut,10880 W. Colonial Drive,,Ocoee,FL,34761,US,28.55120087,-81.54070282,2022-12-18 06:25:10
Pizza Hut,2702 N Pine Hills Rd,,Orlando,FL,32808,US,28.57839966,-81.45300293,2022-12-18 06:25:10
Pizza Hut,4432 Curry Ford Rd,,Orlando,FL,32812,US,28.52210045,-81.32910156,2022-12-18 06:25:08
Pizza Hut,4975 W Irlo Bronson Memorial Hwy.,,Kissimmee,FL,34746,US,28.33359909,-81.48179626,2022-12-18 06:25:08
Pizza Hut,5740 W Irlo Bronson Memorial Hwy.,,Kissimmee,FL,34746,US,28.3321991,-81.51439667,2022-12-18 06:25:08
Pizza Hut,1022 Buena Ventura Blvd,,Kissimmee,FL,34743,US,28.34679985,-81.36530304,2022-12-18 06:25:08
Pizza Hut,4343 Edgewater Drive,,Orlando,FL,32804,US,28.59589958,-81.39720154,2022-12-18 06:25:10
Pizza Hut,15504 Stoneybrook West Pkwy. Suite 100,,Winter Garden,FL,34787,US,28.51720047,-81.61940002,2022-12-18 06:25:08
Pizza Hut,323 West Road,,Ocoee,FL,34761,US,28.60460091,-81.55010223,2022-12-18 06:25:10
Pizza Hut,1001 N Semoran Blvd,,Orlando,FL,32807,US,28.56030083,-81.31040192,2022-12-18 06:25:10
Pizza Hut,"8255 Lee Vista Blvd., ste B",,Orlando,FL,32822,US,28.46649933,-81.2736969,2022-12-18 06:25:08
Pizza Hut,1313 E Vine St,,Kissimmee,FL,34744,US,28.30509949,-81.39080048,2022-12-18 06:25:08
Pizza Hut,563 Chickasaw Trail,,Orlando,FL,32825,US,28.53590012,-81.27459717,2022-12-18 06:25:10
Pizza Hut,767 S. State Road 434,,Altamonte Springs,FL,32714,US,28.64669991,-81.41470337,2022-12-18 06:25:10
Pizza Hut,8557 W Irlo Bronson Hwy,,Kissimmee,FL,34747,US,28.34760094,-81.63150024,2022-12-18 06:25:08
Pizza Hut,2335 Temple Trl Ste 4,,Winter Park,FL,32789,US,28.62579918,-81.33640289,2022-12-18 06:25:10
Pizza Hut,10395 Narcoossee Rd.,,Orlando,FL,32827,US,28.41620064,-81.24240112,2022-12-18 06:25:08
Pizza Hut,3311 S. Orange Blossom Trail,,Kissimmee,FL,34746,US,28.26250076,-81.4367981,2022-12-18 06:25:08
Pizza Hut,13900 County Road 455,,Clermont,FL,34711,US,28.54840088,-81.68170166,2022-12-18 06:25:13
Pizza Hut,883 Semoran Blvd,,Apopka,FL,32703,US,28.67340088,-81.49299622,2022-12-18 06:25:10
Pizza Hut,2721 FM 1463 Road,,Katy,TX,77494,US,29.75189972,-95.85079956,2022-12-18 06:25:20
Pizza Hut,2001 Katy Mill Boulevard,,Katy,TX,77494,US,29.78359985,-95.80660248,2022-12-18 06:25:20
Pizza Hut,26440 FM 1093 Rd. Suite 100,,Richmond,TX,77406,US,29.69650078,-95.83470154,2022-12-18 06:25:20
Pizza Hut,22082 Westheimer Pkwy,,Katy,TX,77450,US,29.73489952,-95.75309753,2022-12-18 06:25:12
Pizza Hut,803 Mason Rd.,,Katy,TX,77450,US,29.77129936,-95.751297,2022-12-18 06:25:20
Pizza Hut,2922 Mason Rd,,Katy,TX,77449,US,29.81609917,-95.75170135,2022-12-18 06:25:20
Pizza Hut,1930 Fry Road,,Houston,TX,77084,US,29.79470062,-95.71869659,2022-12-18 06:25:20
Pizza Hut,3603 Front Street,,Brookshire,TX,77423,US,29.78610039,-95.94799805,2022-12-18 06:25:20
Pizza Hut,5444 N Fry Road,,Katy,TX,77449,US,29.84970093,-95.71829987,2022-12-18 06:25:20
Pizza Hut,3320 Hwy 6 (Mission Bend) #B,,Houston,TX,77082,US,29.72240067,-95.6446991,2022-12-18 06:25:12
Pizza Hut,16635 W Airport Blvd.,,Sugar Land,TX,77498,US,29.64839935,-95.67769623,2022-12-18 06:25:12
Pizza Hut,18174 River Sage Drive,,Houston,TX,77084,US,29.85379982,-95.68240356,2022-12-18 06:25:11
Pizza Hut,5186 Avenue H,,Rosenberg,TX,77471,US,29.57229996,-95.77400208,2022-12-18 06:25:12
Pizza Hut,16166 Rippling Water Dr.,,Houston,TX,77084,US,29.8470993,-95.645401,2022-12-18 06:25:11
Pizza Hut,"20510 West Rd., Ste 700",,Cypress,TX,77433,US,29.91060066,-95.7276001,2022-12-18 06:25:11
Pizza Hut,743 Dairy Ashford Road,,Houston,TX,77079,US,29.77260017,-95.60669708,2022-12-18 06:25:11
Pizza Hut,8190 Barker Cypress Rd.,,Cypress,TX,77433,US,29.89550018,-95.68299866,2022-12-18 06:25:11
Pizza Hut,12120 Westheimer Rd,,Houston,TX,77077,US,29.73679924,-95.59380341,2022-12-18 06:25:08
Pizza Hut,12775 Bissonet Street,,Houston,TX,77099,US,29.67830086,-95.60449982,2022-12-18 06:25:08
Pizza Hut,12000 Bellaire Blvd. #200,,Houston,TX,77072,US,29.70439911,-95.59010315,2022-12-18 06:25:08
Pizza Hut,1020 Eldridge Rd,,Sugar Land,TX,77478,US,29.63500023,-95.61830139,2022-12-18 06:25:08
Pizza Hut,23507 Brazos Town Crossing,,rosenberg,TX,77471,US,29.54369926,-95.74569702,2022-12-18 06:25:12
Pizza Hut,19918 SW Freeway,,Sugar Land,TX,77479,US,29.56340027,-95.68509674,2022-12-18 06:25:12
Pizza Hut,10555 Westheimer Rd,,Houston,TX,77042,US,29.73629951,-95.5625,2022-12-18 06:25:08
Pizza Hut,10886 Beechnut St,,Houston,TX,77072,US,29.68919945,-95.56829834,2022-12-18 06:25:08
Pizza Hut,8576 Highway 6 N,,Houston,TX,77095,US,29.90189934,-95.63089752,2022-12-18 06:25:11
Pizza Hut,11611 W Airport Blvd,,Meadows Place,TX,77477,US,29.64690018,-95.58070374,2022-12-18 06:25:08
Pizza Hut,8880-D Bellaire Blvd.,,Houston,TX,77036,US,29.7057991,-95.54039764,2022-12-18 06:25:08
Pizza Hut,"3638 Highway 6, Bay P7",,Sugar Land,TX,77478,US,29.58839989,-95.59809875,2022-12-18 06:25:08
Pizza Hut,2018 Gessner Dr.,,Houston,TX,77080,US,29.80850029,-95.54489899,2022-12-18 06:25:11
Pizza Hut,"2772 Stonebrook Parkway, Suite 300",,Frisco,TX,75034,US,33.13349915,-96.86620331,2022-12-18 06:25:11
Pizza Hut,11445 Dallas Pkwy.,,Frisco,TX,75034,US,33.17300034,-96.84089661,2022-12-18 06:25:11
Pizza Hut,"12244 FM 423, Suite 300",,Frisco,TX,75033,US,33.18000031,-96.8864975,2022-12-18 06:25:11
Pizza Hut,7447 Hillcrest Dr.,,Frisco,TX,75035,US,33.13959885,-96.78520203,2022-12-18 06:25:11
Pizza Hut,4750 S Colony Blvd.,,The Colony,TX,75056,US,33.08029938,-96.89209747,2022-12-18 06:25:11
Pizza Hut,8605 Ohio Dr,,Plano,TX,75024,US,33.09529877,-96.79740143,2022-12-18 06:25:11
Pizza Hut,6141 Windhaven Pkwy. #135,,Plano,TX,75093,US,33.05540085,-96.83139801,2022-12-18 06:25:11
Pizza Hut,"26735 US Hwy 380 East, Suite 104",,Aubrey,TX,76227,US,33.2215004,-96.93479919,2022-12-18 06:25:11
Pizza Hut,3020 Legacy Dr.,,Plano,TX,75023,US,33.0705986,-96.75080109,2022-12-18 06:25:11
Pizza Hut,"8408 Stacy Rd., Ste. 150",,McKinney,TX,75070,US,33.15340042,-96.72290039,2022-12-18 06:25:11
Pizza Hut,4801 W Park Blvd,,Plano,TX,75093,US,33.0279007,-96.79100037,2022-12-18 06:25:11
Pizza Hut,1049 Preston Rd.,,Prosper,TX,75078,US,33.2466011,-96.78600311,2022-12-18 06:25:11
Pizza Hut,210 N. Custer Rd.,,McKinney,TX,75071,US,33.2052002,-96.7322998,2022-12-18 06:25:11
Pizza Hut,1001 E Hebron Pkwy.,,Carrollton,TX,75007,US,33.02140045,-96.91519928,2022-12-18 06:25:12
Pizza Hut,1505 W McDermott Dr.,,Allen,TX,75013,US,33.10029984,-96.70670319,2022-12-18 06:25:11
Pizza Hut,11970 US-380,,Crossroads,TX,76227,US,33.22520065,-96.98079681,2022-12-18 06:25:08
Pizza Hut,2129 W Parker Rd,,Plano,TX,75023,US,33.04140091,-96.73560333,2022-12-18 06:25:11
Pizza Hut,3065 N. Josey Ln.,,Carrollton,TX,75007,US,32.99909973,-96.88710022,2022-12-18 06:25:12
Pizza Hut,17580 Preston Rd,,Dallas,TX,75252,US,32.99140167,-96.80079651,2022-12-18 06:25:12
Pizza Hut,2600 Midway Rd,,Carrollton,TX,75006,US,32.98329926,-96.84210205,2022-12-18 06:25:12
Pizza Hut,7650 I-35 E,,Corinth,TX,76210,US,33.13270187,-97.04350281,2022-12-18 06:25:08
Pizza Hut,4150 Eldorado Pkwy,,McKinney,TX,75070,US,33.16899872,-96.6710968,2022-12-18 06:25:11
Pizza Hut,1301 FM 407 Ste 209,,Lewisville,TX,75077,US,33.07180023,-97.02950287,2022-12-18 06:25:08
Pizza Hut,801 S Greenville Ave.,,Allen,TX,75002,US,33.0868988,-96.67030334,2022-12-18 06:25:11
Pizza Hut,1081 W Main St,,Lewisville,TX,75067,US,33.0428009,-97.01909637,2022-12-18 06:25:08
Pizza Hut,2204 Kelly Blvd,,Carrollton,TX,75006,US,32.97159958,-96.87740326,2022-12-18 06:25:12
Pizza Hut,2154 S Hwy 121,,Lewisville,TX,75067,US,33.01190186,-96.99150085,2022-12-18 06:25:12
Pizza Hut,4987 West University,,McKinney,TX,75071,US,33.21770096,-96.67790222,2022-12-18 06:25:11
Pizza Hut,515 W Campbell Rd.,,Richardson,TX,75080,US,32.97639847,-96.73750305,2022-12-18 06:25:11
Pizza Hut,1546 E. Stacy Rd. #155,,Allen,TX,75002,US,33.12900162,-96.62999725,2022-12-18 06:25:11
Pizza Hut,7001 Bergenline Ave,,Guttenberg,NJ,07093,US,40.79639816,-74.01100159,2022-12-18 06:25:08
Pizza Hut,3101 Kennedy Blvd.,,North Bergen,NJ,07047,US,40.77429962,-74.0345993,2022-12-18 06:25:08
Pizza Hut,1980 Amsterdam Ave,,New York,NY,10032,US,40.83369827,-73.94180298,2022-12-18 06:25:08
Pizza Hut,601 Westchester Avenue,,Bronx,NY,10455,US,40.81629944,-73.91120148,2022-12-18 06:25:08
Pizza Hut,29 Marcus Garvey Blvd,,Brooklyn,NY,11206,US,40.69879913,-73.94100189,2022-12-18 06:25:08
Pizza Hut,701 State Route 440,,Jersey City,NJ,07305,US,40.72069931,-74.09349823,2022-12-18 06:25:08
Pizza Hut,9608 Queens Blvd,,Rego Park,NY,11374,US,40.72969818,-73.86219788,2022-12-18 06:25:08
Pizza Hut,1347 Kennedy Blvd,,Bayonne,NJ,07002,US,40.69340134,-74.10340118,2022-12-18 06:25:08
Pizza Hut,1501 Pitkin Ave,,Brooklyn,NY,11212,US,40.66880035,-73.91750336,2022-12-18 06:25:08
Pizza Hut,53-55 Essex St,,Hackensack,NJ,07601,US,40.87799835,-74.04730225,2022-12-18 06:25:08
Pizza Hut,2019 Westchester Avenue,,Bronx,NY,10462,US,40.83380127,-73.85710144,2022-12-18 06:25:08
Pizza Hut,720 Washington Ave,,Belleville,NJ,07109,US,40.80450058,-74.14559937,2022-12-18 06:25:08
Pizza Hut,1448 Nostrand Ave,,Brooklyn,NY,11226,US,40.65110016,-73.94979858,2022-12-18 06:25:08
Pizza Hut,8920 Atlantic Ave,,Ozone Park,NY,11416,US,40.68619919,-73.85169983,2022-12-18 06:25:08
Pizza Hut,8925 Avenue D,,Brooklyn,NY,11236,US,40.64569855,-73.91449738,2022-12-18 06:25:08
Pizza Hut,37 Hillel Pl,,Brooklyn,NY,11210,US,40.63219833,-73.94879913,2022-12-18 06:25:08
Pizza Hut,326 Monroe St,,Passaic,NJ,07055,US,40.86449814,-74.12799835,2022-12-18 06:25:08
Pizza Hut,765 E Gun Hill Rd,,Bronx,NY,10467,US,40.87670135,-73.86329651,2022-12-18 06:25:08
Pizza Hut,391 S Washington Ave,,Bergenfield,NJ,07621,US,40.91479874,-73.99720001,2022-12-18 06:25:08
Pizza Hut,536 Market St,,Saddle Brook,NJ,07663,US,40.89730072,-74.10230255,2022-12-18 06:25:08
Pizza Hut,850 Van Houten Ave,,Clifton,NJ,07013,US,40.86259842,-74.15589905,2022-12-18 06:25:08
Pizza Hut,2829 Edson Avenue,,Bronx,NY,10469,US,40.86869812,-73.83380127,2022-12-18 06:25:08
Pizza Hut,111-02 Sutphin Blvd.,,Jamaica,NY,11435,US,40.68840027,-73.79570007,2022-12-18 06:25:08
Pizza Hut,180 Main St,,West Orange,NJ,07052,US,40.78350067,-74.23470306,2022-12-18 06:25:08
Pizza Hut,655 Newark Ave,,Elizabeth,NJ,07208,US,40.67839813,-74.21009827,2022-12-18 06:25:08
Pizza Hut,22003 Hillside Ave,,Queens Village,NY,11427,US,40.7303009,-73.74479675,2022-12-18 06:25:08
Pizza Hut,1820 Route 46,,West Paterson,NJ,07424,US,40.88869858,-74.2173996,2022-12-18 06:25:08
Pizza Hut,1434 Stuyvesant Ave,,Union,NJ,07083,US,40.7052002,-74.26159668,2022-12-18 06:25:08
Pizza Hut,428 W Saint Georges Ave,,Linden,NJ,07036,US,40.63240051,-74.26950073,2022-12-18 06:25:10
Pizza Hut,919 Central Ave,,Scarsdale,NY,10583,US,40.99250031,-73.82289886,2022-12-18 06:25:08
Pizza Hut,1505 Woodruff Rd,,Greenville,SC,29607,US,34.82080078,-82.27909851,2022-12-18 06:25:10
Pizza Hut,336 W. Butler Road,,Mauldin,SC,29662,US,34.77669907,-82.31839752,2022-12-18 06:25:10
Pizza Hut,3327 Augusta Rd,,Greenville,SC,29605,US,34.80599976,-82.37930298,2022-12-18 06:25:10
Pizza Hut,215 Pelham Rd Ste A101,,Greenville,SC,29615,US,34.86790085,-82.34760284,2022-12-18 06:25:10
Pizza Hut,2801 Wade Hampton Blvd.,,Taylors,SC,29687,US,34.90169907,-82.33760071,2022-12-18 06:25:10
Pizza Hut,111 State Park Rd,,Greenville,SC,29609,US,34.89139938,-82.4048996,2022-12-18 06:25:10
Pizza Hut,3831 Grandview Dr,,Simpsonville,SC,29680,US,34.7181015,-82.25740051,2022-12-18 06:25:10
Pizza Hut,3510 Highway 153,,Greenville,SC,29611,US,34.79069901,-82.48300171,2022-12-18 06:25:10
Pizza Hut,8024 Augusta Rd,,Piedmont,SC,29673,US,34.69620132,-82.39890289,2022-12-18 06:25:10
Pizza Hut,1122 N Main St,,Fountain Inn,SC,29644,US,34.70209885,-82.21720123,2022-12-18 06:25:10
Pizza Hut,306 W Wade Hampton Blvd,,Greer,SC,29650,US,34.94940186,-82.23439789,2022-12-18 06:25:10
Pizza Hut,146 Walnut Lane,,Travelers Rest,SC,29690,US,34.97290039,-82.42829895,2022-12-18 06:25:10
Pizza Hut,6919 Calhoun Memorial Hwy Ste C,,Easley,SC,29642,US,34.81959915,-82.59369659,2022-12-18 06:25:10
Pizza Hut,5844 Reidville Hwy.,,Moore,SC,29369,US,34.88759995,-82.06510162,2022-12-18 06:25:14
Pizza Hut,424 Cross Anchor Rd,,Woodruff,SC,29388,US,34.73460007,-82.02929688,2022-12-18 06:25:11
Pizza Hut,11093 Asheville Hwy,,Inman,SC,29349,US,35.03739929,-82.07569885,2022-12-18 06:25:14
Pizza Hut,1696 Asheville Hwy,,Spartanburg,SC,29303,US,34.98070145,-81.96829987,2022-12-18 06:25:14
Pizza Hut,1916 Boiling Springs Rd,,Boiling Springs,SC,29316,US,35.01810074,-81.96140289,2022-12-18 06:25:14
Pizza Hut,1647 E. Greenville St.,,Anderson,SC,29621,US,34.53129959,-82.63500214,2022-12-18 06:25:10
Pizza Hut,2125 East Main St. unit 100,,Spartanburg,SC,29307,US,34.97439957,-81.87969971,2022-12-18 06:25:14
Pizza Hut,105 Video Warehouse Way,,Anderson,SC,29624,US,34.47589874,-82.64959717,2022-12-18 06:25:10
Pizza Hut,1073 Tiger Blvd,,Clemson,SC,29631,US,34.69150162,-82.83480072,2022-12-18 06:25:10
Pizza Hut,906 E Main St,,Laurens,SC,29360,US,34.49280167,-81.98320007,2022-12-18 06:25:11
Pizza Hut,740 S Alabama Ave,,Chesnee,SC,29323,US,35.13489914,-81.86309814,2022-12-18 06:25:14
Pizza Hut,62 Pisgah Hwy,,Pisgah Forest,NC,28768,US,35.2743988,-82.70449829,2022-12-18 06:25:18
Pizza Hut,272 E Franklin St,,Hartwell,GA,30643,US,34.35279846,-82.92469788,2022-12-18 06:25:10
Pizza Hut,740 Cabarrus Ave W,,Concord,NC,28027,US,35.39659882,-80.60839844,2022-12-18 06:25:10
Pizza Hut,3420 US Hwy 601 Ste 110,,Concord,NC,28027,US,35.37039948,-80.55010223,2022-12-18 06:54:29
Pizza Hut,6031 Gateway Center Drive,,Kannapolis,NC,28081,US,35.43690109,-80.67980194,2022-12-18 06:25:10
Pizza Hut,697 Church St N,,Concord,NC,28025,US,35.42860031,-80.59950256,2022-12-18 06:25:10
Pizza Hut,5465 Hwy. 49 South,,Harrisburg,NC,28075,US,35.31990051,-80.66870117,2022-12-18 06:25:10
Pizza Hut,901 N Cannon Blvd,,Kannapolis,NC,28083,US,35.50659943,-80.60959625,2022-12-18 06:25:10
Pizza Hut,10211 Prosperity Park Dr.,,Charlotte,NC,28269,US,35.3647995,-80.78679657,2022-12-18 06:25:10
Pizza Hut,850 Chancellor Park Dr.,,Charlotte,NC,28213,US,35.29439926,-80.74479675,2022-12-18 06:25:10
Pizza Hut,3734 W T Harris Blvd,,Charlotte,NC,28269,US,35.33380127,-80.79519653,2022-12-18 06:25:10
Pizza Hut,14210 Market Square De Ste F2,,Huntersville,NC,28078,US,35.4070015,-80.8640976,2022-12-18 06:25:10
Pizza Hut,1909 Milton Rd,,Charlotte,NC,28215,US,35.2466011,-80.75209808,2022-12-18 06:25:10
Pizza Hut,"5304 Sunset Rd, Ste A",,Charlotte,NC,28269,US,35.30670166,-80.8404007,2022-12-18 06:25:10
Pizza Hut,480 US Hwy. 29,,China Grove,NC,28023,US,35.5666008,-80.57489777,2022-12-18 06:25:08
Pizza Hut,1333-C Shearers Road,,Mooresville,NC,28115,US,35.53519821,-80.79949951,2022-12-18 06:25:10
Pizza Hut,3720 N Tryon St Ste 110,,Charlotte,NC,28206,US,35.25439835,-80.8015976,2022-12-18 06:25:10
Pizza Hut,19507 W Catawba Ave,,Cornelius,NC,28031,US,35.47999954,-80.89129639,2022-12-18 06:25:10
Pizza Hut,"5618 Albemarle Rd, Suite 100(b)",,Charlotte,NC,28212,US,35.20360184,-80.75219727,2022-12-18 06:25:10
Pizza Hut,3044 Eastway Dr,,Charlotte,NC,28205,US,35.21419907,-80.78230286,2022-12-18 06:25:10
Pizza Hut,9229 Lawyers Rd Unit H,,Mint Hill,NC,28227,US,35.1875,-80.6875,2022-12-18 06:25:10
Pizza Hut,209 West Main Street,,Locust,NC,28097,US,35.2594986,-80.42700195,2022-12-18 06:54:29
Pizza Hut,3215 Freedom Dr,,Charlotte,NC,28208,US,35.24409866,-80.89199829,2022-12-18 06:25:10
Pizza Hut,3530 Mt Holly-Huntersville Rd,,Charlotte,NC,28216,US,35.32339859,-80.94609833,2022-12-18 06:25:10
Pizza Hut,116 Norman Station Blvd,,Mooresville,NC,28117,US,35.59249878,-80.85679626,2022-12-18 06:25:12
Pizza Hut,960 W. Main Street,,Rockwell,NC,28138,US,35.5603981,-80.41429901,2022-12-18 06:25:08
Pizza Hut,9614 Monroe Rd,,Charlotte,NC,28270,US,35.14089966,-80.74030304,2022-12-18 06:25:10
Pizza Hut,3909 South Blvd,,Charlotte,NC,28209,US,35.18970108,-80.87490082,2022-12-18 06:25:10
Pizza Hut,171 Cross Center Dr,,Denver,NC,28037,US,35.44340134,-80.99629974,2022-12-18 06:25:10
Pizza Hut,520 Jake Alexander Blvd,,Salisbury,NC,28147,US,35.66130066,-80.49980164,2022-12-18 06:25:08
Pizza Hut,7911 Village Ctr N,,Sherrills Ford,NC,28673,US,35.5848999,-80.98860168,2022-12-18 06:25:12
Pizza Hut,7705 E South Tryon,,Charlotte,NC,28217,US,35.14799881,-80.92479706,2022-12-18 06:25:10
Pizza Hut,3009 N. Clark St.,,Chicago,IL,60657,US,41.9367981,-87.64769745,2022-12-18 06:25:10
Pizza Hut,2516 W North Ave,,Chicago,IL,60647,US,41.91070175,-87.69020081,2022-12-18 06:25:10
Pizza Hut,3045 North Pulaski Rd,,Chicago,IL,60641,US,41.93690109,-87.72660065,2022-12-18 06:25:10
Pizza Hut,951 Howard St.,,Evanston,IL,60202,US,42.01979828,-87.68489838,2022-12-18 06:25:10
Pizza Hut,5020 W Cermak Rd,,Cicero,IL,60804,US,41.85160065,-87.75099945,2022-12-18 06:25:10
Pizza Hut,2042 W 47th St,,Chicago,IL,60609,US,41.80889893,-87.67630005,2022-12-18 06:25:10
Pizza Hut,4350 S Pulaski Rd,,Chicago,IL,60632,US,41.81389999,-87.72429657,2022-12-18 06:25:10
Pizza Hut,7060 Forest Preserve Dr.,,Norridge,IL,60706,US,41.95569992,-87.80419922,2022-12-18 06:25:10
Pizza Hut,5401 S Wentworth Ave,,Chicago,IL,60609,US,41.79560089,-87.63030243,2022-12-18 06:25:10
Pizza Hut,5620 Dempster St,,Morton Grove,IL,60053,US,42.04119873,-87.7677002,2022-12-18 06:25:10
Pizza Hut,"2828 S. 17th Ave., Suite C",,Broadview,IL,60155,US,41.85169983,-87.85289764,2022-12-18 06:25:10
Pizza Hut,5836 S Harlem,,Summit,IL,60501,US,41.78509903,-87.80169678,2022-12-18 06:25:10
Pizza Hut,2926 Mannheim Rd. #B,,Franklin Park,IL,60131,US,41.93190002,-87.88539886,2022-12-18 06:25:10
Pizza Hut,7957 Golf Rd,,Morton Grove,IL,60053,US,42.05419922,-87.82440186,2022-12-18 06:25:10
Pizza Hut,8849 S Stony Island Ave,,Chicago,IL,60617,US,41.7336998,-87.5848999,2022-12-18 06:25:10
Pizza Hut,5545 W. St. Charles Road,,Berkeley,IL,60163,US,41.88880157,-87.90679932,2022-12-18 06:25:10
Pizza Hut,2849 W. 95th St.,,Evergreen Park,IL,60805,US,41.72050095,-87.69400024,2022-12-18 06:25:10
Pizza Hut,7929 S Harlem Ave,,Burbank,IL,60459,US,41.74670029,-87.79869843,2022-12-18 06:25:10
Pizza Hut,1387 Lee Street,,Des Plaines,IL,60018,US,42.02799988,-87.89360046,2022-12-18 06:25:10
Pizza Hut,11708 S. Marshfield Ave,,Chicago,IL,60643,US,41.68069839,-87.66269684,2022-12-18 06:25:10
Pizza Hut,32 W Lake St,,Addison,IL,60101,US,41.93299866,-87.99009705,2022-12-18 06:25:10
Pizza Hut,11101 Southwest Hwy,,Palos Hills,IL,60465,US,41.68939972,-87.80899811,2022-12-18 06:25:10
Pizza Hut,"17 West Ogden Ave., Unit C",,Westmont,IL,60559,US,41.80970001,-87.97769928,2022-12-18 06:25:10
Pizza Hut,13223 S. Cicero Ave.,,Crestwood,IL,60445,US,41.65169907,-87.73729706,2022-12-18 06:25:10
Pizza Hut,30 W Roosevelt Rd,,Lombard,IL,60148,US,41.86040115,-88.01899719,2022-12-18 06:25:10
Pizza Hut,709 Meacham Rd.,,Elk Grove Village,IL,60007,US,42.00439835,-88.04519653,2022-12-18 06:25:10
Pizza Hut,440 E 162nd St.,,South Holland,IL,60473,US,41.6012001,-87.60579681,2022-12-18 06:25:10
Pizza Hut,3330 Kirchoff Rd.,,Rolling Meadows,IL,60008,US,42.07920074,-88.021698,2022-12-18 06:25:11
Pizza Hut,7451 South Woodward Avenue,,Woodridge,IL,60517,US,41.75170135,-88.03019714,2022-12-18 06:25:10
Pizza Hut,15 W Dundee Rd,,Arlington Heights,IL,60004,US,42.13880157,-87.98370361,2022-12-18 06:25:11
Pizza Hut,4237 W. 167th Street,,Country Club Hills,IL,60478,US,41.58499908,-87.72039795,2022-12-18 06:25:10
Pizza Hut,7842 West 159th Street,,Orland Park,IL,60462,US,41.60250092,-87.8105011,2022-12-18 06:25:10
Pizza Hut,7331 Indianapolis Blvd,,Hammond,IN,46323,US,41.58010101,-87.48069763,2022-12-18 06:25:13
Pizza Hut,18042 South Halstead Street,,Homewood,IL,60430,US,41.56119919,-87.63700104,2022-12-18 06:25:10
Pizza Hut,1085 Maryland Ave,,Hagerstown,MD,21740,US,39.62310028,-77.73339844,2022-12-18 06:25:14
Pizza Hut,1396 Dual Hwy,,Hagerstown,MD,21740,US,39.62490082,-77.69670105,2022-12-18 06:25:14
Pizza Hut,152 S Antrim Way,,Greencastle,PA,17225,US,39.78829956,-77.73320007,2022-12-18 06:25:15
Pizza Hut,300 E Main St,,Waynesboro,PA,17268,US,39.75249863,-77.5727005,2022-12-18 06:25:14
Pizza Hut,1309B Old Courthouse Square,,Martinsburg,WV,25401,US,39.47750092,-77.9559021,2022-12-18 06:25:15
Pizza Hut,1830 Rosemont Ave.,,Frederick,MD,21702,US,39.43090057,-77.43409729,2022-12-18 06:25:14
Pizza Hut,901 Lincoln Way West,,Chambersburg,PA,17202,US,39.93650055,-77.68389893,2022-12-18 06:25:15
Pizza Hut,928 Lincoln Way E,,Chambersburg,PA,17201,US,39.93159866,-77.64450073,2022-12-18 06:25:15
Pizza Hut,425 South Jefferson St.,,Frederick,MD,21704,US,39.40829849,-77.42960358,2022-12-18 06:25:14
Pizza Hut,210 S. Seton Ave,,Emmitsburg,MD,21727,US,39.70240021,-77.32810211,2022-12-18 06:25:14
Pizza Hut,24 E. Frederick,,Walkersville,MD,21793,US,39.48339844,-77.34570312,2022-12-18 06:25:14
Pizza Hut,"184 Flowing Springs Rd., Suite 100",,Charles Town,WV,25414,US,39.29710007,-77.84230042,2022-12-18 06:25:14
Pizza Hut,4976 Gerrardstown Road,,Inwood,WV,25428,US,39.36119843,-78.04129791,2022-12-18 06:25:15
Pizza Hut,224 W. Main,,Hancock,MD,21750,US,39.70050049,-78.18659973,2022-12-18 06:25:15
Pizza Hut,237 Buford Ave,,Gettysburg,PA,17325,US,39.83330154,-77.24120331,2022-12-18 06:25:15
Pizza Hut,815 W King St,,Shippensburg,PA,17257,US,40.04370117,-77.53420258,2022-12-18 06:25:11
Pizza Hut,4341 Old Taneytown Rd,,Taneytown,MD,21787,US,39.64709854,-77.15370178,2022-12-18 06:54:29
Pizza Hut,"790 West King, Suite 5",,Littlestown,PA,17340,US,39.7419014,-77.10040283,2022-12-18 06:54:29
Pizza Hut,16476 Lincoln Hwy,,Breezewood,PA,15533,US,39.99900055,-78.23709869,2022-12-18 06:25:15
Pizza Hut,814 S Cameron St,,Winchester,VA,22601,US,39.17660141,-78.16670227,2022-12-18 06:25:15
Pizza Hut,19733 N. Frederick Rd.,,Germantown,MD,20876,US,39.17969894,-77.2365036,2022-12-18 06:25:14
Pizza Hut,9130 Rothbury Dr,,Gaithersburg,MD,20886,US,39.18470001,-77.18900299,2022-12-18 07:39:42
Pizza Hut,299 Muddy Branch Rd,,Gaithersburg,MD,20878,US,39.12720108,-77.20839691,2022-12-18 07:39:42
Pizza Hut,18509 Woodfield,,Gaithersburg,MD,20879,US,39.16019821,-77.15899658,2022-12-18 07:39:42
Pizza Hut,2436 E Bell Rd,,Phoenix,AZ,85032,US,33.64089966,-112.02899933,2022-12-16 15:27:42
Pizza Hut,3103 E. Cactus Road,,Phoenix,AZ,85028,US,33.5965004,-112.01499939,2022-12-18 07:39:42
Pizza Hut,420 E. Bell Road,,Phoenix,AZ,85022,US,33.64170074,-112.06800079,2022-12-18 06:25:11
Pizza Hut,"6501 E. Greenway Parkway, Ste. 108",,Scottsdale,AZ,85254,US,33.62540054,-111.94100189,2022-12-18 06:25:14
Pizza Hut,"20206 North 27th Ave., suite B",,Phoenix,AZ,85027,US,33.67039871,-112.11799622,2022-12-18 06:25:11
Pizza Hut,13624 N. 35th Avenue,,Phoenix,AZ,85029,US,33.60969925,-112.13400269,2022-12-18 06:25:11
Pizza Hut,8052 N. 19th Ave.,,Phoenix,AZ,85021,US,33.55509949,-112.10099792,2022-11-28 22:17:32
Pizza Hut,5832 16th Street,,Phoenix,AZ,85016,US,33.52280045,-112.04799652,2022-12-18 07:39:42
Pizza Hut,"1816 W. Bethany Home Road, Ste 104",,Phoenix,AZ,85015,US,33.52429962,-112.09899902,2022-12-18 07:39:42
Pizza Hut,8860 N 43rd Ave,,Glendale,AZ,85302,US,33.5658989,-112.15200043,2022-12-18 06:25:11
Pizza Hut,5825 W Bell Rd,,Glendale,AZ,85308,US,33.63840103,-112.18399811,2022-12-18 06:25:11
Pizza Hut,4322 W Glendale Ave,,Glendale,AZ,85301,US,33.53879929,-112.15200043,2022-12-18 06:25:11
Pizza Hut,11291 E. Via Linda,,Scottsdale,AZ,85259,US,33.58769989,-111.83699799,2022-12-18 07:39:42
Pizza Hut,3602 E Thomas Rd,,Phoenix,AZ,85018,US,33.48070145,-112.0039978,2022-12-18 07:39:42
Pizza Hut,4436 N. Miller Road Suite 105,,Scottsdale,AZ,85251,US,33.50149918,-111.91799927,2022-12-18 07:39:42
Pizza Hut,1839 W Indian School Rd,,Phoenix,AZ,85015,US,33.49489975,-112.09899902,2022-12-18 07:39:42
Pizza Hut,2835 N 16th St.,,Phoenix,AZ,85006,US,33.47949982,-112.04699707,2022-12-18 07:39:42
Pizza Hut,3602 W Camelback Rd,,Phoenix,AZ,85019,US,33.50970078,-112.13700104,2022-12-18 07:39:42
Pizza Hut,6750 W. Peoria Ave.,,Peoria,AZ,85345,US,33.58240128,-112.20600128,2022-12-18 06:25:11
Pizza Hut,24786 N 67th Ave #110,,Peoria,AZ,85383,US,33.70949936,-112.20400238,2022-12-18 06:25:11
Pizza Hut,"7790 E. McDowell Road, Suite 102",,Scottsdale,AZ,85257,US,33.46620178,-111.91200256,2022-12-18 07:39:42
Pizza Hut,"34640 N. North Valley Pkwy., #A3",,Phoenix,AZ,85086,US,33.79909897,-112.13200378,2022-12-16 15:27:49
Pizza Hut,"21 W. Van Buren St., Ste. G4",,Phoenix,AZ,85003,US,33.45130157,-112.07499695,2022-12-18 07:39:42
Pizza Hut,5045 W Indian School Rd,,Phoenix,AZ,85031,US,33.49449921,-112.16799927,2022-12-18 06:25:11
Pizza Hut,6650 W Bethany Home Rd,,Glendale,AZ,85301,US,33.52420044,-112.20200348,2022-12-18 06:25:11
Pizza Hut,1520 N 43rd Ave,,Phoenix,AZ,85009,US,33.46490097,-112.15200043,2022-12-18 07:39:42
Pizza Hut,"9151 W. Peoria Rd., Suite 101",,Peoria,AZ,85345,US,33.58060074,-112.2559967,2022-12-18 06:25:11
Pizza Hut,6601 W Indian School Rd,,Phoenix,AZ,85033,US,33.49290085,-112.20200348,2022-12-18 06:25:11
Pizza Hut,"10050 W Bell Rd., #22",,Sun City,AZ,85351,US,33.63949966,-112.27700043,2022-12-18 06:25:11
Pizza Hut,21391 N. Lake Pleasant Pkwy.,,Peoria,AZ,85382,US,33.67850113,-112.27799988,2022-12-18 06:25:11
Pizza Hut,8179 Princeton Glendale Rd,,West Chester,OH,45069,US,39.35369873,-84.46080017,2022-12-18 06:25:10
Pizza Hut,6625-D Dixie Hwy,,Fairfield,OH,45014,US,39.31990051,-84.49949646,2022-12-18 06:54:29
Pizza Hut,10591 Springfield Pike,,Cincinnati,OH,45215,US,39.2594986,-84.47109985,2022-12-18 06:54:29
Pizza Hut,"2870 Menards Blvd, Suite 4",,Hamilton,OH,45011,US,39.39080048,-84.51699829,2022-12-18 06:25:10
Pizza Hut,5546 S. Kings Mills Rd.,,Mason,OH,45040,US,39.35860062,-84.26799774,2022-12-18 07:39:42
Pizza Hut,9725 Kenwood Rd,,Blue Ash,OH,45242,US,39.23529816,-84.37689972,2022-12-18 06:54:29
Pizza Hut,294 N Main St,,Monroe,OH,45050,US,39.44810104,-84.35690308,2022-12-18 07:39:42
Pizza Hut,5245 Pleasant Avenue,,Fairfield,OH,45014,US,39.3368988,-84.56079865,2022-12-18 06:25:10
Pizza Hut,835 West State Street,,Trenton,OH,45067,US,39.48040009,-84.47239685,2022-12-18 07:39:42
Pizza Hut,913 W Galbraith Rd,,Cincinnati,OH,45231,US,39.21569824,-84.51889801,2022-12-18 06:54:29
Pizza Hut,1242 Main Street,,Hamilton,OH,45013,US,39.41820145,-84.58670044,2022-12-18 06:25:10
Pizza Hut,4485 Marie Dr,,Middletown,OH,45044,US,39.50289917,-84.35189819,2022-12-18 07:39:42
Pizza Hut,9632 Colerain Ave,,Cincinnati,OH,45251,US,39.25279999,-84.59829712,2022-12-18 06:54:29
Pizza Hut,2201 N Verity Pkwy,,Middletown,OH,45042,US,39.52659988,-84.38770294,2022-12-18 07:39:42
Pizza Hut,4971 Vine St,,Cincinnati,OH,45217,US,39.16970062,-84.49819946,2022-12-18 06:54:29
Pizza Hut,4432 Montgomery Rd,,Norwood,OH,45212,US,39.15739822,-84.45749664,2022-12-18 06:54:29
Pizza Hut,790 N Main Street,,Milford,OH,45150,US,39.1772995,-84.28119659,2022-12-18 06:54:29
Pizza Hut,3972 Red Bank Road,,Madeira,OH,45227,US,39.14599991,-84.40399933,2022-12-18 06:54:29
Pizza Hut,4 Hiawatha Trl,,Springboro,OH,45066,US,39.56290054,-84.25689697,2022-12-18 07:39:42
Pizza Hut,6463 Glenway Avenue,,Cincinnati,OH,45211,US,39.15169907,-84.62830353,2022-12-18 06:54:29
Pizza Hut,4530 Eastgate Blvd,,Cincinnati,OH,45245,US,39.10200119,-84.27140045,2022-12-18 06:54:29
Pizza Hut,440 Ohio Pike,,Cincinnati,OH,45255,US,39.07220078,-84.31210327,2022-12-18 06:54:29
Pizza Hut,4964 Delhi Pike Avenue,,Cincinnati,OH,45238,US,39.09619904,-84.60800171,2022-12-18 06:54:29
Pizza Hut,10459 Harrison Avenue,,Harrison,OH,45030,US,39.24940109,-84.79000092,2022-12-18 06:25:10
Pizza Hut,2730 Alexandria Pike,,Highland Heights,KY,41076,US,39.03290176,-84.45220184,2022-12-18 06:54:29
Pizza Hut,1200 East Central Avenue,,Miamisburg,OH,45342,US,39.63980103,-84.26959991,2022-12-18 07:39:42
Pizza Hut,9134 Lebanon Pike,,Dayton,OH,45458,US,39.6114006,-84.1595993,2022-12-18 07:39:42
Pizza Hut,1960 North Bend Road,,Hebron,KY,41048,US,39.0909996,-84.71170044,2022-12-18 06:54:29
Pizza Hut,3149 Dixie Way,,Erlanger,KY,41018,US,39.01890182,-84.59140015,2022-12-18 06:54:29
Pizza Hut,733 E Central,,West Carrollton,OH,45449,US,39.67679977,-84.24160004,2022-12-18 07:39:42
Pizza Hut,"3600 Cherokee St, #101",,Kennesaw,GA,30144,US,34.04240036,-84.60209656,2022-12-18 06:25:11
Pizza Hut,"4221 Bells Ferry Dr., #103",,Kennesaw,GA,30144,US,34.05419922,-84.55699921,2022-12-18 06:25:11
Pizza Hut,1075 Whitlock Ave SW,,Marietta,GA,30064,US,33.95159912,-84.58010101,2022-12-18 06:25:11
Pizza Hut,5070 Cherokee St,,Acworth,GA,30101,US,34.07540131,-84.67649841,2022-12-18 06:25:11
Pizza Hut,"2520 E. Piedmont Rd., #124",,Marietta,GA,30062,US,34.01309967,-84.49259949,2022-12-18 06:25:11
Pizza Hut,1386 Roswell Rd,,Marietta,GA,30062,US,33.95050049,-84.51190186,2022-12-18 06:25:11
Pizza Hut,"4451 Town Lake Pkwy., #310",,Woodstock,GA,30189,US,34.1271019,-84.57180023,2022-12-18 06:25:11
Pizza Hut,12050 Highway 92,,Woodstock,GA,30188,US,34.08660126,-84.4858017,2022-12-18 06:25:12
Pizza Hut,4514 N Cobb Pkwy,,Acworth,GA,30101,US,34.06549835,-84.72350311,2022-12-18 06:25:11
Pizza Hut,"8876 Dallas-Acworth Hwy., #106",,Dallas,GA,30132,US,34.01039886,-84.75270081,2022-12-18 06:25:11
Pizza Hut,250 Windy Hill Rd Ste 200,,Marietta,GA,30060,US,33.89379883,-84.55290222,2022-12-18 06:25:11
Pizza Hut,4075 Marietta Hwy,,Dallas,GA,30157,US,33.93569946,-84.72519684,2022-12-18 06:25:11
Pizza Hut,"2860 E West Connector, Ste 105",,Austell,GA,30106,US,33.86719894,-84.62750244,2022-12-18 06:25:11
Pizza Hut,"3217 New Macland Rd., Ste 150",,Powder Springs,GA,30127,US,33.87519836,-84.67440033,2022-12-18 06:25:11
Pizza Hut,2260 Holly Springs Parkway.,,Canton,GA,30115,US,34.17979813,-84.5042038,2022-12-18 06:25:12
Pizza Hut,2980 Cobb Pkwy Ste 140,,Atlanta,GA,30339,US,33.87990189,-84.46199799,2022-12-18 06:25:11
Pizza Hut,"5005 Floyd Rd, Suite 910",,Mableton,GA,30126,US,33.83330154,-84.57559967,2022-12-18 06:25:11
Pizza Hut,"4480 S Cobb Dr S, Ste Q",,Smyrna,GA,30080,US,33.84370041,-84.50370026,2022-12-18 06:25:11
Pizza Hut,"8290 Roswell Rd., #800",,Atlanta,GA,30350,US,33.98099899,-84.3513031,2022-12-18 06:25:12
Pizza Hut,661 Holcomb Bridge Rd,,Roswell,GA,30076,US,34.03329849,-84.34200287,2022-12-18 06:25:12
Pizza Hut,"4920 Roswell Rd., #22",,Atlanta,GA,30342,US,33.8893013,-84.3832016,2022-12-18 06:25:12
Pizza Hut,"500 Nathan Dean Blvd, Ste 101",,Dallas,GA,30157,US,33.90779877,-84.82520294,2022-12-18 06:25:11
Pizza Hut,2020 Bolton Road,,Atlanta,GA,30318,US,33.81159973,-84.47609711,2022-12-18 06:25:11
Pizza Hut,122 Merchants SQ. Drive,,Cartersville,GA,30120,US,34.19710159,-84.78890228,2022-12-18 06:25:11
Pizza Hut,"652 Riverstone Pkwy, Suite 120",,Canton,GA,30114,US,34.24489975,-84.48269653,2022-12-18 06:25:12
Pizza Hut,6951 Sweetwater Road,,Lithia Springs,GA,30122,US,33.78580093,-84.65660095,2022-12-18 06:25:11
Pizza Hut,2300 Holcomb Bridge Rd.,,Roswell,GA,30076,US,34.0041008,-84.29380035,2022-12-18 06:25:12
Pizza Hut,3176 Peachtree Road NE,,Atlanta,GA,30305,US,33.8409996,-84.37640381,2022-12-18 06:25:14
Pizza Hut,4811 Ridge Rd Suite #100,,Douglasville,GA,30134,US,33.81869888,-84.81390381,2022-12-18 06:25:11
Pizza Hut,5485 Peachtree Industrial Blvd,,Chamblee,GA,30341,US,33.89709854,-84.30259705,2022-12-18 06:25:12
Pizza Hut,1256 S Stratford Rd,,Winston-Salem,NC,27103,US,36.07839966,-80.3015976,2022-12-18 06:25:08
Pizza Hut,5062 Styers Ferry,,Lewisville,NC,27023,US,36.07849884,-80.38670349,2022-12-18 06:25:08
Pizza Hut,3025 Waughtown St,,Winston-Salem,NC,27107,US,36.0788002,-80.18009949,2022-12-18 06:25:08
Pizza Hut,"189 Hickory Tree Road, Suite 106B",,Winston Salem,NC,27107,US,35.96630096,-80.22290039,2022-12-18 06:25:08
Pizza Hut,"5952 University Pkwy, Ste E",,Winston-Salem,NC,27105,US,36.18659973,-80.27719879,2022-12-18 06:25:08
Pizza Hut,5188 Reidsville Rd.,,Walkertown,NC,27051,US,36.16350174,-80.13659668,2022-12-18 06:25:08
Pizza Hut,838-C South Main St.,,Kernersville,NC,27284,US,36.11230087,-80.08930206,2022-12-18 06:25:08
Pizza Hut,213 Vesta St.,,King,NC,27021,US,36.26029968,-80.36229706,2022-12-18 06:25:08
Pizza Hut,645 Madison Rd,,Mocksville,NC,27028,US,35.92110062,-80.58920288,2022-12-18 06:25:08
Pizza Hut,2900 -108 N Main St,,High Point,NC,27262,US,35.99599838,-80.03209686,2022-12-18 06:25:08
Pizza Hut,4423 S NC Highway 150,,Lexington,NC,27295,US,35.80730057,-80.37419891,2022-12-18 06:25:08
Pizza Hut,914 S State St,,Yadkinville,NC,27055,US,36.11809921,-80.66069794,2022-12-18 06:25:08
Pizza Hut,903 Randolph Street,,Thomasville,NC,27360,US,35.86989975,-80.07309723,2022-12-18 06:25:08
Pizza Hut,3935 Brian Jordan Plaza,,High Point,NC,27261,US,36.03329849,-79.96250153,2022-12-18 06:25:08
Pizza Hut,"7605 NC Hwy 68 North, Unit E",,Oak Ridge,NC,27310,US,36.2112999,-79.99150085,2022-12-18 06:25:08
Pizza Hut,10102 S Main Street,,Archdale,NC,27263,US,35.9007988,-79.95050049,2022-12-18 06:25:08
Pizza Hut,600 College Rd,,Greensboro,NC,27410,US,36.08620071,-79.8884964,2022-12-18 06:25:08
Pizza Hut,4719-D Gate City Blvd,,Greensboro,NC,27407,US,36.02830124,-79.86889648,2022-12-18 06:25:08
Pizza Hut,4008 Battleground Avenue,,Greensboro,NC,27410,US,36.14699936,-79.86669922,2022-12-18 06:25:08
Pizza Hut,1719 Spring Garden St,,Greensboro,NC,27403,US,36.06330109,-79.8207016,2022-12-18 06:25:08
Pizza Hut,"4002 Elton Way, #103",,Greensboro,NC,27406,US,36.00550079,-79.79219818,2022-12-18 06:25:08
Pizza Hut,1009 Highway Street,,Madison,NC,27025,US,36.40060043,-79.97129822,2022-12-18 06:25:14
Pizza Hut,1039 N Bridge St,,Elkin,NC,28621,US,36.26229858,-80.84970093,2022-12-18 06:25:12
Pizza Hut,2101 - 104 Pyramids Village Blvd.,,Greensboro,NC,27405,US,36.10789871,-79.75489807,2022-12-18 06:25:08
Pizza Hut,349 Andy Griffith Pkwy.,,Mount Airy,NC,27030,US,36.49470139,-80.6207962,2022-12-18 06:25:12
Pizza Hut,4101 Burlington Rd,,Greensboro,NC,27405,US,36.08760071,-79.7118988,2022-12-18 06:25:08
Pizza Hut,940 Davie Ave Ste C,,Statesville,NC,28677,US,35.79380035,-80.87470245,2022-12-18 06:25:12
Pizza Hut,15105 John J Delaney Dr Ste 1,,Charlotte,NC,28277,US,35.05310059,-80.8470993,2022-12-18 06:25:10
Pizza Hut,"10860 Park Rd, Ste 101",,Pineville,NC,28134,US,35.08819962,-80.87120056,2022-12-18 06:25:10
Pizza Hut,"5943 Weddington Rd, Suite 104",,Wesley Chapel,NC,28104,US,35.00329971,-80.6989975,2022-12-18 06:25:10
Pizza Hut,"1754 W. Hwy. 160, Ste. 101",,Fort Mill,SC,29708,US,35.03530121,-80.9720993,2022-12-18 06:25:13
Pizza Hut,703 W South Main St.,,Waxhaw,NC,28173,US,34.92359924,-80.75050354,2022-12-18 06:25:13
Pizza Hut,6732 B Old Monroe Rd.,,Indian Trail,NC,28079,US,35.04729843,-80.64640045,2022-12-18 06:25:10
Pizza Hut,2245 Cherry Rd,,Rock Hill,SC,29732,US,34.96580124,-80.99839783,2022-12-18 06:25:13
Pizza Hut,2111 W Roosevelt Blvd,,Monroe,NC,28110,US,35.00550079,-80.5582962,2022-12-18 06:54:29
Pizza Hut,497 S Herlong Ave,,Rock Hill,SC,29732,US,34.95199966,-81.06140137,2022-12-18 06:25:13
Pizza Hut,5241 Hwy 557,,Lake Wylie,SC,29710,US,35.11880112,-81.08560181,2022-12-18 06:25:13
Pizza Hut,1013 W Roosevelt Blvd,,Monroe,NC,28110,US,34.99280167,-80.5388031,2022-12-18 06:54:29
Pizza Hut,685 Park St.,,Belmont,NC,28012,US,35.25460052,-81.02780151,2022-12-18 06:25:10
Pizza Hut,"2609 South New Hope Rd., Suite 2",,Gastonia,NC,28056,US,35.2397995,-81.12280273,2022-12-18 06:25:13
Pizza Hut,209 North Main St.,,Wingate,NC,28174,US,34.98410034,-80.44909668,2022-12-18 06:54:29
Pizza Hut,1100 Hwy 9 Bypass,,Lancaster,SC,29720,US,34.73509979,-80.79019928,2022-12-18 06:25:13
Pizza Hut,801 Volvo Pkwy Ste 102,,Chesapeake,VA,23320,US,36.76720047,-76.22769928,2022-12-18 06:25:16
Pizza Hut,1830 Kempsville Rd Ste 108,,Virginia Beach,VA,23464,US,36.78179932,-76.18939972,2022-12-18 06:25:16
Pizza Hut,1328 Fordham Dr,,Virginia Beach,VA,23464,US,36.79919815,-76.17489624,2022-12-18 06:25:16
Pizza Hut,211 Providence Rd Ste 14,,Chesapeake,VA,23325,US,36.79769897,-76.2542038,2022-12-18 06:25:16
Pizza Hut,717 Battlefield Blvd,,Chesapeake,VA,23322,US,36.70090103,-76.23339844,2022-12-18 06:25:16
Pizza Hut,6633 Indian River Rd,,Virginia Beach,VA,23464,US,36.81890106,-76.22109985,2022-12-18 06:25:16
Pizza Hut,1620 Cedar Road Suite 111,,Chesapeake,VA,23322,US,36.72840118,-76.29969788,2022-12-18 06:25:16
Pizza Hut,5281 Princess Anne Rd,,Virginia Beach,VA,23462,US,36.82820129,-76.16790009,2022-12-18 06:25:16
Pizza Hut,1949 Lynnhaven Pkwy Ste 1564,,Virginia Beach,VA,23456,US,36.79560089,-76.1190033,2022-12-18 06:25:16
Pizza Hut,"3302 S Military Hwy, #6",,Chesapeake,VA,23323,US,36.77220154,-76.33640289,2022-12-18 06:25:16
Pizza Hut,3884 Holland Rd,,Virginia Beach,VA,23452,US,36.8146019,-76.1085968,2022-12-18 06:25:16
Pizza Hut,4548 E Princess Anne Rd,,Norfolk,VA,23502,US,36.86729813,-76.2335968,2022-12-18 06:25:16
Pizza Hut,"3208 Holland Rd, Suite 116",,Virginia Beach,VA,23453,US,36.79339981,-76.08070374,2022-12-18 06:25:16
Pizza Hut,"5393 Wesleyan Dr., Ste. 111",,Virginia Beach,VA,23455,US,36.86940002,-76.16230011,2022-12-18 06:25:16
Pizza Hut,1302 Monticello Ave.,,Norfolk,VA,23510,US,36.8614006,-76.28610229,2022-12-18 06:25:16
Pizza Hut,"3636 Virginia Beach Blvd., Ste.1",,Virginia Beach,VA,23452,US,36.84159851,-76.09729767,2022-12-18 06:25:17
Pizza Hut,4032 A Victory Blvd,,Portsmouth,VA,23701,US,36.81100082,-76.35720062,2022-12-18 06:25:16
Pizza Hut,"2129 General Booth Blvd., Ste.121",,Virginia Beach,VA,23454,US,36.76679993,-76.01609802,2022-12-18 06:25:16
Pizza Hut,2352 E. Little Creek Rd,,Norfolk,VA,23518,US,36.91619873,-76.21759796,2022-12-18 06:25:14
Pizza Hut,2628 Taylor Rd,,Chesapeake,VA,23321,US,36.83129883,-76.41470337,2022-12-18 06:25:16
Pizza Hut,805 First Colonial Rd,,Virginia Beach,VA,23451,US,36.85329819,-76.02380371,2022-12-18 06:25:17
Pizza Hut,3130 Western Branch Blvd,,Chesapeake,VA,23321,US,36.86360168,-76.40170288,2022-12-18 06:25:16
Pizza Hut,531 N Birdneck Rd,,Virginia Beach,VA,23451,US,36.84909821,-75.99479675,2022-12-18 06:25:17
Pizza Hut,9643 1st View St,,Norfolk,VA,23503,US,36.95589828,-76.2542038,2022-12-18 06:25:14
Pizza Hut,9700 N. Rodgers Road,,Norfolk,VA,23511,US,36.95959854,-76.32859802,2022-12-18 06:25:14
Pizza Hut,"3575 Bridge Road, Unit 31",,Suffolk,VA,23435,US,36.86109924,-76.46749878,2022-12-18 06:25:15
Pizza Hut,1520 N Main St,,Suffolk,VA,23434,US,36.74990082,-76.58300018,2022-12-18 06:25:15
Pizza Hut,26 W Mercury Blvd,,Hampton,VA,23669,US,37.04399872,-76.34999847,2022-12-18 06:25:14
Pizza Hut,2724 W Mercury Blvd,,Hampton,VA,23666,US,37.03480148,-76.41439819,2022-12-18 06:25:14
Pizza Hut,10862 Warwick Blvd,,Newport News,VA,23601,US,37.04169846,-76.46929932,2022-12-18 06:25:14
Pizza Hut,205 Applewood Center Place.,,Seneca,SC,29672,US,34.69049835,-82.9885025,2022-12-18 06:25:10
Pizza Hut,812 W Greenwood St,,Abbeville,SC,29620,US,34.16249847,-82.38300323,2022-12-18 06:25:17
Pizza Hut,14249 Jones St,,Lavonia,GA,30553,US,34.44810104,-83.12729645,2022-12-18 06:25:10
Pizza Hut,585 Heard St,,Elberton,GA,30635,US,34.104599,-82.85289764,2022-12-18 06:25:19
Pizza Hut,200 Franklin Springs Cir,,Royston,GA,30662,US,34.28530121,-83.12210083,2022-12-18 06:25:10
Pizza Hut,535 Bypass 72 NW,,Greenwood,SC,29649,US,34.20349884,-82.1957016,2022-12-18 06:25:11
Pizza Hut,2485 S Main St,,Harrisonburg,VA,22801,US,38.41899872,-78.89569855,2022-12-18 06:25:17
Pizza Hut,1550 E Market Street,,Harrisonburg,VA,22802,US,38.43529892,-78.84649658,2022-12-18 06:25:17
Pizza Hut,249 S Stuart Ave,,Elkton,VA,22827,US,38.40660095,-78.61849976,2022-12-18 06:25:17
Pizza Hut,729C Richmond Ave.,,Staunton,VA,24401,US,38.14260101,-79.05329895,2022-12-18 06:25:17
Pizza Hut,400 Tiffany Dr,,Waynesboro,VA,22980,US,38.06650162,-78.93190002,2022-12-18 06:25:17
Pizza Hut,"2627 Stuarts Draft Hwy, Suite 113A",,Stuarts Draft,VA,24477,US,38.03369904,-79.03639984,2022-12-18 06:25:17
Pizza Hut,8582 Seminole Trail,,Ruckersville,VA,22968,US,38.22840118,-78.37180328,2022-12-18 06:25:17
Pizza Hut,230 Twentyninth Place,,Charlottesville,VA,22901,US,38.07799911,-78.47949982,2022-12-18 06:25:17
Pizza Hut,325 W Reservoir Rd,,Woodstock,VA,22664,US,38.87020111,-78.52449799,2022-12-18 06:25:17
Pizza Hut,901 S Kings Hwy,,Myrtle Beach,SC,29577,US,33.67959976,-78.89810181,2022-12-18 06:25:10
Pizza Hut,7753 N Kings Hwy # 2A,,Myrtle Beach,SC,29572,US,33.74850082,-78.81770325,2022-12-18 06:25:10
Pizza Hut,3736 Renee Dr,,Myrtle Beach,SC,29579,US,33.75880051,-78.96710205,2022-12-18 06:25:10
Pizza Hut,5520 Dick Pond Rd,,Myrtle Beach,SC,29575,US,33.68270111,-79.00050354,2022-12-18 06:25:10
Pizza Hut,1610 N Kings Hwy,,Surfside Beach,SC,29575,US,33.62480164,-78.96890259,2022-12-18 06:25:10
Pizza Hut,11885 Highway 707,,Murrells Inlet,SC,29576,US,33.58819962,-79.05329895,2022-12-18 06:25:10
Pizza Hut,1610-A Church Street,,Conway,SC,29526,US,33.8470993,-79.0617981,2022-12-18 06:25:10
Pizza Hut,80 Highway 17 S,,North Myrtle Beach,SC,29582,US,33.82740021,-78.6815033,2022-12-18 06:25:10
Pizza Hut,530 Church St,,Georgetown,SC,29440,US,33.36940002,-79.27639771,2022-12-18 06:25:13
Pizza Hut,2418 E. Hwy 76,,Marion,SC,29571,US,34.18330002,-79.37000275,2022-12-18 06:25:10
Pizza Hut,6312 W 89th St,,Los Angeles,CA,90045,US,33.9557991,-118.39700317,2022-12-18 06:25:13
Pizza Hut,1275 S. La Brea Ave.,,Inglewood,CA,90301,US,33.94599915,-118.35299683,2022-12-18 06:25:13
Pizza Hut,1000 N. La Brea Ave,,Inglewood,CA,90302,US,33.97660065,-118.35700226,2022-12-18 06:25:16
Pizza Hut,12203 Hawthorne Blvd,,Hawthorne,CA,90250,US,33.92160034,-118.35299683,2022-12-18 06:25:11
Pizza Hut,10780 Jefferson Blvd.,,Culver City,CA,90230,US,34.00270081,-118.39399719,2022-12-18 06:25:16
Pizza Hut,11115 Crenshaw Blvd,,Inglewood,CA,90303,US,33.93439865,-118.32700348,2022-12-18 06:25:13
Pizza Hut,4830 W. Rosecrans Ave.,,Hawthorne,CA,90250,US,33.90159988,-118.36199951,2022-12-18 06:25:11
Pizza Hut,3109 W Rosecrans Ave.,,Hawthorne,CA,90250,US,33.90230179,-118.32700348,2022-12-18 06:25:11
Pizza Hut,4356 Leimert Blvd,,Los Angeles,CA,90008,US,34.00500107,-118.33000183,2022-12-18 06:25:15
Pizza Hut,11146 Palms Blvd.,,Los Angeles,CA,90034,US,34.01910019,-118.42199707,2022-12-16 15:27:38
Pizza Hut,1851 W Slauson Ave,,Los Angeles,CA,90047,US,33.98949814,-118.30999756,2022-12-18 06:25:15
Pizza Hut,"1411 Lincoln Blvd, Suite 6",,Venice,CA,90291,US,33.99760056,-118.46099854,2022-12-16 15:27:38
Pizza Hut,1001 W Century Blvd,,Los Angeles,CA,90044,US,33.9457016,-118.29199982,2022-12-18 06:25:13
Pizza Hut,1336 W. Rosecrans Ave.,,Gardena,CA,90247,US,33.90119934,-118.30000305,2022-12-18 06:25:11
Pizza Hut,7229 S. Figueroa St.,,Los Angeles,CA,90003,US,33.97380066,-118.28299713,2022-12-18 06:25:15
Pizza Hut,1780 La Cienega Blvd.,,Los Angeles,CA,90035,US,34.0447998,-118.37599945,2022-12-18 06:25:15
Pizza Hut,2029 Pico Blvd,,Santa Monica,CA,90405,US,34.02019882,-118.46900177,2022-12-18 06:25:12
Pizza Hut,2208 Artesia Blvd,,Torrance,CA,90504,US,33.87260056,-118.31800079,2022-12-18 06:25:11
Pizza Hut,1014 Martin Luther King Jr. Blvd.,,Los Angeles,CA,90037,US,34.01060104,-118.29199982,2022-12-18 06:25:15
Pizza Hut,5101 Venice Blvd,,Los Angeles,CA,90019,US,34.04560089,-118.34999847,2022-12-18 06:25:15
Pizza Hut,611 E. Imperial Hwy.,,Los Angeles,CA,90059,US,33.93149948,-118.26499939,2022-12-18 06:25:11
Pizza Hut,20305 Anza Ave.-Suite D,,Torrance,CA,90503,US,33.84830093,-118.36299896,2022-12-18 06:25:11
Pizza Hut,1555 S Western Ave,,Los Angeles,CA,90006,US,34.04410172,-118.30899811,2022-12-18 06:25:15
Pizza Hut,2405 South Vermont Ave.,,Los Angeles,CA,90007,US,34.03430176,-118.29199982,2022-12-18 06:25:15
Pizza Hut,"1457 Florence Ave., #109",,Los Angeles,CA,90001,US,33.97539902,-118.2480011,2022-12-18 06:25:15
Pizza Hut,4351 S Central Ave,,Los Angeles,CA,90011,US,34.00460052,-118.25700378,2022-12-18 06:25:15
Pizza Hut,"11710 Wilmington Ave., #4-E",,Los Angeles,CA,90059,US,33.92689896,-118.23899841,2022-12-18 06:25:11
Pizza Hut,1562 W Pico Blvd,,Los Angeles,CA,90015,US,34.04410172,-118.27700043,2022-12-18 06:25:15
Pizza Hut,6048 Pacific Blvd,,Huntington Park,CA,90255,US,33.98609924,-118.22499847,2022-12-18 06:25:15
Pizza Hut,1173 W Carson St,,Torrance,CA,90502,US,33.83179855,-118.29799652,2022-12-18 06:25:11
Pizza Hut,7121 S. Memorial Dr.,,Tulsa,OK,74133,US,36.05989838,-95.88580322,2022-12-18 06:25:15
Pizza Hut,8215 S. Harvard,,Tulsa,OK,74137,US,36.04489899,-95.93939972,2022-12-18 06:25:15
Pizza Hut,12102 S Memorial Dr,,Bixby,OK,74008,US,35.98789978,-95.88700104,2022-12-18 06:25:15
Pizza Hut,802 S Aspen Ave,,Broken Arrow,OK,74012,US,36.04520035,-95.81600189,2022-12-18 06:25:15
Pizza Hut,3140 S. Memorial,,Tulsa,OK,74145,US,36.11769867,-95.88710022,2022-12-18 06:25:15
Pizza Hut,3321 S. Elm,,Broken Arrow,OK,74012,US,36.01819992,-95.79679871,2022-12-18 06:25:15
Pizza Hut,4911 S Peoria Ave,,Tulsa,OK,74105,US,36.09260178,-95.97540283,2022-12-18 06:25:15
Pizza Hut,11122 E 21st St,,Tulsa,OK,74129,US,36.1332016,-95.85209656,2022-12-18 06:25:15
Pizza Hut,"1531 W 81st St South, Ste G",,Tulsa,OK,74132,US,36.04710007,-96.00969696,2022-12-18 06:25:15
Pizza Hut,1907 S Harvard Ave,,Tulsa,OK,74112,US,36.13499832,-95.94020081,2022-12-18 06:25:15
Pizza Hut,2302 E Kenosha St,,Broken Arrow,OK,74014,US,36.06150055,-95.76429749,2022-12-18 06:25:15
Pizza Hut,"480 E. 141st St., Suite C",,Glenpool,OK,74033,US,35.95849991,-96.0019989,2022-12-18 06:25:15
Pizza Hut,1614 N Lewis Ave,,Tulsa,OK,74110,US,36.17959976,-95.959198,2022-12-18 06:25:15
Pizza Hut,1875 N Hwy 66,,Catoosa,OK,74015,US,36.18170166,-95.74639893,2022-12-18 06:25:15
Pizza Hut,"32 W. Taft Ave., Suite A",,Sapulpa,OK,74066,US,35.98789978,-96.11450195,2022-12-18 06:25:15
Pizza Hut,"302 W. 2nd St., Suite 100",,Sand Springs,OK,74063,US,36.13830185,-96.11440277,2022-12-18 06:25:15
Pizza Hut,"11412 N 134th E Ave, Ste B",,Owasso,OK,74055,US,36.31869888,-95.82289886,2022-12-18 07:39:42
Pizza Hut,1355 W Rogers Blvd Ste 11,,Skiatook,OK,74070,US,36.36800003,-96.01799774,2022-12-18 07:39:42
Pizza Hut,600 S Lynn Riggs,,Claremore,OK,74017,US,36.30699921,-95.61940002,2022-12-18 07:39:42
Pizza Hut,Hwy 51,,Mannford,OK,74044,US,36.12680054,-96.35549927,2022-12-18 06:25:15
Pizza Hut,109 S Dewey Ave,,Wagoner,OK,74467,US,35.95809937,-95.39459991,2022-12-18 06:25:15
Pizza Hut,407 S Wood Dr,,Okmulgee,OK,74447,US,35.61989975,-95.9598999,2022-12-18 06:25:22
Pizza Hut,800 N Main St,,Bristow,OK,74010,US,35.84059906,-96.39009857,2022-12-18 06:25:15
Pizza Hut,501 S Mill St,,Pryor,OK,74361,US,36.29769897,-95.3219986,2022-12-18 07:39:42
Pizza Hut,7951 Mall Rd,,Florence,KY,41042,US,38.98929977,-84.65180206,2022-12-18 06:54:29
Pizza Hut,8761 US Highway 42,,Union,KY,41091,US,38.96559906,-84.67279816,2022-12-18 06:54:29
Pizza Hut,625 Chestnut Drive,,Walton,KY,41094,US,38.85620117,-84.61579895,2022-12-18 06:54:29
Pizza Hut,1054 W Eads Pkwy,,Lawrenceburg,IN,47025,US,39.08200073,-84.88220215,2022-12-18 06:25:10
Pizza Hut,1761 E Ohio Pike,,Amelia,OH,45102,US,39.0182991,-84.20210266,2022-12-18 06:54:29
Pizza Hut,326 S Washington St,,Versailles,IN,47042,US,39.06900024,-85.25209808,2022-12-18 06:25:20
Pizza Hut,9225 Mentor Ave,,Mentor,OH,44060,US,41.67770004,-81.30909729,2022-12-18 06:25:11
Pizza Hut,7345 Lakeshore Blvd,,Mentor,OH,44060,US,41.70119858,-81.37729645,2022-12-18 06:25:11
Pizza Hut,1165 Mentor Ave,,Painesville,OH,44077,US,41.70709991,-81.26740265,2022-12-18 06:25:11
Pizza Hut,35050 Euclid Ave,,Willoughby,OH,44094,US,41.62490082,-81.43859863,2022-12-18 06:25:11
Pizza Hut,544 Water St,,Chardon,OH,44024,US,41.58140182,-81.21669769,2022-12-18 06:25:11
Pizza Hut,29954 Euclid Ave,,Wickliffe,OH,44092,US,41.61349869,-81.4641037,2022-12-18 06:25:11
Pizza Hut,22455 Shore Center Drive,,Euclid,OH,44123,US,41.60889816,-81.52510071,2022-12-18 06:25:11
Pizza Hut,5140 Wilson Mills Rd,,Richmond Heights,OH,44143,US,41.53829956,-81.49459839,2022-12-18 06:25:11
Pizza Hut,18235 Euclid Ave,,Cleveland,OH,44112,US,41.55709839,-81.54949951,2022-12-18 06:25:11
Pizza Hut,6640 N Ridge Rd,,Madison,OH,44057,US,41.80170059,-81.05000305,2022-12-18 06:25:15
Pizza Hut,1903 South Taylor Rd,,Cleveland Heights,OH,44118,US,41.50770187,-81.55529785,2022-12-18 06:25:11
Pizza Hut,13592 Euclid Ave,,East Cleveland,OH,44112,US,41.5237999,-81.58830261,2022-12-18 06:25:11
Pizza Hut,16800 Chagrin Blvd,,Shaker Heights,OH,44120,US,41.46429825,-81.56279755,2022-12-18 06:25:11
Pizza Hut,15961 E High St,,Middlefield,OH,44062,US,41.4612999,-81.07250214,2022-12-18 06:25:15
Pizza Hut,777 S Broadway,,Geneva,OH,44041,US,41.79439926,-80.9469986,2022-12-18 06:25:15
Pizza Hut,20515 Southgate Park Road,,Cleveland,OH,44137,US,41.4137001,-81.53639984,2022-12-18 06:25:11
Pizza Hut,2211 Chester Ave,,Cleveland,OH,44114,US,41.50370026,-81.67459869,2022-12-18 06:25:11
Pizza Hut,6557 Broadway Ave,,Cleveland,OH,44105,US,41.46229935,-81.64350128,2022-12-18 06:25:11
Pizza Hut,5526 Turney Rd,,Cleveland,OH,44125,US,41.41210175,-81.60310364,2022-12-18 06:25:11
Pizza Hut,70 Barrington Town Square Dr,,Aurora,OH,44202,US,41.32009888,-81.34819794,2022-12-18 06:25:11
Pizza Hut,8875 Darrow Rd,,Twinsburg,OH,44087,US,41.30709839,-81.4394989,2022-12-18 06:25:11
Pizza Hut,1407 W 117th St,,Cleveland,OH,44107,US,41.48329926,-81.76850128,2022-12-18 06:25:11
Pizza Hut,10616 Lorain Avenue,,Cleveland,OH,44111,US,41.46519852,-81.76029968,2022-12-18 06:25:11
Pizza Hut,5892 Broadview Rd,,Parma,OH,44134,US,41.4029007,-81.69049835,2022-12-18 06:25:11
Pizza Hut,746 E Aurora Rd Ste 10,,Macedonia,OH,44056,US,41.31340027,-81.51229858,2022-12-18 06:25:11
Pizza Hut,7002 Biddulph Road,,Brooklyn,OH,44144,US,41.43109894,-81.73459625,2022-12-18 06:25:11
Pizza Hut,1951 W Prospect Rd,,Ashtabula,OH,44004,US,41.85800171,-80.81020355,2022-12-18 06:25:15
Pizza Hut,7456 Broadview Rd,,Parma,OH,44134,US,41.35960007,-81.68399811,2022-12-18 06:25:11
Pizza Hut,8001 State Street,,Garrettsville,OH,44231,US,41.28739929,-81.1013031,2022-12-18 06:25:08
Pizza Hut,14129 Puritas Avenue,,Cleveland,OH,44135,US,41.43330002,-81.79260254,2022-12-18 06:25:11
Pizza Hut,"1720 N. Central Expressway, Suite 210",,McKinney,TX,75070,US,33.21429825,-96.63500214,2022-12-18 06:25:11
Pizza Hut,1409 Shiloh Rd.,,Plano,TX,75074,US,33.01520157,-96.66529846,2022-12-18 06:25:11
Pizza Hut,201 E Princeton Dr,,Princeton,TX,75407,US,33.17369843,-96.49849701,2022-12-18 06:25:11
Pizza Hut,3591 McKinney St,,Melissa,TX,75454,US,33.29449844,-96.57039642,2022-12-18 06:25:11
Pizza Hut,3483 W Fm 544,,Wylie,TX,75098,US,33.01169968,-96.59459686,2022-12-18 06:25:11
Pizza Hut,6850 N Shiloh Rd Suite I,,Garland,TX,75044,US,32.97679901,-96.66410065,2022-12-18 06:25:11
Pizza Hut,401 North Highway 78 Suite D,,Wylie,TX,75098,US,33.01440048,-96.53520203,2022-12-18 06:25:11
Pizza Hut,"6310 Hwy 78,",,Sachse,TX,75048,US,32.97900009,-96.59049988,2022-12-18 06:25:11
Pizza Hut,628 W White St,,Anna,TX,75409,US,33.34469986,-96.5565033,2022-12-18 06:25:11
Pizza Hut,1602 E Belt Line Rd,,Richardson,TX,75081,US,32.94499969,-96.69490051,2022-12-18 06:25:12
Pizza Hut,102 S Park Victoria Dr,,Milpitas,CA,95035,US,37.43389893,-121.88300323,2022-12-18 06:25:10
Pizza Hut,464 N Mathilda Ave,,Sunnyvale,CA,94085,US,37.38819885,-122.02999878,2022-12-18 06:25:10
Pizza Hut,22859 Mission Blvd,,Hayward,CA,94541,US,37.66910172,-122.08200073,2022-12-18 06:25:10
Pizza Hut,3094a Story Rd,,San Jose,CA,95127,US,37.354599,-121.81800079,2022-12-18 06:25:10
Pizza Hut,3415 Middlefield Rd,,Menlo Park,CA,94025,US,37.47050095,-122.20200348,2022-12-18 06:25:10
Pizza Hut,226 West Alma Ave Ste. 40,,San Jose,CA,95110,US,37.31309891,-121.87799835,2022-12-18 06:25:10
Pizza Hut,600 W. Whipple,,Redwood City,CA,94063,US,37.49399948,-122.23600006,2022-12-18 06:25:10
Pizza Hut,3161 Senter Rd,,San Jose,CA,95111,US,37.29249954,-121.83399963,2022-12-18 06:25:10
Pizza Hut,15099 Hesperian Blvd. Ste C,,San Leandro,CA,94578,US,37.70259857,-122.1309967,2022-12-18 06:25:10
Pizza Hut,5689 Cottle Rd,,San Jose,CA,95123,US,37.24980164,-121.80500031,2022-12-18 06:25:10
Pizza Hut,553 El Camino Real,,South San Francisco,CA,94080,US,37.64709854,-122.42900085,2022-12-18 06:25:15
Pizza Hut,720 W 11th St,,Tracy,CA,95376,US,37.73929977,-121.43699646,2022-12-18 06:25:10
Pizza Hut,2713 Contra Loma Blvd,,Antioch,CA,94509,US,37.99700165,-121.8219986,2022-12-18 06:25:17
Pizza Hut,14501 San Pablo Ave,,San Pablo,CA,94806,US,37.9679985,-122.34400177,2022-12-18 06:25:17
Pizza Hut,1171 1st St,,Gilroy,CA,95020,US,37.01390076,-121.59300232,2022-12-18 06:25:10
Pizza Hut,3412 Waterlick Rd Ste J,,Lynchburg,VA,24502,US,37.32960129,-79.24900055,2022-12-18 06:25:17
Pizza Hut,2413 Memorial Ave,,Lynchburg,VA,24501,US,37.40250015,-79.16790009,2022-12-18 06:25:17
Pizza Hut,4925 Boonesboro Rd #2,,Lynchburg,VA,24503,US,37.44749832,-79.21980286,2022-12-18 06:25:17
Pizza Hut,4206 S Amherst Highway,,Madison Heights,VA,24572,US,37.46220016,-79.11959839,2022-12-18 06:25:17
Pizza Hut,"105 Clarion Rd., Suite C",,Altavista,VA,24517,US,37.1432991,-79.2677002,2022-12-18 06:25:14
Pizza Hut,150 Oakville Rd.,,Appomattox,VA,24522,US,37.36410141,-78.83509827,2022-12-18 06:25:18
Pizza Hut,10 Rocklawn Lane,,Lexington,VA,24450,US,37.77659988,-79.43379974,2022-12-18 06:25:17
Pizza Hut,2943 E Battlefield Rd,,Springfield,MO,65804,US,37.15909958,-93.23590088,2022-12-18 06:25:19
Pizza Hut,3437 S Campbell Ave,,Springfield,MO,65807,US,37.1515007,-93.29750061,2022-12-18 06:25:19
Pizza Hut,1212 S. Grant,,Springfield,MO,65807,US,37.19279861,-93.29949951,2022-12-18 06:25:19
Pizza Hut,1440 E Kearney St,,Springfield,MO,65803,US,37.23970032,-93.26860046,2022-12-18 06:25:19
Pizza Hut,2627 N Kansas Expy,,Springfield,MO,65803,US,37.24530029,-93.31150055,2022-12-18 06:25:19
Pizza Hut,3868 W Chestnut Expy,,Springfield,MO,65802,US,37.21179962,-93.35749817,2022-12-18 06:25:19
Pizza Hut,690 W Mt Vernon St,,Nixa,MO,65714,US,37.04309845,-93.30870056,2022-12-18 06:25:19
Pizza Hut,1112 W Jackson St,,Ozark,MO,65721,US,37.02500153,-93.21510315,2022-12-18 06:25:19
Pizza Hut,"101 E. State Highway 125, Unit E",,Strafford,MO,65757,US,37.27109909,-93.11430359,2022-12-18 06:25:19
Pizza Hut,806 Us Highway 60 E,,Republic,MO,65738,US,37.12260056,-93.46620178,2022-12-18 06:25:19
Pizza Hut,E Center Hwy Z,,Willard,MO,65781,US,37.30250168,-93.42459869,2022-12-18 06:25:19
Pizza Hut,1340 W Jefferson St,,Marshfield,MO,65706,US,37.33969879,-92.92749786,2022-12-18 06:25:19
Pizza Hut,2028 S Elliott,,Aurora,MO,65605,US,36.94979858,-93.71800232,2022-12-18 06:25:20
Pizza Hut,1988 S Springfield Ave,,Bolivar,MO,65613,US,37.59579849,-93.40219879,2022-12-18 06:25:19
Pizza Hut,338 E. Mount Vernon Blvd.,,Mount Vernon,MO,65712,US,37.09489822,-93.81620026,2022-12-18 06:25:20
Pizza Hut,10922 State Hwy. 76,,Branson West,MO,65737,US,36.69670105,-93.36660004,2022-12-18 06:25:19
Pizza Hut,1050 Branson Hills Parkway,,Branson,MO,65616,US,36.67200089,-93.22419739,2022-12-18 06:25:19
Pizza Hut,34 Main St,,Cassville,MO,65625,US,36.67229843,-93.87650299,2022-12-18 06:25:17
Pizza Hut,1800 George Dieter Dr,,El Paso,TX,79936,US,31.76519966,-106.30200195,2022-12-16 15:27:37
Pizza Hut,1571 N. Zaragosa,,El Paso,TX,79936,US,31.74349976,-106.28700256,2022-12-16 15:27:37
Pizza Hut,2401 Zaragoza,,El Paso,TX,79938,US,31.77869987,-106.25099945,2022-12-16 15:27:37
Pizza Hut,7948 Gateway East,,El Paso,TX,79915,US,31.75259972,-106.34700012,2022-12-16 15:27:37
Pizza Hut,3545 N Yarbrough Dr,,El Paso,TX,79925,US,31.7968998,-106.33300018,2022-12-16 15:27:37
Pizza Hut,601 N Zaragosa,,El Paso,TX,79907,US,31.70359993,-106.32099915,2022-12-16 15:27:37
Pizza Hut,6704 Montana,,El Paso,TX,79925,US,31.78949928,-106.39499664,2022-12-16 15:27:37
Pizza Hut,13471 Sergeant Major Blvd.,,Fort Bliss,TX,79916,US,31.83639908,-106.36499786,2022-12-16 15:27:37
Pizza Hut,10600 North Loop,,Socorro,TX,79927,US,31.6534996,-106.27100372,2022-12-16 15:27:37
Pizza Hut,"140 North Kenazo, Space F",,Horizon City,TX,79928,US,31.68470001,-106.18699646,2022-12-16 15:27:37
Pizza Hut,"2959 Carter Rd., Bldg. 2969",,Fort Bliss,TX,79906,US,31.80660057,-106.41500092,2022-12-16 15:27:37
Pizza Hut,5505 Montana Ave Ste G2,,El Paso,TX,79903,US,31.7840004,-106.4240036,2022-12-16 15:27:37
Pizza Hut,6110 Dyer St,,El Paso,TX,79904,US,31.83359909,-106.44499969,2022-12-16 15:27:37
Pizza Hut,4860 Woodrow Bean Transmountain,,El Paso,TX,79924,US,31.89789963,-106.42900085,2022-12-16 15:27:37
Pizza Hut,2915 N Mesa St,,El Paso,TX,79902,US,31.77910042,-106.50499725,2022-12-16 15:27:37
Pizza Hut,955 Resler suite 101,,El Paso,TX,79912,US,31.86170006,-106.55899811,2022-12-16 15:27:37
Pizza Hut,7960 N Mesa St,,El Paso,TX,79932,US,31.84110069,-106.5759964,2022-12-16 15:27:37
Pizza Hut,"7049-A Desert Blvd. South, Suite 101",,El Paso,TX,79932,US,31.91090012,-106.58499908,2022-12-16 15:27:37
Pizza Hut,"4701 Plank Rd., #103",,Fredericksburg,VA,22407,US,38.28960037,-77.54029846,2022-12-18 06:54:29
Pizza Hut,14 Stafford Lakes Pkwy #202,,Fredericksburg,VA,22406,US,38.36510086,-77.5223999,2022-12-18 06:54:29
Pizza Hut,1224 Powhatan St.,,Fredericksburg,VA,22401,US,38.30459976,-77.47979736,2022-12-18 06:54:29
Pizza Hut,10512 Patriot Hwy.,,Fredericksburg,VA,22408,US,38.24869919,-77.49949646,2022-12-18 06:25:17
Pizza Hut,"35 Walpole St., Suite 1-01",,Stafford,VA,22554,US,38.44940186,-77.46160126,2022-12-18 06:54:29
Pizza Hut,2869 Richmond Hwy,,Stafford,VA,22554,US,38.46300125,-77.40650177,2022-12-18 06:54:29
Pizza Hut,6385 Village Center Drive,,Bealeton,VA,22712,US,38.58229828,-77.76589966,2022-12-18 06:54:29
Pizza Hut,876 N Main St,,Culpeper,VA,22701,US,38.48109818,-77.99369812,2022-12-18 06:54:29
Pizza Hut,4306 Dale Blvd,,Dale City,VA,22193,US,38.64699936,-77.33789825,2022-12-18 06:54:29
Pizza Hut,6352 Hoadly Road,,Manassas,VA,20112,US,38.67350006,-77.395401,2022-12-18 06:54:29
Pizza Hut,14438 Jefferson Davis Hwy,,Woodbridge,VA,22191,US,38.63949966,-77.26869965,2022-12-18 06:54:29
Pizza Hut,12379 James Madison Hwy,,Orange,VA,22960,US,38.23239899,-78.11289978,2022-12-18 06:25:17
Pizza Hut,10334 Bristow Center Drive,,Bristow,VA,20136,US,38.73360062,-77.55139923,2022-12-18 06:54:29
Pizza Hut,100 Jefferson Highway,,Louisa,VA,23093,US,38.01839828,-77.99210358,2022-12-18 06:25:14
Pizza Hut,12539 Dillingham Sq,,Woodbridge,VA,22192,US,38.68259811,-77.31909943,2022-12-18 06:54:29
Pizza Hut,10060 Dumfries Rd,,Manassas,VA,20110,US,38.73910141,-77.47360229,2022-12-18 06:54:29
Pizza Hut,8263 Shoppers Sq,,Manassas,VA,20111,US,38.77730179,-77.45279694,2022-12-18 06:54:29
Pizza Hut,7322 Sudley Rd,,Manassas,VA,20109,US,38.79520035,-77.5177002,2022-12-18 06:54:29
Pizza Hut,8902 Village Shops Drive,,Fairfax Station,VA,22039,US,38.72919846,-77.25289917,2022-12-18 07:39:42
Pizza Hut,6896 Piedmont Center Plaza,,Gainesville,VA,20155,US,38.80849838,-77.62590027,2022-12-18 06:54:29
Pizza Hut,"210 Rosewick Rd., Suite 210",,La Plata,MD,20646,US,38.55730057,-76.98459625,2022-12-18 06:54:29
Pizza Hut,6403 Shiplett Blvd,,Burke,VA,22015,US,38.77769852,-77.26540375,2022-12-18 07:39:42
Pizza Hut,8640 Rte 1,,Alexandria,VA,22309,US,38.7242012,-77.12059784,2022-12-18 07:39:42
Pizza Hut,7034 Commerce St,,Springfield,VA,22150,US,38.78319931,-77.18810272,2022-12-18 07:39:42
Pizza Hut,7013-H Manchester Blvd,,Alexandria,VA,22310,US,38.76480103,-77.15260315,2022-12-18 07:39:42
Pizza Hut,"7611 Richmond Hwy., #105",,Alexandria,VA,22306,US,38.75180054,-77.08270264,2022-12-18 07:39:42
Pizza Hut,5145 Duke St Ste A,,Alexandria,VA,22304,US,38.81259918,-77.12110138,2022-12-18 07:39:42
Pizza Hut,6293 Oxon Hill Rd,,Oxon Hill,MD,20745,US,38.80390167,-76.98880005,2022-12-18 07:39:42
Pizza Hut,1670 Memorial Blvd,,Murfreesboro,TN,37129,US,35.86660004,-86.38659668,2022-12-18 06:25:08
Pizza Hut,"812 Nissan Drive, Suite 300",,Smyrna,TN,37167,US,35.97180176,-86.4937973,2022-12-18 06:25:08
Pizza Hut,2575 Old Ford Pkwy,,Murfreesboro,TN,37128,US,35.84479904,-86.44380188,2022-12-18 06:25:08
Pizza Hut,2438 S. Church St.,,Murfreesboro,TN,37127,US,35.80770111,-86.39790344,2022-12-18 06:25:08
Pizza Hut,5088 Murfreesboro Rd,,La Vergne,TN,37086,US,36.02130127,-86.58200073,2022-12-18 06:25:08
Pizza Hut,7240 Nolensville Rd. Suite 103,,Nolensville,TN,37135,US,35.96060181,-86.67220306,2022-12-18 06:25:08
Pizza Hut,2701 Murfreesboro Rd,,Antioch,TN,37013,US,36.07130051,-86.63600159,2022-12-18 06:25:08
Pizza Hut,944 Richards Rd,,Antioch,TN,37013,US,36.06880188,-86.68280029,2022-12-18 06:25:08
Pizza Hut,673 S. Mount Juliet Rd.,,Mount Juliet,TN,37122,US,36.1609993,-86.51280212,2022-12-18 06:25:08
Pizza Hut,5787 Nolensville Rd,,Nashville,TN,37211,US,36.04579926,-86.71389771,2022-12-18 06:25:08
Pizza Hut,817 S. Cumberland,,Lebanon,TN,37087,US,36.18460083,-86.29740143,2022-12-18 06:25:08
Pizza Hut,1009 Murfreesboro Pike,,Nashville,TN,37217,US,36.12770081,-86.71309662,2022-12-18 06:25:08
Pizza Hut,5028 Old Hickory,,Hermitage,TN,37076,US,36.19319916,-86.61489868,2022-12-18 06:25:08
Pizza Hut,2512 Lebanon Rd,,Nashville,TN,37214,US,36.1697998,-86.67849731,2022-12-18 06:25:08
Pizza Hut,1645 West Main Street,,Lebanon,TN,37087,US,36.22060013,-86.34159851,2022-12-18 06:25:08
Pizza Hut,3046 Columbia Ave. #115,,Franklin,TN,37064,US,35.89410019,-86.87840271,2022-12-18 06:25:08
Pizza Hut,2700 Gallatin Pike,,Nashville,TN,37216,US,36.19919968,-86.74030304,2022-12-18 06:25:08
Pizza Hut,1908 W End Ave,,Nashville,TN,37203,US,36.15209961,-86.79840088,2022-12-18 06:25:08
Pizza Hut,1144 Gallatin Pike S,,Madison,TN,37115,US,36.25,-86.7193985,2022-12-18 06:25:08
Pizza Hut,5000 Spedale Ct,,Spring Hill,TN,37174,US,35.77799988,-86.91320038,2022-12-18 06:25:08
Pizza Hut,170 E Main St,,Hendersonville,TN,37075,US,36.30870056,-86.60690308,2022-12-18 06:25:08
Pizza Hut,1020 North Main St.,,Shelbyville,TN,37160,US,35.49810028,-86.45680237,2022-12-18 06:25:12
Pizza Hut,7657 Highway 70 S Ste 119,,Nashville,TN,37221,US,36.07659912,-86.94989777,2022-12-18 06:25:08
Pizza Hut,"1101 Nashville Pike, Ste. 100",,Gallatin,TN,37066,US,36.37519836,-86.47290039,2022-12-18 06:25:08
Pizza Hut,53 Dixon Springs Hwy,,Carthage,TN,37030,US,36.26369858,-85.95619965,2022-12-18 06:25:13
Pizza Hut,710 N Ellington Pkwy,,Lewisburg,TN,37091,US,35.45959854,-86.78070068,2022-12-18 06:25:12
Pizza Hut,928 Hillsboro Blvd,,Manchester,TN,37355,US,35.47359848,-86.08000183,2022-12-18 07:39:42
Pizza Hut,833 Nashville Hwy.,,Columbia,TN,38401,US,35.62950134,-87.02780151,2022-12-18 06:25:12
Pizza Hut,"1918 Shady Brook St, Ste A",,Columbia,TN,38401,US,35.59949875,-87.05919647,2022-12-18 06:25:12
Pizza Hut,324 Frey St.,,Ashland City,TN,37015,US,36.29629898,-87.04769897,2022-12-18 06:25:08
Pizza Hut,729 W Lumsden Rd #14,,Brandon,FL,33511,US,27.92210007,-82.2960968,2022-12-18 06:25:11
Pizza Hut,"3220 Lithia Pinecrest Rd., #101",,Valrico,FL,33594,US,27.89599991,-82.24700165,2022-12-18 06:25:11
Pizza Hut,1944 Hwy 60 #304,,Valrico,FL,33594,US,27.93919945,-82.25509644,2022-12-18 06:25:11
Pizza Hut,3829 US Hwy. 301 S,,Riverview,FL,33569,US,27.91419983,-82.34970093,2022-12-18 06:25:11
Pizza Hut,10619 Gibsonton Dr,,Riverview,FL,33569,US,27.85659981,-82.32790375,2022-12-18 06:25:11
Pizza Hut,11748 Martin Luther King Jr. Blvd.,,Seffner,FL,33584,US,27.98390007,-82.29989624,2022-12-18 06:25:08
Pizza Hut,16224 Bayberry Glen Dr,,Lithia,FL,33547,US,27.85359955,-82.21130371,2022-12-18 06:25:08
Pizza Hut,10171 Big Bend Rd,,Riverview,FL,33578,US,27.79109955,-82.34279633,2022-12-18 06:25:11
Pizza Hut,614 W Platt St,,Tampa,FL,33606,US,27.94140053,-82.46640015,2022-12-18 06:25:11
Pizza Hut,"10694 N 56th St., #7",,Temple Terrace,FL,33617,US,28.04599953,-82.39420319,2022-12-18 06:25:08
Pizza Hut,2316 James Redman Pkwy,,Plant City,FL,33563,US,27.99029922,-82.12120056,2022-12-18 06:25:08
Pizza Hut,4049 S. Dale Mabry Hwy.,,Tampa,FL,33611,US,27.90480042,-82.50659943,2022-12-18 06:25:11
Pizza Hut,2550 E. Fowler Ave.,,Tampa,FL,33612,US,28.05550003,-82.43000031,2022-12-18 06:25:08
Pizza Hut,"4019 W Kennedy Blvd, Ste 3",,Tampa,FL,33609,US,27.94519997,-82.51039886,2022-12-18 06:25:11
Pizza Hut,902 W Busch Blvd Ste 110,,Tampa,FL,33612,US,28.03300095,-82.46859741,2022-12-18 06:25:08
Pizza Hut,712 Cypress Village Blvd,,Sun City Center,FL,33573,US,27.71339989,-82.37760162,2022-12-18 06:25:11
Pizza Hut,3904-A W. Hillsborough Ave.,,Tampa,FL,33614,US,27.99570084,-82.50810242,2022-12-18 06:25:08
Pizza Hut,1727 W Fletcher Ave,,Tampa,FL,33612,US,28.06979942,-82.47650146,2022-12-18 06:25:08
Pizza Hut,19010 Bruce B Downs Blvd,,Tampa,FL,33647,US,28.14450073,-82.35489655,2022-12-18 06:25:08
Pizza Hut,7023 W Hillsborough Ave,,Tampa,FL,33634,US,27.99699974,-82.55950165,2022-12-18 06:25:08
Pizza Hut,17420 N. Highway 41,,Lutz,FL,33549,US,28.12360001,-82.46340179,2022-12-18 06:25:08
Pizza Hut,12036 Anderson Rd,,Tampa,FL,33625,US,28.06030083,-82.54360199,2022-12-18 06:25:08
Pizza Hut,5263 Ehrlich Rd,,Tampa,FL,33624,US,28.08589935,-82.53939819,2022-12-18 06:25:08
Pizza Hut,6858 S Florida Ave,,Lakeland,FL,33813,US,27.94020081,-81.97250366,2022-12-18 06:25:08
Pizza Hut,1362 Ariana St,,Lakeland,FL,33803,US,28.02560043,-81.97720337,2022-12-18 06:25:08
Pizza Hut,23118 State Road 54,,Lutz,FL,33549,US,28.18530083,-82.43460083,2022-12-18 06:25:08
Pizza Hut,9099 4th St N,,Saint Petersburg,FL,33702,US,27.85479927,-82.63829803,2022-12-18 06:25:11
Pizza Hut,2116 E Hwy 540-A,,Lakeland,FL,33813,US,27.95330048,-81.92510223,2022-12-18 06:25:08
Pizza Hut,2421 4th St N,,Saint Petersburg,FL,33704,US,27.79450035,-82.63839722,2022-12-18 06:25:11
Pizza Hut,28670 FL-54,,Wesley Chapel,FL,33543,US,28.23800087,-82.34159851,2022-12-18 06:25:08
Pizza Hut,8765 Spring Cypress Rd.,,Spring,TX,77379,US,30.03170013,-95.55349731,2022-12-18 06:25:08
Pizza Hut,18539 Kuykendahl Rd.,,Spring,TX,77379,US,30.03860092,-95.48760223,2022-12-18 06:25:08
Pizza Hut,"21460 Kuykendahl Rd, Bldg. 14A",,Spring,TX,77389,US,30.08040047,-95.51930237,2022-12-18 06:25:08
Pizza Hut,13096 Veterans Memorial Dr.,,Houston,TX,77014,US,29.97800064,-95.49040222,2022-12-18 06:25:08
Pizza Hut,17254 State Highway 249,,Houston,TX,77064,US,29.95870018,-95.54219818,2022-12-18 06:25:08
Pizza Hut,13750 N. Eldridge Pkwy.,,Cypress,TX,77429,US,29.98320007,-95.61090088,2022-12-18 06:25:08
Pizza Hut,20051 Interstate 45,,Spring,TX,77388,US,30.05480003,-95.4335022,2022-12-18 06:25:08
Pizza Hut,12616 Jones Rd,,Houston,TX,77070,US,29.95630074,-95.58470154,2022-12-18 06:25:08
Pizza Hut,24914 Kuykendahl Rd,,Spring,TX,77389,US,30.12339973,-95.55349731,2022-12-18 06:25:08
Pizza Hut,15002 Ella Blvd.,,Houston,TX,77090,US,29.98460007,-95.43360138,2022-12-18 06:25:08
Pizza Hut,1211 W Main St,,Tomball,TX,77375,US,30.09110069,-95.62830353,2022-12-18 06:25:08
Pizza Hut,10815 Veterans Memorial Dr.,,Houston,TX,77067,US,29.94050026,-95.46289825,2022-12-18 06:25:08
Pizza Hut,25701 I-45 N,,The Woodlands,TX,77380,US,30.13509941,-95.44580078,2022-12-18 06:25:08
Pizza Hut,3103 FM 1960 Rd. W,,Humble,TX,77338,US,30.02120018,-95.37930298,2022-12-18 06:25:08
Pizza Hut,2757 Rayford Rd. Suite F,,Spring,TX,77386,US,30.12129974,-95.3993988,2022-12-18 06:25:08
Pizza Hut,7652 Gessner Dr.,,Houston,TX,77040,US,29.88540077,-95.54029846,2022-12-18 06:25:11
Pizza Hut,17500 Northwest Freeway,,Houston,TX,77040,US,29.89139938,-95.58399963,2022-12-18 06:25:11
Pizza Hut,10998 I-45,,Houston,TX,77037,US,29.92410088,-95.41139984,2022-12-18 06:25:11
Pizza Hut,17445 Spring Cypress Rd Ste E,,Cypress,TX,77429,US,29.97170067,-95.68979645,2022-12-18 06:25:08
Pizza Hut,"8000 McBeth Way, Ste 135",,The Woodlands,TX,77382,US,30.1826992,-95.55909729,2022-12-18 06:25:08
Pizza Hut,8090 Antoine Road,,Houston,TX,77088,US,29.88570023,-95.47370148,2022-12-18 06:25:11
Pizza Hut,3091 College Park Dr.,,The Woodlands,TX,77384,US,30.20499992,-95.46309662,2022-12-18 06:25:08
Pizza Hut,15202 Mason Rd,,Cypress,TX,77433,US,29.99500084,-95.73739624,2022-12-18 06:25:08
Pizza Hut,32826 FM 2978,,Magnolia,TX,77354,US,30.21780014,-95.56749725,2022-12-18 06:25:08
Pizza Hut,"415 W Little York Rd, A1",,Houston,TX,77076,US,29.86949921,-95.40480042,2022-12-18 06:25:11
Pizza Hut,5330 Antoine Dr.,,Houston,TX,77091,US,29.84189987,-95.47280121,2022-12-18 06:25:11
Pizza Hut,1627 Warwick Ave,,Warwick,RI,02889,US,41.73210144,-71.40720367,2022-12-18 06:25:18
Pizza Hut,381 Metacom Avenue,,Bristol,RI,02809,US,41.67750168,-71.26029968,2022-12-18 06:25:18
Pizza Hut,1565 Mineral Spring Ave,,North Providence,RI,02904,US,41.8647995,-71.44819641,2022-12-18 06:25:18
Pizza Hut,1242 Newport Avenue,,Pawtucket,RI,02861,US,41.88809967,-71.35469818,2022-12-18 06:25:18
Pizza Hut,155 Hope Street,,Fall River,MA,02721,US,41.69869995,-71.16719818,2022-12-18 06:25:18
Pizza Hut,"525 Peachtree Industrial Blvd, Suite C",,Suwanee,GA,30024,US,34.06290054,-84.07589722,2022-12-18 06:25:11
Pizza Hut,2850 Lawrenceville-Suwanee Rd.,,Suwanee,GA,30024,US,34.02420044,-84.04550171,2022-12-18 06:25:11
Pizza Hut,"3245 Peachtree Pkwy., Suite F",,Suwanee,GA,30024,US,34.08470154,-84.1595993,2022-12-18 06:25:13
Pizza Hut,5885 Cumming Hwy Ste 301,,Sugar Hill,GA,30518,US,34.11840057,-84.07489777,2022-12-18 06:25:13
Pizza Hut,3175 Buford Hwy Ste 101,,Duluth,GA,30096,US,34.00030136,-84.14600372,2022-12-18 06:25:11
Pizza Hut,1475 Highway 20 Ste 201,,Lawrenceville,GA,30043,US,34.00569916,-83.98629761,2022-12-18 06:25:11
Pizza Hut,"10945 State Bridge Rd., #502",,Alpharetta,GA,30022,US,34.04809952,-84.2233963,2022-12-18 06:25:12
Pizza Hut,"950 Herrington Rd., #9",,Lawrenceville,GA,30044,US,33.93980026,-84.08300018,2022-12-18 06:25:11
Pizza Hut,2760 Braselton Hwy,,Dacula,GA,30019,US,34.05220032,-83.92739868,2022-12-18 06:25:11
Pizza Hut,4601 Satellite Blvd Ste 3,,Duluth,GA,30096,US,33.9416008,-84.16429901,2022-12-18 06:25:11
Pizza Hut,1164 Lawrenceville Highway,,Lawrenceville,GA,30046,US,33.93840027,-84.01809692,2022-12-18 06:25:11
Pizza Hut,5450 Peachtree Pkwy Ste 7B,,Norcross,GA,30092,US,33.9715004,-84.21929932,2022-12-18 06:25:11
Pizza Hut,"6415 Highway 9, Ste C",,Alpharetta,GA,30004,US,34.12789917,-84.25499725,2022-12-18 06:25:12
Pizza Hut,4230 Lawrenceville Hwy,,Lilburn,GA,30047,US,33.90179825,-84.12110138,2022-12-18 06:25:11
Pizza Hut,"930 New Hope Rd., #103",,Lawrenceville,GA,30045,US,33.9353981,-83.95709991,2022-12-18 06:25:11
Pizza Hut,"7330 Spout Springs Rd., Suite A-4",,Flowery Branch,GA,30542,US,34.11040115,-83.87729645,2022-12-18 06:25:11
Pizza Hut,2603 Freedom Pkwy,,Cumming,GA,30041,US,34.24959946,-84.09200287,2022-12-18 06:25:13
Pizza Hut,"6050 Singleton Rd., #109",,Norcross,GA,30093,US,33.90390015,-84.19920349,2022-12-18 06:25:11
Pizza Hut,"2330 Canton Hwy, Suite 1E",,Cumming,GA,30040,US,34.23960114,-84.1957016,2022-12-18 06:25:13
Pizza Hut,4957 Winters Chapel Rd,,Atlanta,GA,30360,US,33.9416008,-84.27050018,2022-12-18 06:25:12
Pizza Hut,1654 Atlanta Hwy Ste 110,,Auburn,GA,30011,US,34.0094986,-83.85079956,2022-12-18 06:25:11
Pizza Hut,"2189 NE Scenic Hwy, Suite A",,Snellville,GA,30078,US,33.86109924,-84.01920319,2022-12-18 06:25:11
Pizza Hut,4286 Chamblee Tucker Rd,,Tucker,GA,30084,US,33.8810997,-84.22070312,2022-12-18 06:25:11
Pizza Hut,"4814 Hwy 78, #4B",,Lilburn,GA,30047,US,33.82730103,-84.09549713,2022-12-18 06:25:11
Pizza Hut,3715 Mundy Mill Rd Ste A,,Oakwood,GA,30566,US,34.22790146,-83.86979675,2022-12-18 06:25:13
Pizza Hut,"2244 Henderson Mill Rd., Unit B",,Atlanta,GA,30345,US,33.84999847,-84.25839996,2022-12-18 06:25:11
Pizza Hut,14215K Centreville Square,,Centreville,VA,20121,US,38.83750153,-77.43730164,2022-12-18 06:54:29
Pizza Hut,7122 Columbia Pike,,Annandale,VA,22003,US,38.83280182,-77.19129944,2022-12-18 07:39:42
Pizza Hut,6226 Little River Turnpike.,,Alexandria,VA,22312,US,38.81980133,-77.14160156,2022-12-18 07:39:42
Pizza Hut,7642 Lee Hwy,,Falls Church,VA,22042,US,38.87549973,-77.20950317,2022-12-18 07:39:42
Pizza Hut,5815 Leesburg Pike,,Falls Church,VA,22041,US,38.84980011,-77.13249969,2022-12-18 07:39:42
Pizza Hut,6379 Seven Corner Center,,Falls Church,VA,22044,US,38.86700058,-77.15070343,2022-12-18 07:39:42
Pizza Hut,1049 W Glebe Rd,,Alexandria,VA,22305,US,38.8429985,-77.07630157,2022-12-18 07:39:42
Pizza Hut,3311 Lee Hwy,,Arlington,VA,22207,US,38.89680099,-77.10169983,2022-12-18 07:39:42
Pizza Hut,1061 Elden St,,Herndon,VA,20170,US,38.96640015,-77.39610291,2022-12-18 07:39:42
Pizza Hut,2336 Iverson St.,,Temple Hills,MD,20748,US,38.83430099,-76.95890045,2022-12-18 07:39:42
Pizza Hut,898 Cypress Pkwy,,Kissimmee,FL,34759,US,28.14550018,-81.44920349,2022-12-18 06:25:08
Pizza Hut,2818 13th St,,Saint Cloud,FL,34769,US,28.24650002,-81.30120087,2022-12-18 06:25:08
Pizza Hut,7557 Osceola Polk Line Rd.,,Kissimmee,FL,34747,US,28.26110077,-81.58989716,2022-12-18 06:25:08
Pizza Hut,1939 S. Narcoossee Rd.,,Saint Cloud,FL,34771,US,28.24830055,-81.24299622,2022-12-18 06:25:08
Pizza Hut,35981 Hwy 27,,Haines City,FL,33844,US,28.12280083,-81.63960266,2022-12-18 06:25:08
Pizza Hut,500 Overlook Dr,,Winter Haven,FL,33884,US,28.00839996,-81.68119812,2022-12-18 06:25:08
Pizza Hut,1455 S. Victoria Ave.,,Ventura,CA,93003,US,34.26110077,-119.21199799,2022-12-18 06:25:12
Pizza Hut,820 N Ventura Rd,,Oxnard,CA,93030,US,34.20970154,-119.19400024,2022-12-18 06:25:12
Pizza Hut,467 W Channel Islands Blvd,,Port Hueneme,CA,93041,US,34.17630005,-119.21099854,2022-12-18 06:25:12
Pizza Hut,2410 Saviers Rd,,Oxnard,CA,93033,US,34.17670059,-119.17700195,2022-12-18 06:25:12
Pizza Hut,210 Arneill Rd,,Camarillo,CA,93010,US,34.21849823,-119.03900146,2022-12-18 06:25:12
Pizza Hut,75 S Rancho Rd,,Thousand Oaks,CA,91362,US,34.17770004,-118.85800171,2022-12-18 06:25:12
Pizza Hut,2050 D First Street,,Simi Valley,CA,93065,US,34.27310181,-118.77799988,2022-12-18 06:25:12
Pizza Hut,4419 Alamo St,,Simi Valley,CA,93063,US,34.28749847,-118.70899963,2022-12-18 06:25:12
Pizza Hut,22323 Sherman Way,,Canoga Park,CA,91303,US,34.20190048,-118.61199951,2022-12-18 06:25:12
Pizza Hut,29607 The Old Road,,Castaic,CA,91384,US,34.45629883,-118.61799622,2022-12-18 06:25:12
Pizza Hut,10525 S Eastern Ave.,,Henderson,NV,89052,US,35.99919891,-115.10700226,2022-12-18 06:25:08
Pizza Hut,10520 Southern Highlands Pkwy.,,Las Vegas,NV,89141,US,35.99819946,-115.20700073,2022-12-18 06:25:08
Pizza Hut,8090 Blue Diamond Rd. Suite 140,,Las Vegas,NV,89178,US,36.02069855,-115.26799774,2022-12-18 06:25:10
Pizza Hut,2850 Bicentennial Pkwy.,,Henderson,NV,89044,US,35.94300079,-115.11599731,2022-12-18 06:25:08
Pizza Hut,2205 Missouri Ave,,Las Cruces,NM,88001,US,32.29790115,-106.7480011,2022-12-18 06:25:20
Pizza Hut,"900 Bugg Lane, Suite 113",,San Marcos,TX,78666,US,29.88080025,-97.92050171,2022-12-18 06:25:08
Pizza Hut,101 Fm 2325,,Wimberley,TX,78676,US,29.99950027,-98.10189819,2022-12-18 06:25:08
Pizza Hut,4650 Farm To Market 1626 #100,,Kyle,TX,78640,US,30.02129936,-97.8730011,2022-12-18 06:25:08
Pizza Hut,890 N Business Ih-35,,New Braunfels,TX,78130,US,29.6977005,-98.09829712,2022-12-18 06:25:08
Pizza Hut,"1847 W. State Highway 46, Suite E",,New Braunfels,TX,78132,US,29.71929932,-98.16570282,2022-12-18 06:25:08
Pizza Hut,1671 Main Street Ste D,,Buda,TX,78610,US,30.08819962,-97.82250214,2022-12-18 06:25:08
Pizza Hut,610 S Colorado,,Lockhart,TX,78644,US,29.87989998,-97.66899872,2022-12-18 06:25:08
Pizza Hut,400 Highway 290 West,,Dripping Springs,TX,78620,US,30.19190025,-98.09140015,2022-12-18 06:25:08
Pizza Hut,"8400 Brodie Lane, Suite 105",,Austin,TX,78745,US,30.20059967,-97.83959961,2022-12-18 06:25:08
Pizza Hut,594 S. State Highway 123 Bypass,,Seguin,TX,78155,US,29.56439972,-97.94229889,2022-12-18 06:25:08
Pizza Hut,1901 W William Cannon Dr Ste 172,,Austin,TX,78745,US,30.20240021,-97.80609894,2022-12-18 06:25:08
Pizza Hut,6330 Hwy. 290 W. / Oak Hill,,Austin,TX,78735,US,30.23550034,-97.8615036,2022-12-18 06:25:08
Pizza Hut,"5510 S. I-35, Suite C-100 / Stassney",,Austin,TX,78745,US,30.2010994,-97.76529694,2022-12-18 06:25:08
Pizza Hut,700 E Pierce St,,Luling,TX,78648,US,29.68029976,-97.64720154,2022-12-18 06:25:08
Pizza Hut,2919 Manchaca Road,,Austin,TX,78704,US,30.24189949,-97.7818985,2022-12-18 06:25:08
Pizza Hut,"3820 FM 3009, Ste. 164",,Schertz,TX,78154,US,29.58670044,-98.26699829,2022-12-18 06:25:08
Pizza Hut,20630 TX-46 #135,,Spring Branch,TX,78070,US,29.79910088,-98.42919922,2022-12-18 06:25:08
Pizza Hut,2021b E Riverside Dr,,Austin,TX,78741,US,30.24029922,-97.72750092,2022-12-18 06:25:08
Pizza Hut,1530 Pat Booker Rd,,Universal City,TX,78148,US,29.55240059,-98.30349731,2022-12-18 06:25:08
Pizza Hut,1144 Airport Blvd,,Austin,TX,78702,US,30.27169991,-97.6977005,2022-12-18 06:25:08
Pizza Hut,21850 Bulverde Road,,San Antonio,TX,78259,US,29.64349937,-98.42469788,2022-12-18 06:25:08
Pizza Hut,14600 Nacogdoches Rd,,San Antonio,TX,78247,US,29.57360077,-98.37789917,2022-12-18 06:25:08
Pizza Hut,26210 Canyon Golf Road #105,,San Antonio,TX,78260,US,29.68869972,-98.47660065,2022-12-18 06:25:08
Pizza Hut,9149 Fm 78,,Converse,TX,78109,US,29.51160049,-98.30860138,2022-12-18 06:25:08
Pizza Hut,6307a Cameron Rd,,Austin,TX,78723,US,30.32010078,-97.6957016,2022-12-18 06:25:08
Pizza Hut,4232 Thousand Oaks Dr.,,San Antonio,TX,78217,US,29.55209923,-98.41049957,2022-12-18 06:25:08
Pizza Hut,15045 Jones-Maltsberger,,San Antonio,TX,78247,US,29.57920074,-98.44139862,2022-12-18 06:25:08
Pizza Hut,10601 FM 2222 / Riverplace,,Austin,TX,78726,US,30.39279938,-97.84449768,2022-12-18 06:25:08
Pizza Hut,8500 N Lamar,,Austin,TX,78753,US,30.35370064,-97.70580292,2022-12-18 06:25:08
Pizza Hut,20323 Huebner Ste 103,,San Antonio,TX,78258,US,29.62739944,-98.49369812,2022-12-18 06:25:08
Pizza Hut,1411 38th Street West Suite 1,,Billings,MT,59102,US,45.78469849,-108.61000061,2022-12-18 06:25:18
Pizza Hut,2530 W. King Ave.,,Billings,MT,59102,US,45.75469971,-108.57900238,2022-12-18 06:25:18
Pizza Hut,2636 Belknap Ave,,Billings,MT,59101,US,45.76959991,-108.49099731,2022-12-18 06:25:18
Pizza Hut,1419 Main St,,Billings,MT,59105,US,45.82429886,-108.47000122,2022-12-18 06:25:21
Pizza Hut,211 Bernhardt Road,,Laurel,MT,59044,US,45.66559982,-108.76999664,2022-12-18 06:25:18
Pizza Hut,3502 S Carrier Pkwy Ste E,,Grand Prairie,TX,75052,US,32.68500137,-97.01180267,2022-12-18 06:25:12
Pizza Hut,3040 Camp Wisdom Rd.,,Grand Prairie,TX,75052,US,32.6487999,-97.05889893,2022-12-18 06:25:08
Pizza Hut,3400 S Watson Rd.,,Arlington,TX,76014,US,32.69079971,-97.06410217,2022-12-18 06:25:08
Pizza Hut,950 S Carrier Parkway,,Grand Prairie,TX,75051,US,32.73389816,-97.01519775,2022-12-18 06:25:12
Pizza Hut,781 E Park Row Dr.,,Arlington,TX,76010,US,32.72140121,-97.09929657,2022-12-18 06:25:08
Pizza Hut,1030 W Arkansas Ln.,,Arlington,TX,76013,US,32.70529938,-97.11889648,2022-12-18 06:25:08
Pizza Hut,210 S. Cedar Ridge Dr.,,Duncanville,TX,75116,US,32.65029907,-96.9253006,2022-12-18 06:25:12
Pizza Hut,5975 S Cooper St.,,Arlington,TX,76017,US,32.6493988,-97.13379669,2022-12-18 06:25:08
Pizza Hut,"2851 Matlock Rd., #614",,Mansfield,TX,76063,US,32.60419846,-97.11519623,2022-12-18 06:25:08
Pizza Hut,3806 East Broad St. #120,,Mansfield,TX,76063,US,32.57970047,-97.07360077,2022-12-18 06:25:08
Pizza Hut,2226 N Collins St,,Arlington,TX,76011,US,32.77090073,-97.09770203,2022-12-18 06:25:08
Pizza Hut,445 E FM 1382 Rd.,,Cedar Hill,TX,75104,US,32.59159851,-96.93599701,2022-12-18 06:25:12
Pizza Hut,3601 SW Green Oaks Blvd,,Arlington,TX,76017,US,32.65859985,-97.16560364,2022-12-18 06:25:08
Pizza Hut,2335 W Shady Grove Rd,,Irving,TX,75060,US,32.80059814,-96.97679901,2022-12-18 06:25:14
Pizza Hut,3333 W. Camp Wisdom Rd.,,Dallas,TX,75237,US,32.6631012,-96.87509918,2022-12-18 06:25:12
Pizza Hut,640 W. Debbie Lane #150,,Mansfield,TX,76063,US,32.59230042,-97.15229797,2022-12-18 06:25:08
Pizza Hut,2306 W Green Oaks Blvd,,Arlington,TX,76016,US,32.7071991,-97.1917038,2022-12-18 06:25:08
Pizza Hut,1801 Eastchase Pkwy,,Fort Worth,TX,76120,US,32.75220108,-97.17099762,2022-12-18 06:25:08
Pizza Hut,14113 Trinity Blvd.,,Fort Worth,TX,76155,US,32.82289886,-97.05970001,2022-12-18 06:25:14
Pizza Hut,819 N Beltline Rd,,Irving,TX,75061,US,32.82260132,-96.99440002,2022-12-18 06:25:14
Pizza Hut,3233 Fort Worth Ave,,Dallas,TX,75211,US,32.75419998,-96.87359619,2022-12-18 06:25:12
Pizza Hut,2248 W. Illinois Ave.,,Dallas,TX,75224,US,32.71969986,-96.85559845,2022-12-18 06:25:12
Pizza Hut,249 N Hampton Rd,,De Soto,TX,75115,US,32.59289932,-96.85739899,2022-12-18 06:25:12
Pizza Hut,1111 W. Airport Freeway #117,,Irving,TX,75062,US,32.83850098,-96.95999908,2022-12-18 06:25:14
Pizza Hut,4787 Vista Wood,,Dallas,TX,75232,US,32.68610001,-96.82610321,2022-12-18 06:25:12
Pizza Hut,603 S Tyler Street,,Dallas,TX,75208,US,32.74010086,-96.83799744,2022-12-18 06:25:12
Pizza Hut,2261 Singleton Blvd,,Dallas,TX,75212,US,32.77899933,-96.85929871,2022-12-18 06:25:12
Pizza Hut,"6310 Meadowbrook Dr., Suite 108",,Fort Worth,TX,76112,US,32.74509811,-97.22170258,2022-12-18 06:25:08
Pizza Hut,3501 N. Belt Line Rd,,Irving,TX,75062,US,32.85480118,-96.99250031,2022-12-18 06:25:14
Pizza Hut,3229 Harwood Rd,,Bedford,TX,76021,US,32.85229874,-97.11499786,2022-12-18 06:25:14
Pizza Hut,798 W Hwy 60,,Monett,MO,65708,US,36.91490173,-93.91919708,2022-12-18 06:25:17
Pizza Hut,2715 George Washington Mem Hwy,,Yorktown,VA,23693,US,37.12250137,-76.45819855,2022-12-18 06:25:14
Pizza Hut,13659 Warwick Blvd,,Newport News,VA,23602,US,37.11909866,-76.52480316,2022-12-18 06:25:14
Pizza Hut,8100 George Washington Mem,,Yorktown,VA,23692,US,37.19120026,-76.48590088,2022-12-18 06:25:14
Pizza Hut,15525 Warwick Blvd Ste 117,,Newport News,VA,23608,US,37.15790176,-76.55780029,2022-12-18 06:25:14
Pizza Hut,"Building 677, Tyler Avenue",,Fort Eustis,VA,23604,US,37.16120148,-76.58350372,2022-12-18 06:25:14
Pizza Hut,1226 Smithfield Plaza,,Smithfield,VA,23430,US,36.9571991,-76.603302,2022-12-18 06:25:14
Pizza Hut,2291 George Washington Memorial Hwy,,Hayes,VA,23072,US,37.27320099,-76.49710083,2022-12-18 06:25:14
Pizza Hut,"240 McLaws Circle, Suite 141",,Williamsburg,VA,23185,US,37.24679947,-76.65920258,2022-12-18 06:25:14
Pizza Hut,90 Cape Fear Dr,,Whitsett,NC,27377,US,36.07860184,-79.55680084,2022-12-18 06:25:08
Pizza Hut,268 Liberty Plaza,,Liberty,NC,27298,US,35.85329819,-79.57929993,2022-12-18 06:25:08
Pizza Hut,1315 E Dixie Hwy,,Asheboro,NC,27203,US,35.69760132,-79.78919983,2022-12-18 06:25:08
Pizza Hut,2125 S Church St,,Burlington,NC,27215,US,36.08280182,-79.46790314,2022-12-18 06:25:08
Pizza Hut,1519 Freeway Drive,,Reidsville,NC,27320,US,36.33670044,-79.69409943,2022-12-18 06:25:14
Pizza Hut,823 S. Main St.,,Graham,NC,27253,US,36.05649948,-79.40149689,2022-12-18 06:25:21
Pizza Hut,1605 East 11th Street,,Siler City,NC,27344,US,35.73500061,-79.4417038,2022-12-18 06:25:21
Pizza Hut,1022 Mebane Oaks Rd.,,Mebane,NC,27302,US,36.07450104,-79.27580261,2022-12-18 06:25:13
Pizza Hut,1209 Ehringhaus St.,,Elizabeth City,NC,27909,US,36.29470062,-76.23829651,2022-12-18 06:25:16
Pizza Hut,5a Everett St,,Revere,MA,02151,US,42.40990067,-71.00050354,2022-12-18 06:25:08
Pizza Hut,7 Sycamore St.,,Everett,MA,02149,US,42.41450119,-71.04669952,2022-12-18 06:25:08
Pizza Hut,39 State St,,Lynn,MA,01901,US,42.46229935,-70.94979858,2022-12-18 06:25:08
Pizza Hut,131 Church St,,Lowell,MA,01850,US,42.64080048,-71.30500031,2022-12-18 06:25:08
Pizza Hut,216 Haverhill St,,Methuen,MA,01844,US,42.70640182,-71.20330048,2022-12-18 06:25:08
Pizza Hut,199 Daniel Webster Hwy S,,Nashua,NH,03060,US,42.7159996,-71.44319916,2022-12-18 06:25:08
Pizza Hut,727 Milford Rd,,Merrimack,NH,03054,US,42.80379868,-71.55139923,2022-12-18 06:25:08
Pizza Hut,7017 Kingston Pike,,Knoxville,TN,37919,US,35.93220139,-84.02420044,2022-12-18 07:39:42
Pizza Hut,9268 Kingston Pike,,Knoxville,TN,37922,US,35.91040039,-84.08840179,2022-12-18 07:39:42
Pizza Hut,5701 Western Ave,,Knoxville,TN,37921,US,35.97919846,-84.01399994,2022-12-18 07:39:42
Pizza Hut,2405 Chapman Hwy,,Knoxville,TN,37920,US,35.95090103,-83.91490173,2022-12-18 07:39:42
Pizza Hut,2418 Airport Hwy,,Alcoa,TN,37701,US,35.81439972,-83.98169708,2022-12-18 07:39:42
Pizza Hut,10402 Kingston Pike,,Knoxville,TN,37922,US,35.89929962,-84.12689972,2022-12-18 07:39:42
Pizza Hut,212 Cedar Ln,,Knoxville,TN,37912,US,36.01490021,-83.96700287,2022-12-18 07:39:42
Pizza Hut,7504 Clinton Hwy,,Powell,TN,37849,US,36.02009964,-84.05349731,2022-12-18 07:39:42
Pizza Hut,7401 S. Chapman Hwy,,Knoxville,TN,37920,US,35.90850067,-83.84690094,2022-12-18 07:39:42
Pizza Hut,375 Hannum St,,Alcoa,TN,37701,US,35.75899887,-83.97399902,2022-12-18 07:39:42
Pizza Hut,804 Foothills Mall Dr,,Maryville,TN,37801,US,35.75120163,-83.99790192,2022-12-18 07:39:42
Pizza Hut,5338 Millertown Pike,,Knoxville,TN,37924,US,36.03329849,-83.86849976,2022-12-18 07:39:42
Pizza Hut,7224 Maynardville Pike,,Knoxville,TN,37918,US,36.08200073,-83.92669678,2022-12-18 07:39:42
Pizza Hut,"300 Market Drive, Suite 101",,Lenoir City,TN,37771,US,35.81890106,-84.26850128,2022-12-18 07:39:42
Pizza Hut,1570 Oak Ridge Turnpike,,Oak Ridge,TN,37830,US,36.01079941,-84.26830292,2022-12-18 07:39:42
Pizza Hut,7955 East Lamar Alexander Pkwy,,Townsend,TN,37882,US,35.68019867,-83.74210358,2022-12-18 07:39:42
Pizza Hut,"2946 Winfield Dunn Pkwy., Ste. 109",,Kodak,TN,37764,US,35.96360016,-83.59249878,2022-12-18 07:39:42
Pizza Hut,516 Winfield Dunn Pkwy,,Sevierville,TN,37876,US,35.87599945,-83.57219696,2022-12-18 07:39:42
Pizza Hut,3710 Parkway,,Pigeon Forge,TN,37863,US,35.78129959,-83.55020142,2022-12-18 07:39:42
Pizza Hut,2142 Jacksboro Pike,,La Follette,TN,37766,US,36.34909821,-84.15930176,2022-12-18 07:39:42
Pizza Hut,1624 S Roane St,,Harriman,TN,37748,US,35.91270065,-84.58329773,2022-12-18 06:25:13
Pizza Hut,4629 Highway 411,,Madisonville,TN,37354,US,35.50979996,-84.3660965,2022-12-18 06:25:13
Pizza Hut,788 Highway 68,,Sweetwater,TN,37874,US,35.5909996,-84.4776001,2022-12-18 06:25:13
Pizza Hut,150 HWY 19 South,,Bryson City,NC,28713,US,35.42639923,-83.45020294,2022-12-18 06:25:19
Pizza Hut,1215 Congress Pkwy NW,,Athens,TN,37303,US,35.45259857,-84.6210022,2022-12-18 06:54:29
Pizza Hut,7550 E Brainerd Rd Ste 115,,Chattanooga,TN,37421,US,35.01240158,-85.15950012,2022-12-18 07:39:42
Pizza Hut,4850 Hwy 58 Space B,,Chattanooga,TN,37416,US,35.09140015,-85.18160248,2022-12-18 07:39:42
Pizza Hut,4340 Ringgold Rd,,East Ridge,TN,37412,US,34.99409866,-85.23670197,2022-12-18 07:39:42
Pizza Hut,"5920 Main Street, Suite 1",,Ooltewah,TN,37363,US,35.08129883,-85.05870056,2022-12-18 07:39:42
Pizza Hut,1204 Hixson Pike,,Chattanooga,TN,37405,US,35.06999969,-85.28900146,2022-12-18 07:39:42
Pizza Hut,"1919 Battlefield Pkwy, # A-2",,Fort Oglethorpe,GA,30742,US,34.94860077,-85.23329926,2022-12-18 07:39:42
Pizza Hut,6218 Hixson Pike,,Hixson,TN,37343,US,35.15330124,-85.19950104,2022-12-18 07:39:42
Pizza Hut,5454 Alabama Hwy,,Ringgold,GA,30736,US,34.91220093,-85.12660217,2022-12-18 07:39:42
Pizza Hut,55 Hwy 813,,Chickamauga,GA,30707,US,34.88869858,-85.26940155,2022-12-18 07:39:42
Pizza Hut,2631 Apd 40 Hwy 64,,Cleveland,TN,37323,US,35.13010025,-84.87509918,2022-12-18 07:39:42
Pizza Hut,2734 Keith St NW,,Cleveland,TN,37312,US,35.18590164,-84.87069702,2022-12-18 07:39:42
Pizza Hut,1525 Cleveland Hwy Ste 3,,Dalton,GA,30721,US,34.80170059,-84.96150208,2022-12-18 07:39:42
Pizza Hut,"165 Stuart Rd. NE, #B3",,Cleveland,TN,37312,US,35.20009995,-84.84279633,2022-12-18 06:54:29
Pizza Hut,12020 S Main St,,Trenton,GA,30752,US,34.86769867,-85.51210022,2022-12-18 07:39:42
Pizza Hut,405 N Main St,,La Fayette,GA,30728,US,34.7120018,-85.28070068,2022-12-18 07:39:42
Pizza Hut,430 Us Hwy #411 S,,Chatsworth,GA,30705,US,34.76139832,-84.76909637,2022-12-18 06:54:29
Pizza Hut,7410 Rhea County Hwy,,Dayton,TN,37321,US,35.5082016,-84.9992981,2022-12-18 07:39:42
Pizza Hut,2536 Columbus St,,Grove City,OH,43123,US,39.88159943,-83.07029724,2022-12-18 06:54:29
Pizza Hut,3643 S High St,,Columbus,OH,43207,US,39.88650131,-82.99949646,2022-12-18 06:54:29
Pizza Hut,1325 Harrisburg Pike,,Columbus,OH,43223,US,39.93109894,-83.0503006,2022-12-18 06:54:29
Pizza Hut,3880 Sullivant Ave,,Columbus,OH,43228,US,39.94269943,-83.10250092,2022-12-18 06:54:29
Pizza Hut,1076 Parsons Ave.,,Columbus,OH,43206,US,39.9416008,-82.98290253,2022-12-18 06:54:29
Pizza Hut,4903 W Broad St,,Columbus,OH,43228,US,39.9518013,-83.13179779,2022-12-18 06:54:29
Pizza Hut,1382 N High St,,Columbus,OH,43201,US,39.9905014,-83.0059967,2022-12-18 06:54:29
Pizza Hut,3089 E Main St,,Columbus,OH,43209,US,39.95629883,-82.91600037,2022-12-18 06:54:29
Pizza Hut,3776 S Hamilton Rd,,Groveport,OH,43125,US,39.89720154,-82.88169861,2022-12-18 06:54:29
Pizza Hut,4440 E Main St,,Whitehall,OH,43213,US,39.95589828,-82.87999725,2022-12-18 06:54:29
Pizza Hut,4504 Cemetery Rd,,Hilliard,OH,43026,US,40.03250122,-83.1371994,2022-12-18 06:54:29
Pizza Hut,4514 Kenny Rd,,Columbus,OH,43220,US,40.05110168,-83.04930115,2022-12-18 06:54:29
Pizza Hut,1950 Cleveland Innis Plz,,Columbus,OH,43224,US,40.03639984,-82.96170044,2022-12-18 06:54:29
Pizza Hut,6326 Gender Road,,Canal Winchester,OH,43110,US,39.85189819,-82.82649994,2022-12-18 06:54:29
Pizza Hut,6736 E Main St,,Reynoldsburg,OH,43068,US,39.95529938,-82.81729889,2022-12-18 06:54:29
Pizza Hut,5837 Sawmill Rd,,Dublin,OH,43017,US,40.08599854,-83.09300232,2022-12-18 07:39:42
Pizza Hut,7183 East Broad Street,,Blacklick,OH,43004,US,39.98239899,-82.80989838,2022-12-18 06:54:29
Pizza Hut,890 E Dublin Granville Rd,,Columbus,OH,43229,US,40.08850098,-82.99500275,2022-12-18 07:39:42
Pizza Hut,810 Refugee Rd,,Pickerington,OH,43147,US,39.91019821,-82.77580261,2022-12-18 06:54:29
Pizza Hut,5121 N. Hamilton Rd.,,Columbus,OH,43230,US,40.06079865,-82.86399841,2022-12-18 06:54:29
Pizza Hut,7370 Sawmill Rd,,Columbus,OH,43235,US,40.11539841,-83.08940125,2022-12-18 07:39:42
Pizza Hut,651 S State St,,Westerville,OH,43081,US,40.10860062,-82.92549896,2022-12-18 07:39:42
Pizza Hut,1240 N Court St,,Circleville,OH,43113,US,39.62220001,-82.94039917,2022-12-18 06:54:29
Pizza Hut,25 Neverland Dr,,Lewis Center,OH,43035,US,40.15810013,-83.01950073,2022-12-18 07:39:42
Pizza Hut,232 Lafayette St,,London,OH,43140,US,39.89810181,-83.43630219,2022-12-18 06:54:29
Pizza Hut,632 N Memorial Dr,,Lancaster,OH,43130,US,39.72119904,-82.60639954,2022-12-18 06:54:29
Pizza Hut,55 S Miller Dr,,Sunbury,OH,43074,US,40.2480011,-82.8687973,2022-12-18 07:39:42
Pizza Hut,241 S Sandusky St,,Delaware,OH,43015,US,40.29100037,-83.06800079,2022-12-18 07:39:42
Pizza Hut,409 S Elm St,,Washington Court House,OH,43160,US,39.54309845,-83.42669678,2022-12-18 06:25:15
Pizza Hut,901 W 5th St,,Marysville,OH,43040,US,40.23799896,-83.38069916,2022-12-18 07:39:42
Pizza Hut,5220 Williamson Rd NW Ste A,,Roanoke,VA,24012,US,37.32139969,-79.95480347,2022-12-18 06:25:16
Pizza Hut,1060 By Pass Road,,Vinton,VA,24179,US,37.27539825,-79.8844986,2022-12-18 06:25:16
Pizza Hut,3528 Electric Rd.,,Roanoke,VA,24018,US,37.22660065,-79.99759674,2022-12-18 06:25:16
Pizza Hut,380 Tanyard Rd,,Rocky Mount,VA,24151,US,37.0019989,-79.88189697,2022-12-18 06:25:14
Pizza Hut,4420 East 10th Street - 108,,Greenville,NC,27858,US,35.58060074,-77.30879974,2022-12-18 06:25:15
Pizza Hut,"709 Greenville Blvd., SE",,Greenville,NC,27858,US,35.58819962,-77.36930084,2022-12-18 06:25:15
Pizza Hut,701 W Fire Tower Rd Unit A,,Winterville,NC,28590,US,35.54769897,-77.40070343,2022-12-18 06:25:15
Pizza Hut,807 Moye Blvd,,Greenville,NC,27834,US,35.60359955,-77.39920044,2022-12-18 06:25:15
Pizza Hut,134 Hwy 102 West,,Ayden,NC,28513,US,35.47719955,-77.43659973,2022-12-18 06:25:15
Pizza Hut,1310 W. 15th,,Washington,NC,27889,US,35.56299973,-77.06340027,2022-12-18 06:25:16
Pizza Hut,8811 W. Marlboro Rd.,,Farmville,NC,27828,US,35.5862999,-77.60500336,2022-12-18 06:25:15
Pizza Hut,1802 W Vernon Ave,,Kinston,NC,28501,US,35.27069855,-77.6053009,2022-12-18 06:25:15
Pizza Hut,1037 Brentway Ave.,,Williamston,NC,27892,US,35.83850098,-77.06539917,2022-12-18 06:25:16
Pizza Hut,1502 Western Blvd,,Tarboro,NC,27886,US,35.90359879,-77.56269836,2022-12-18 06:25:15
Pizza Hut,1505 S Glenburnie Rd,,New Bern,NC,28560,US,35.11460114,-77.09429932,2022-12-18 06:25:17
Pizza Hut,3201 Dr Ml King Jr Blvd,,New Bern,NC,28560,US,35.10100174,-77.09069824,2022-12-18 06:25:17
Pizza Hut,2709 Hwy. 70 E.,,New Bern,NC,28562,US,35.05730057,-77.0196991,2022-12-18 06:25:17
Pizza Hut,1111 N Fairview Rd,,Rocky Mount,NC,27801,US,35.9435997,-77.77449799,2022-12-18 06:25:15
Pizza Hut,3710 Peppermill Drive,,Wilson,NC,27896,US,35.76890182,-77.9382019,2022-12-18 06:25:15
Pizza Hut,891 US-64 WEST,,Plymouth,NC,27962,US,35.84909821,-76.75530243,2022-12-18 06:25:16
Pizza Hut,1522 Jeffreys Dr.,,Rocky Mount,NC,27804,US,35.97359848,-77.81359863,2022-12-18 06:25:15
Pizza Hut,"3646 Sunset Ave., Suite 104",,Rocky Mount,NC,27804,US,35.9640007,-77.8513031,2022-12-18 06:25:15
Pizza Hut,1336 Cape Saint Claire Rd,,Annapolis,MD,21409,US,39.03919983,-76.43920135,2022-12-18 06:25:16
Pizza Hut,3222 Solomon's Island Rd.,,Edgewater,MD,21037,US,38.93180084,-76.56819916,2022-12-18 06:25:11
Pizza Hut,3110 Mountain Rd,,Pasadena,MD,21122,US,39.12670135,-76.53510284,2022-12-18 06:25:16
Pizza Hut,2299 Johns Hopkins Road,,Gambrills,MD,21054,US,39.02840042,-76.68460083,2022-12-18 06:25:08
Pizza Hut,8149C Ritchie Highway,,Pasadena,MD,21122,US,39.12459946,-76.58370209,2022-12-18 06:25:08
Pizza Hut,1107 Odenton Rd.,,Odenton,MD,21113,US,39.07830048,-76.68589783,2022-12-18 06:25:08
Pizza Hut,7800 Parke West Dr,,Glen Burnie,MD,21061,US,39.14170074,-76.6486969,2022-12-18 06:25:08
Pizza Hut,6653 Governor Ritchie Hwy #22A,,Glen Burnie,MD,21060,US,39.19549942,-76.61260223,2022-12-18 06:25:08
Pizza Hut,2614 Annapolis Rd,,Severn,MD,21144,US,39.13029861,-76.73719788,2022-12-18 06:25:08
Pizza Hut,12200 Central Ave,,Mitchellville,MD,20721,US,38.90110016,-76.79440308,2022-12-18 07:39:42
Pizza Hut,5000 Ritchie Hwy,,Brooklyn,MD,21225,US,39.22470093,-76.61389923,2022-12-18 06:25:08
Pizza Hut,9119 Annapolis Rd,,Lanham,MD,20706,US,38.96350098,-76.85590363,2022-12-18 07:39:42
Pizza Hut,7260 Montgomery Rd,,Elkridge,MD,21075,US,39.20800018,-76.72889709,2022-12-18 06:25:08
Pizza Hut,1549 Merritt Blvd,,Dundalk,MD,21222,US,39.27429962,-76.50170135,2022-12-18 06:25:10
Pizza Hut,9155 Maier Rd,,Laurel,MD,20723,US,39.12149811,-76.82589722,2022-12-18 06:25:08
Pizza Hut,13929 Baltimore Ave,,Laurel,MD,20707,US,39.0821991,-76.86299896,2022-12-18 07:39:42
Pizza Hut,6747 Annapolis Rd,,Landover,MD,20784,US,38.94319916,-76.90139771,2022-12-18 07:39:42
Pizza Hut,"7106 Minstrel Way, Unit 6",,Columbia,MD,21045,US,39.17770004,-76.84320068,2022-12-18 06:25:08
Pizza Hut,9015 Baltimore Ave,,College Park,MD,20740,US,38.99990082,-76.93099976,2022-12-18 07:39:42
Pizza Hut,6415 Fredrick Road,,Catonsville,MD,21228,US,39.27519989,-76.71769714,2022-12-18 06:25:08
Pizza Hut,2004 Eastern Blvd,,Essex,MD,21220,US,39.32789993,-76.44290161,2022-12-18 06:25:10
Pizza Hut,9160 Route 108,,Columbia,MD,21045,US,39.23509979,-76.82949829,2022-12-18 06:25:08
Pizza Hut,7710 Old Branch Ave,,Clinton,MD,20735,US,38.78369904,-76.89779663,2022-12-18 07:39:42
Pizza Hut,9504 E Philadelphia Rd,,Rosedale,MD,21237,US,39.35469818,-76.46250153,2022-12-18 06:25:10
Pizza Hut,6663 Belair Rd,,Baltimore,MD,21206,US,39.3553009,-76.52980042,2022-12-18 06:25:10
Pizza Hut,9200 New Hampshire Ave,,Silver Spring,MD,20903,US,39.00630188,-76.98110199,2022-12-18 07:39:42
Pizza Hut,6422 Sargent Rd,,Hyattsville,MD,20782,US,38.96900177,-76.98439789,2022-12-18 07:39:42
Pizza Hut,1501 A&B Maryland Ave NE,,Washington,DC,20002,US,38.90039825,-76.98169708,2022-12-18 07:39:42
Pizza Hut,2303 Rolling Road,,Baltimore,MD,21244,US,39.32120132,-76.75769806,2022-12-18 06:25:08
Pizza Hut,11727 West Ave,,San Antonio,TX,78216,US,29.54739952,-98.50830078,2022-12-18 06:25:08
Pizza Hut,6630 San Pedro Ave,,San Antonio,TX,78216,US,29.49970055,-98.498703,2022-12-18 06:25:08
Pizza Hut,16100 San Pedro Ave,,San Antonio,TX,78232,US,29.58819962,-98.47360229,2022-12-18 06:25:08
Pizza Hut,2597 Jackson Keller,,San Antonio,TX,78230,US,29.51939964,-98.53420258,2022-12-18 06:25:08
