company_name,address_line_1,address_line_2,city,state_alpha,postal_code,country_code,latitude,longitude,when_verified
Popeyes,3377 S Las Vegas Blvd #2200,Grand Canal Mall,Las Vegas,NV,89109,US,36.12216568,-115.16895294,2022-11-29 18:18:04
Popeyes,3300 S Las Vegas Blvd,,Las Vegas,NV,89109,US,36.12476349,-115.17196655,2022-11-29 18:18:04
Popeyes,3785 S. Las Vegas Blvd,,Las Vegas,NV,89109,US,36.10320663,-115.17253113,2022-11-29 18:18:04
Popeyes,Kings Court - Excalibur Hotel & Casino 3850 Las Vegas Boulevard,3850 Las Vegas Boulevard S,Las Vegas,NV,89109,US,36.10305786,-115.17243195,2022-11-29 18:18:04
Popeyes,2880 S Las Vegas Blvd,,Las Vegas,NV,89109,US,36.13764191,-115.16538239,2022-11-29 18:18:04
Popeyes,1229 East Flamingo Road,,Las Vegas,NV,89119,US,36.11420059,-115.13748169,2022-11-29 18:18:04
Popeyes,4910 S Maryland Pkwy,,Las Vegas,NV,89119,US,36.10043335,-115.13614655,2022-11-29 18:18:04
Popeyes,4001 South Decatur Blvd,,Las Vegas,NV,89103,US,36.11572647,-115.20896912,2022-11-29 07:13:09
Popeyes,5757 Wayne Newton Blvd,,Las Vegas,NV,89119,US,36.08388901,-115.15370941,2022-11-29 18:18:04
Popeyes,6110 West Sahara Avenue,,Las Vegas,NV,89146,US,36.14472198,-115.22579193,2022-11-29 07:13:09
Popeyes,4830 W Sunset Rd,,Las Vegas,NV,89118,US,36.07215118,-115.20690918,2022-11-29 07:13:09
Popeyes,2421 W Bonanza Rd,,Las Vegas,NV,89106,US,36.17695236,-115.1743927,2022-11-29 18:18:04
Popeyes,8132 Las Vegas Blvd S,,Las Vegas,NV,89123,US,36.041996,-115.17042542,2022-11-29 18:18:04
Popeyes,6985 S Rainbow Blvd,,Las Vegas,NV,89118,US,36.06175995,-115.24331665,2022-11-29 07:13:09
Popeyes,2856 S Nellis Blvd,,Las Vegas,NV,89121,US,36.1377449,-115.06488037,2022-11-29 18:18:04
Popeyes,6121 Vegas Dr,,Las Vegas,NV,89108,US,36.18810272,-115.2253418,2022-11-29 07:13:09
Popeyes,2531 East Lake Mead Blvd,,Las Vegas,NV,89030,US,36.19551849,-115.11512756,2022-11-29 18:18:04
Popeyes,4505 E Bonanza Rd,,Las Vegas,NV,89110,US,36.17314148,-115.07794189,2022-11-29 18:18:04
Popeyes,7110 S Durango Dr,,Las Vegas,NV,89113,US,36.05873108,-115.27851105,2022-11-29 07:13:09
Popeyes,6500 Boulder Hwy,,Las Vegas,NV,89122,US,36.08359146,-115.03260803,2022-11-29 18:18:04
Popeyes,6725 W Sand Lake Rd,,Orlando,FL,32819,US,28.45033073,-81.4692688,2022-11-29 19:16:50
Popeyes,8001 S Orange Blossom Trail FC04,Florida Mall,Orlando,FL,32809,US,28.44655228,-81.39543152,2022-11-29 19:16:50
Popeyes,5760 S Orange Blossom Trl,,Orlando,FL,32839,US,28.47470856,-81.3972702,2022-11-29 19:16:50
Popeyes,3981 Columbia St,,Orlando,FL,32805,US,28.52731133,-81.4258194,2022-11-29 19:16:50
Popeyes,12131 S Orange Blossom Trl,,Orlando,FL,32837,US,28.38948059,-81.40398407,2022-11-29 19:16:50
Popeyes,1506 McCoy Road,,Orlando,FL,32809,US,28.4505825,-81.35993195,2022-11-29 19:16:50
Popeyes,5245 W Colonial Dr,,Orlando,FL,32808,US,28.55286217,-81.45195007,2022-11-29 19:16:50
Popeyes,45 N Orange Blossom Trl,,Orlando,FL,32805,US,28.54365349,-81.39701843,2022-11-29 17:09:51
Popeyes,10923 W. Colonial Drive,,Ocoee,FL,34761,US,28.55215645,-81.54102325,2022-11-29 19:16:50
Popeyes,2663 N Hiawassee Rd,,Orlando,FL,32818,US,28.57938576,-81.47557831,2022-11-29 17:09:51
Popeyes,5011 W Irlo Bronson Memorial,,Kissimmee,FL,34746,US,28.33359909,-81.48365784,2022-11-29 19:16:50
Popeyes,4547 South Semoran Blvd,,Orlando,FL,32822,US,28.49781609,-81.30944824,2022-11-29 17:09:51
Popeyes,852 Buenaventura Blvd.,,Kissimmee,FL,34743,US,28.34292793,-81.36341858,2022-11-29 19:16:50
Popeyes,5700 Lake Underhill Rd,,Orlando,FL,32807,US,28.53870201,-81.31014252,2022-11-29 17:09:51
Popeyes,6151 North Orange Blossom Trail,,Orlando,FL,32810,US,28.61186028,-81.42989349,2022-11-29 17:09:51
Popeyes,324 W Vine St,,Kissimmee,FL,34741,US,28.30427933,-81.40748596,2022-11-29 19:16:50
Popeyes,1035 Lee Rd,,Orlando,FL,32810,US,28.6061821,-81.39624786,2022-11-29 17:09:51
Popeyes,7541 West Irlo Bronson Memorial Hwy.,,Kissimmee,FL,34747,US,28.33495522,-81.59003448,2022-11-29 19:16:50
Popeyes,3397 South Orange Blossom Trail,,Kissimmee,FL,34746,US,28.26020622,-81.43878937,2022-11-29 19:16:50
Popeyes,460 W State Road 436,,Altamonte Springs,FL,32714,US,28.6613903,-81.39922333,2022-11-29 17:09:51
Popeyes,9185 Preston Road,,Frisco,TX,75033,US,33.15433884,-96.80391693,2022-11-29 07:12:13
Popeyes,2601 Preston Rd,Stonebriar Mall,Frisco,TX,75034,US,33.09919739,-96.81131744,2022-11-29 09:12:19
Popeyes,2776 E Eldorado Pkwy,,Little Elm,TX,75068,US,33.17783356,-96.88893127,2022-11-29 07:12:13
Popeyes,4705 State Highway 121,,The Colony,TX,75056,US,33.06740952,-96.88786316,2022-11-29 09:12:19
Popeyes,3945 West Spring Creek Parkway,Coit Rd,Plano,TX,75023,US,33.05727005,-96.76997375,2022-11-29 09:12:19
Popeyes,6520 State Highway 121,,Mckinney,TX,75013,US,33.14040375,-96.69360352,2022-11-28 18:17:39
Popeyes,6611 W Eldorado Pkwy,,McKinney,TX,75070,US,33.17364883,-96.70313263,2022-11-28 16:26:37
Popeyes,4211 University Drive,,Prosper,TX,75078,US,33.21912384,-96.73603821,2022-11-28 16:26:37
Popeyes,19304 Preston Rd,,Dallas,TX,75252,US,33.01040268,-96.79490662,2022-11-29 09:12:19
Popeyes,18311 Marsh Ln,,Dallas,TX,75287,US,32.99966049,-96.85627747,2022-11-29 09:12:19
Popeyes,1917 W 15th St,,Plano,TX,75075,US,33.01984406,-96.73214722,2022-11-29 09:12:19
Popeyes,340 E. Bethany Dr.,,Allen,TX,75002,US,33.08916855,-96.67272186,2022-11-28 18:17:39
Popeyes,1529 W Hebron Pkwy,,Carrollton,TX,75010,US,33.02072525,-96.93235779,2022-11-29 09:12:19
Popeyes,2620 Old Denton Road,,Carrollton,TX,75007,US,32.98481369,-96.90921021,2022-11-29 09:12:19
Popeyes,11501 US - 380,,Cross Roads,TX,76227,US,33.22505188,-96.98621368,2022-11-29 07:12:13
Popeyes,2528 14th St,,Plano,TX,75074,US,33.01777649,-96.68122864,2022-11-29 09:12:19
Popeyes,8151 I-35 East,,Corinth,TX,76210,US,33.13117981,-97.03943634,2022-11-29 07:12:13
Popeyes,290 E Round Grove Rd,,Lewisville,TX,75067,US,33.00385284,-96.98524475,2022-11-29 09:12:19
Popeyes,"7975 Belt Line Rd,",,Dallas,TX,75254,US,32.95113754,-96.77052307,2022-11-29 09:12:19
Popeyes,1394 W Main St,,Lewisville,TX,75067,US,33.04186249,-97.02864075,2022-11-29 07:12:13
Popeyes,25554 Kingsland Blvd,,Katy,TX,77494,US,29.77393341,-95.81735992,2022-11-29 08:32:20
Popeyes,"2020 S. Mason Rd Katy,",,Katy,TX,77450,US,29.75000572,-95.75187683,2022-11-29 08:32:20
Popeyes,"6322 FM 1463, Rd Katy",,Fulshear,TX,77494,US,29.70132256,-95.84677887,2022-11-29 08:32:20
Popeyes,22101 Katy Fwy,,Katy,TX,77450,US,29.78395653,-95.75428009,2022-11-29 08:32:20
Popeyes,5745 W Grand Pkwy S,,Richmond,TX,77407,US,29.69010735,-95.76803589,2022-11-29 08:32:20
Popeyes,21817 Clay Rd,,Katy,TX,77449,US,29.83107758,-95.75580597,2022-11-29 08:32:20
Popeyes,20040 Morton Rd,,Katy,TX,77449,US,29.81521225,-95.7197113,2022-11-29 08:32:20
Popeyes,2404 Greenhouse Road,,Houston,TX,77084,US,29.79690361,-95.70318604,2022-11-29 08:32:20
Popeyes,1420 Barker Cypress Rd,,Houston,TX,77084,US,29.7882309,-95.68783569,2022-11-29 20:12:40
Popeyes,340 FM 359 Rd S,,Brookshire,TX,77423,US,29.77687836,-95.95193481,2022-11-28 14:50:48
Popeyes,14417 Westheimer Road,,Houston,TX,77077,US,29.73513985,-95.64099121,2022-11-29 20:12:40
Popeyes,16717 W Airport Blvd,,Richmond,TX,77407,US,29.65016365,-95.68058014,2022-11-29 08:32:20
Popeyes,8002 Highway 6 S,,Houston,TX,77083,US,29.69220161,-95.64430237,2022-11-29 08:32:20
Popeyes,7120 N. Fry Rd.,Cypress,Cypress,TX,77433,US,29.88232803,-95.72340393,2022-11-29 08:32:20
Popeyes,6245 Barker Cypress,,Houston,TX,77084,US,29.86463547,-95.68373871,2022-11-29 20:12:40
Popeyes,4946 Highway 6 N,,Houston,TX,77084,US,29.84802055,-95.64537811,2022-11-29 20:12:40
Popeyes,14467 Memorial Dr,,Houston,TX,77079,US,29.76988792,-95.60149384,2022-11-29 20:12:40
Popeyes,12550 Bellaire Blvd,,Houston,TX,77072,US,29.70395851,-95.60411835,2022-11-29 20:12:40
Popeyes,1300 1st St,,Rosenberg,TX,77471,US,29.55496979,-95.80918884,2022-11-29 14:17:53
Popeyes,US-90 ALT,,Sugar Land,TX,77498,US,29.61144066,-95.65219116,2022-11-29 11:08:47
Popeyes,934 8th Ave,,New York,NY,10019,US,40.76552582,-73.98348236,2022-11-29 09:12:03
Popeyes,240 W 40th St,,New York,NY,10018,US,40.7553215,-73.98957825,2022-11-29 09:11:59
Popeyes,358 7th Ave,,New York,NY,10001,US,40.74843979,-73.99288177,2022-11-29 09:11:59
Popeyes,252 8th Avenue,,New York,NY,10011,US,40.74501038,-73.9983902,2022-11-29 09:11:59
Popeyes,75 Lexington Ave,,New York,NY,10010,US,40.74119186,-73.98330688,2022-11-29 15:43:46
Popeyes,14 E 23rd St,,New York,NY,10010,US,40.7407608,-73.98840332,2022-11-29 09:11:59
Popeyes,1572 3rd Ave,,New York,NY,10128,US,40.7804718,-73.95317841,2022-11-29 15:43:46
Popeyes,2534 Broadway,,New York,NY,10025,US,40.79372787,-73.97213745,2022-11-29 09:12:03
Popeyes,5401 Bergenline Ave,,West New York,NJ,07093,US,40.78510284,-74.01948547,2022-11-29 09:11:59
Popeyes,305 6th Ave,,New York,NY,10014,US,40.73079681,-74.00202942,2022-11-29 09:11:59
Popeyes,3600 John F. Kennedy Blvd,,Union City,NJ,07087,US,40.77560806,-74.02993011,2022-11-29 09:11:59
Popeyes,33-18 21st Street,,Long Island City,NY,11106,US,40.76449966,-73.93293762,2022-11-29 15:43:46
Popeyes,1908 3rd Ave,,New York,NY,10029,US,40.79118729,-73.94520569,2022-11-29 15:43:46
Popeyes,39 1st Avenue,,New York,NY,10003,US,40.72450638,-73.98777008,2022-11-29 08:33:48
Popeyes,918 Manhattan Ave,,Brooklyn,NY,11222,US,40.73075104,-73.95410156,2022-11-29 19:15:51
Popeyes,1445 Kennedy Blvd,,North Bergen,NJ,07047,US,40.76364517,-74.04273224,2022-11-29 09:11:59
Popeyes,53 W 116th St,,New York,NY,10026,US,40.80184937,-73.9486618,2022-11-29 09:12:03
Popeyes,101 Delancey St,,New York,NY,10001,US,40.71850586,-73.98889923,2022-11-29 08:33:48
Popeyes,37-10 Queens Boulevard,,Long Island,NY,11101,US,40.74380112,-73.92772675,2022-11-29 19:15:51
Popeyes,96 Walker St,,New York,NY,10013,US,40.71789551,-74.00057983,2022-11-29 08:33:48
Popeyes,125 Canal St,,New York,NY,10002,US,40.71602631,-73.99513245,2022-11-29 08:33:48
Popeyes,125 18th St,,Jersey City,NJ,07310,US,40.73255157,-74.03761292,2022-11-29 09:11:59
Popeyes,30 Mall Drive West,Popeyes Food Court,Jersey City,NJ,07310,US,40.72684097,-74.03799438,2022-11-29 08:33:42
Popeyes,111 Fulton St,,"New York,",NY,10038,US,40.7098732,-74.00659943,2022-11-29 08:33:42
Popeyes,8111 Concord Mills Blvd,Concord Mills Mall,Concord,NC,28027,US,35.37123489,-80.72397614,2022-11-28 20:33:48
Popeyes,921 Concord Pkwy S,,Concord,NC,28027,US,35.39393616,-80.61840057,2022-11-28 20:33:48
Popeyes,11858 University City Blvd,,Charlotte,NC,28213,US,35.31454086,-80.68939972,2022-11-28 20:33:48
Popeyes,1489 Concord Pkwy N,,Concord,NC,28025,US,35.43876648,-80.60652924,2022-11-29 11:45:20
Popeyes,1110 S Cannon Blvd,,Kannapolis,NC,28083,US,35.47922516,-80.61222076,2022-11-29 11:45:20
Popeyes,6107 The Plaza,,Charlotte,NC,28215,US,35.24843216,-80.75205994,2022-11-28 19:33:54
Popeyes,4050 N Tryon Street,,Charlotte,NC,28206,US,35.25654602,-80.7971344,2022-11-28 19:33:54
Popeyes,6011 Albemarle Road,,Charlotte,NC,28212,US,35.2036705,-80.74305725,2022-11-28 19:33:54
Popeyes,3318 Wilkinson Blvd,,Charlotte,NC,28208,US,35.22483444,-80.89620972,2022-11-28 19:33:54
Popeyes,1729 Sardis Road,,Charlotte,NC,28270,US,35.14004898,-80.73687744,2022-11-28 19:33:54
Popeyes,135 W Arrowood Road,,Charlotte,NC,28273,US,35.13497162,-80.893013,2022-11-28 19:33:54
Popeyes,9501 South Blvd,,Charlotte,NC,28273,US,35.10797882,-80.88079071,2022-11-28 19:33:54
Popeyes,200 S Main St,,Mauldin,SC,29662,US,34.77606201,-82.30836487,2022-11-28 18:02:23
Popeyes,1109 West Wade Hampton,,Greer,SC,29601,US,34.94272995,-82.25498199,2022-11-28 18:02:23
Popeyes,5138 Calhoun Memorial Highway,,Easley,SC,29640,US,34.82491684,-82.55674744,2022-11-28 11:43:48
Popeyes,1628 John B White Sr Blvd,,Spartanburg,SC,29301,US,34.92359543,-81.98028564,2022-11-29 06:31:17
Popeyes,3895 Boiling Springs Road,,Boiling Springs,SC,29316,US,35.0477562,-81.98490906,2022-11-29 06:31:17
Popeyes,17524 Valley Mall Rd,,Hagerstown,MD,21740,US,39.62340927,-77.76687622,2022-11-29 17:09:07
Popeyes,1382 Dual Hwy,,Hagerstown,MD,21740,US,39.62586594,-77.69737244,2022-11-29 17:09:07
Popeyes,5608 Hammonds Mill Road,,Martinsburg,WV,25404,US,39.54485321,-77.91002655,2022-11-29 17:09:07
Popeyes,23 Elwood St,,Martinsburg,WV,25404,US,39.47237015,-77.95367432,2022-11-29 17:09:07
Popeyes,1403 W Patrick St,,Frederick,MD,21702,US,39.42015076,-77.46152496,2022-11-28 14:50:34
Popeyes,5721 Buckeystown Pike,,Frederick,MD,21704,US,39.39166641,-77.40888214,2022-11-28 14:50:34
Popeyes,8950 N. Central Avenue,,Phoenix,AZ,85020,US,33.56730652,-112.07431793,2022-11-29 14:18:10
Popeyes,9952 North 90th Street,,Scottsdale,AZ,85258,US,33.5764389,-111.88616943,2022-11-29 12:23:49
Popeyes,3426 W Greenway Rd,,Phoenix,AZ,85053,US,33.62570953,-112.13186646,2022-11-29 14:18:10
Popeyes,9121 East Indian Bend Road,,Scottsdale,AZ,85250,US,33.5379982,-111.8844986,2022-11-29 12:23:49
Popeyes,3109 East Indian School,,Phoenix,AZ,85016,US,33.4949379,-112.01499939,2022-11-29 14:18:10
Popeyes,2203 W Camelback Rd,,Phoenix,AZ,85015,US,33.50928116,-112.10668945,2022-11-29 14:18:10
Popeyes,5290 W Bell Rd,,Glendale,AZ,85308,US,33.63888168,-112.17342377,2022-11-29 14:18:10
Popeyes,5930 West Northern Ave,,Glendale,AZ,85301,US,33.55308151,-112.18618774,2022-11-29 14:18:10
Popeyes,20272 N. 75th Avenue,,Glendale,AZ,85308,US,33.66956329,-112.22091675,2022-11-29 14:18:10
Popeyes,8327 W Thunderbird Rd,,Peoria,AZ,85381,US,33.60959625,-112.23812103,2022-11-29 14:18:10
Popeyes,457 W Broadway Rd,,Tempe,AZ,85282,US,33.40679932,-111.94564056,2022-11-29 12:23:49
Popeyes,6540 W Thomas Rd,,Phoenix,AZ,85033,US,33.48077011,-112.20084381,2022-11-29 14:18:10
Popeyes,2005 W Broadway Rd,,Mesa,AZ,85202,US,33.40695572,-111.87508392,2022-11-29 12:23:49
Popeyes,1619 W Baseline Rd,,Guadalupe,AZ,85283,US,33.37768173,-111.9644928,2022-11-29 12:23:49
Popeyes,10717 West Grand Ave,,Sun City,AZ,85351,US,33.60252762,-112.29090118,2022-11-29 14:18:10
Popeyes,9400 West Camelback,,Glendale,AZ,85305,US,33.50862503,-112.26387024,2022-11-29 14:18:10
Popeyes,3510 W. Baseline Road,,Laveen,AZ,85339,US,33.37825012,-112.13510895,2022-11-29 14:18:10
Popeyes,1615 West Elliot Road,,Tempe,AZ,85284,US,33.34854126,-111.96464539,2022-11-29 12:23:49
Popeyes,1299 North Arizona Avenue,,Gilbert,AZ,85233,US,33.37334061,-111.84158325,2022-11-29 12:23:49
Popeyes,10345 W McDowell Rd,,Avondale,AZ,85392,US,33.46392059,-112.28492737,2022-11-29 14:18:10
Popeyes,7088 Liberty Centre Dr,,Liberty Township,OH,45069,US,39.37130737,-84.38474274,2022-11-28 20:33:41
Popeyes,11820 Lebanon Rd,,Cincinnati,OH,45241,US,39.2878418,-84.39567566,2022-11-29 14:18:27
Popeyes,9751 Mason Montgomery Rd,,Mason,OH,45040,US,39.29629898,-84.31570435,2022-11-29 14:18:27
Popeyes,2981 Princeton Road,,Hamilton,OH,45011,US,39.39087296,-84.51535797,2022-11-28 20:33:41
Popeyes,10601 Springfield Pike,,Cincinnati,OH,45215,US,39.26071167,-84.47010803,2022-11-29 14:18:27
Popeyes,1260 OH-63,,Monroe,OH,45050,US,39.44028473,-84.33275604,2022-11-28 20:33:41
Popeyes,5102 Dixie Hwy,,Fairfield,OH,45014,US,39.33996582,-84.53392029,2022-11-29 14:18:27
Popeyes,2430 Kings Mills Rd,,Mason,OH,45040,US,39.35813522,-84.26082611,2022-11-29 14:18:27
Popeyes,1165 Kemper Meadow Dr,,Cincinnati,OH,45240,US,39.29220963,-84.52238464,2022-11-29 14:18:27
Popeyes,9200 Reading Rd,,Cincinnati,OH,45215,US,39.22714233,-84.43796539,2022-11-29 14:18:27
Popeyes,7131 Reading Rd,,Cincinnati,OH,45237,US,39.19065475,-84.46299744,2022-11-29 19:16:35
Popeyes,9760 Colerain Avenue,,Cincinnati,OH,45251,US,39.24929428,-84.59620667,2022-11-29 09:50:54
Popeyes,2700 Madison Road,,Cincinnati,OH,45209,US,39.14632034,-84.44239044,2022-11-29 19:16:35
Popeyes,35 West Mitchell Avenue,,Cincinnati,OH,45217,US,39.16060638,-84.50601196,2022-11-29 19:16:35
Popeyes,829 West Central Avenue,,Springboro,OH,45066,US,39.56221008,-84.26174927,2022-11-29 06:30:56
Popeyes,6225 Glenway Ave,,Cincinnati,OH,45211,US,39.14463043,-84.62391663,2022-11-29 19:16:35
Popeyes,4402 Glen Este Withamsville Rd,,Cincinnati,OH,45245,US,39.09379196,-84.26256561,2022-11-29 19:16:35
Popeyes,502 Main St,,Covington,KY,41011,US,39.08516693,-84.51720428,2022-11-29 19:16:35
Popeyes,156 N Wabash Ave.,,Chicago,IL,60601,US,41.88483047,-87.62648773,2022-11-28 18:49:10
Popeyes,500 W Madison St,,Chicago,IL,60661,US,41.88230133,-87.64038086,2022-11-28 18:49:10
Popeyes,1251 S Halsted St,,Chicago,IL,60607,US,41.86571503,-87.64664459,2022-11-29 19:16:30
Popeyes,1555 W Division St,,Chicago,IL,60642,US,41.9031105,-87.66725159,2022-11-29 14:19:13
Popeyes,50 N Western Ave,,Chicago,IL,60612,US,41.88268661,-87.68682861,2022-11-29 12:22:30
Popeyes,1949 W Fullerton Ave,,Chicago,IL,60614,US,41.92481995,-87.67755127,2022-11-29 14:19:13
Popeyes,300 E 35th St,,Chicago,IL,60616,US,41.83152771,-87.61849213,2022-11-29 19:16:30
Popeyes,3202 W Chicago Ave,,Chicago,IL,60651,US,41.89586258,-87.70682526,2022-11-29 14:19:13
Popeyes,3204 S Ashland Ave,,Chicago,IL,60608,US,41.83532715,-87.66600037,2022-11-29 19:16:30
Popeyes,2800 W Diversey Ave,,Chicago,IL,60647,US,41.93228912,-87.69799042,2022-11-29 14:19:13
Popeyes,1600 W Irving Park Rd,,Chicago,IL,60613,US,41.95453262,-87.66947174,2022-11-29 14:19:13
Popeyes,2355 W Addison St,,Chicago,IL,60618,US,41.94654465,-87.68796539,2022-11-29 14:19:13
Popeyes,3451 W Roosevelt Rd,,Chicago,IL,60624,US,41.86604309,-87.71265411,2022-11-29 12:22:30
Popeyes,2556 S California Ave,,Chicago,IL,60608,US,41.84487152,-87.69558716,2022-11-29 19:16:30
Popeyes,818 E 47th St,,Chicago,IL,60653,US,41.80978394,-87.6055603,2022-11-29 19:16:30
Popeyes,1356 W 47th St,,Chicago,IL,60609,US,41.80894852,-87.65982819,2022-11-29 19:16:30
Popeyes,4773 W Cermak Rd,,Cicero,IL,60804,US,41.85090256,-87.74315643,2022-11-29 19:16:14
Popeyes,3352 W Lawrence Ave,,Chicago,IL,60625,US,41.96873474,-87.71304321,2022-11-29 14:19:13
Popeyes,4431 S Archer Ave,,Chicago,IL,60632,US,41.8124733,-87.70639038,2022-11-29 19:16:30
Popeyes,5500 W North Ave,,Chicago,IL,60639,US,41.90960693,-87.76338196,2022-11-29 14:19:13
Popeyes,6340 N Broadway St,,Chicago,IL,60660,US,41.99764252,-87.66082764,2022-11-29 14:19:13
Popeyes,5248 W Belmont Ave,,Chicago,IL,60641,US,41.93889999,-87.75878143,2022-11-29 14:19:13
Popeyes,6321 N Lincoln Ave,,Chicago,IL,60659,US,41.99649048,-87.7167511,2022-11-29 14:19:13
Popeyes,4866 N Milwaukee Ave,,Chicago,IL,60630,US,41.96944046,-87.76247406,2022-11-29 14:19:13
Popeyes,10419 S Memorial Dr,,Tulsa,OK,74133,US,36.0118866,-95.88587952,2022-11-29 09:50:57
Popeyes,10207 E 41st St,,Tulsa,OK,74146,US,36.10492325,-95.86354828,2022-11-29 09:50:57
Popeyes,1414 East 71st Street,,Tulsa,OK,74136,US,36.06023788,-95.97251892,2022-11-29 09:50:57
Popeyes,1450 E Kenosha St,,Broken Arrow,OK,74012,US,36.06147003,-95.77370453,2022-11-29 09:50:57
Popeyes,1117 E Pine St,,Tulsa,OK,74106,US,36.17722321,-95.977005,2022-11-29 09:50:57
Popeyes,5910 South Kings Highway,,Myrtle Beach,SC,29575,US,33.63080978,-78.96198273,2022-11-29 19:15:56
Popeyes,1402 Church Street,,Conway,SC,29526,US,33.84000015,-79.05999756,2022-11-29 11:08:30
Popeyes,7777 Burlington Pike,,Florence,KY,41042,US,39.00014496,-84.64447784,2022-11-29 19:16:35
Popeyes,724 Memorial Blvd,,Murfreesboro,TN,37129,US,35.85247421,-86.39647675,2022-11-28 08:00:46
Popeyes,,,Murfreesboro,TN,37127,US,35.80863571,-86.39841461,2022-11-28 08:00:46
Popeyes,550 Enon Springs Rd E,,Smyrna,TN,37167,US,35.97321701,-86.49550629,2022-11-29 06:31:03
Popeyes,121 Charter Place,,LaVergne,TN,37086,US,35.99202728,-86.59601593,2022-11-29 06:31:03
Popeyes,13011 Old Hickory Blvd,,Antioch,TN,37013,US,36.01472855,-86.61846924,2022-11-29 06:31:03
Popeyes,3550 Murfreesboro Pike,,Antioch,TN,37013,US,36.05199432,-86.61566162,2022-11-29 06:31:03
Popeyes,4023 Nolensville Pike,,Nashville,TN,37211,US,36.08341217,-86.72789001,2022-11-29 13:00:06
Popeyes,1188 Murfreesboro Pike,,Nashville,TN,37217,US,36.12258148,-86.70523071,2022-11-29 13:00:06
Popeyes,1915 East Market Street,,Harrisonburg,VA,22801,US,38.42982864,-78.84263611,2022-11-27 06:54:51
Popeyes,100 Debaun Loop,,Chesapeake,VA,23320,US,36.78011322,-76.2570343,2022-11-29 20:12:32
Popeyes,4307 Indian River Rd,,Chesapeake,VA,23325,US,36.82006836,-76.22511292,2022-11-29 20:12:32
Popeyes,333 Dominion Blvd S,,Chesapeake,VA,23322,US,36.7280426,-76.30084991,2022-11-29 20:12:32
Popeyes,3718 George Washington Hwy,,Portsmouth,VA,23702,US,36.80892563,-76.31830597,2022-11-29 20:12:32
Popeyes,300 Saint Pauls Blvd,,Norfolk,VA,23510,US,36.84880829,-76.2838974,2022-11-29 20:12:32
Popeyes,5850 E Virginia Beach Blvd,,Norfolk,VA,23502,US,36.85633087,-76.20378113,2022-11-29 20:12:32
Popeyes,812 Lynnhaven Pkwy,,Virginia Beach,VA,23452,US,36.81151962,-76.07019806,2022-11-29 20:12:32
Popeyes,5720 Churchland Blvd,,Portsmouth,VA,23703,US,36.86185074,-76.39225006,2022-11-29 20:12:32
Popeyes,7700 Hampton Blvd,,Norfolk,VA,23505,US,36.91622543,-76.30806732,2022-11-29 20:12:32
Popeyes,67 W Mercury Blvd,,Hampton,VA,23669,US,37.04315186,-76.35233307,2022-11-29 20:12:32
Popeyes,5201 Mercury Blvd,,Hampton,VA,23605,US,37.02124786,-76.43947601,2022-11-29 20:12:32
Popeyes,1540 S Stratford Rd,,Winston-Salem,NC,27103,US,36.07317352,-80.30387878,2022-11-29 13:01:14
Popeyes,500 N MLK Drive,,Winston-Salem,NC,27101,US,36.10078049,-80.22915649,2022-11-29 13:01:14
Popeyes,7791 North Point Boulevard,,Winston-Salem,NC,27106,US,36.15061188,-80.27983856,2022-11-29 13:01:14
Popeyes,1720 US Hwy 601 North,,Mocksville,NC,27028,US,35.9248848,-80.59159088,2022-11-29 11:45:20
Popeyes,1430 Barrett Pkwy,,Kennesaw,GA,30152,US,33.99558258,-84.59236145,2022-11-29 18:17:13
Popeyes,9490 Alabama Road (GA-92),,Woodstock,GA,30188,US,34.08533859,-84.53118896,2022-11-29 18:17:13
Popeyes,3462 Baker Road,,Acworth,GA,30101,US,34.07632065,-84.65148163,2022-11-29 18:17:13
Popeyes,159 Cobb Pkwy S,,Marietta,GA,30060,US,33.94832611,-84.51860046,2022-11-29 18:17:13
Popeyes,1101 Powder Springs St,,Marietta,GA,30064,US,33.9262352,-84.57135773,2022-11-29 18:17:13
Popeyes,8610 Dallas Acworth Hwy,,Dallas,GA,30132,US,34.00875854,-84.75614929,2022-11-29 18:17:13
Popeyes,2691 Windy Hill Rd SE,,Marietta,GA,30067,US,33.90143204,-84.47671509,2022-11-29 20:11:58
Popeyes,3350 S Cobb Dr SE,,Smyrna,GA,30080,US,33.87171555,-84.52971649,2022-11-29 20:11:58
Popeyes,1830 E West Connector,,Austell,GA,30106,US,33.854496,-84.60645294,2022-11-29 18:17:13
Popeyes,10777 Alpharetta Hwy,,Roswell,GA,30076,US,34.04185104,-84.34117889,2022-11-28 19:19:37
Popeyes,5329 Wendy Bagwell Pkwy,,Hiram,GA,30141,US,33.88718414,-84.73969269,2022-11-29 18:17:13
Popeyes,4555 Roswell Rd,,Atlanta,GA,30342,US,33.87953186,-84.37935638,2022-11-29 20:11:58
Popeyes,603 Martin Luther King Jr Drive,,Cartersville,GA,30121,US,34.17628098,-84.78542328,2022-11-28 19:19:37
Popeyes,6077 Mableton Pkwy SW,,Mableton,GA,30126,US,33.80585861,-84.56925201,2022-11-29 20:11:58
Popeyes,540 Riverstone Parkway,,Canton,GA,30114,US,34.2440567,-84.48697662,2022-11-28 19:19:37
Popeyes,608 Thornton Rd,,Lithia Springs,GA,30122,US,33.7893486,-84.62169647,2022-11-29 18:17:13
Popeyes,3343 Old Milton Pkwy,,Alpharetta,GA,30005,US,34.0676918,-84.26311493,2022-11-28 19:19:37
Popeyes,5220 Buford Highway,,Doraville,GA,30340,US,33.89562988,-84.28347015,2022-11-28 19:19:37
Popeyes,3349 MLK Jr Dr,,Atlanta,GA,30331,US,33.75488663,-84.49733734,2022-11-29 20:11:58
Popeyes,7050 Jimmy Carter Blvd,,Norcross,GA,30092,US,33.94782257,-84.24095917,2022-11-28 19:19:20
Popeyes,10717 Courthouse Rd,,Fredericksburg,VA,22407,US,38.24731827,-77.51250458,2022-11-28 20:33:26
Popeyes,5611 Plank Road,,Fredericksburg,VA,22407,US,38.29159546,-77.56350708,2022-11-28 20:33:26
Popeyes,1903 Plank Rd,,Fredericksburg,VA,22401,US,38.2962265,-77.49121094,2022-11-28 20:33:26
Popeyes,735 Warrenton Rd,,Fredericksburg,VA,22406,US,38.35118484,-77.50637817,2022-11-28 20:33:26
Popeyes,253 Garrisonville Rd,,Stafford,VA,22554,US,38.47355652,-77.4169693,2022-11-28 20:33:26
Popeyes,2802 Candlers Mountain Road,,Lynchburg,VA,24502,US,37.37067032,-79.18318176,2022-11-29 10:30:13
Popeyes,3811 Clemson Blvd,,Anderson,SC,29621,US,34.55472183,-82.68372345,2022-11-28 16:26:03
Popeyes,13020 Clemson Boulevard,,"Seneca, SC",SC,29678,US,34.69041824,-82.86090851,2022-11-29 11:07:15
Popeyes,72 E Franklin St,,Hartwell,GA,30643,US,34.35242462,-82.92819977,2022-11-29 11:07:15
Popeyes,1710 S Glenstone Ave,,Springfield,MO,65804,US,37.18393707,-93.26187897,2022-11-29 13:00:03
Popeyes,3195 South Campbell Avenue,,Springfield,MO,65807,US,37.15652084,-93.29613495,2022-11-28 14:01:33
Popeyes,1231 West Kearney Street,,Springfield,MO,65803,US,37.24113846,-93.30627441,2022-11-28 14:01:33
Popeyes,711 McCroskey St,,Nixa,MO,65714,US,37.0532341,-93.30279541,2022-11-28 14:01:33
Popeyes,780 N 18th St,,Ozark,MO,65721,US,37.02577972,-93.2271347,2022-11-28 14:01:33
Popeyes,1397 US-60,,Republic,MO,65738,US,37.13297653,-93.45841217,2022-11-28 14:01:33
Popeyes,1670 N Zaragoza Rd,,El Paso,TX,79936,US,31.7491169,-106.28094482,2022-11-29 11:08:15
Popeyes,1436 N Lee Trevino Dr,,El Paso,TX,79936,US,31.74728775,-106.31842804,2022-11-29 11:08:15
Popeyes,10430 Montwood Dr,,El Paso,TX,79936,US,31.77174187,-106.3380127,2022-11-29 11:08:15
Popeyes,12302 Montana Avenue,Suite 501,El Paso,TX,79938,US,31.80649567,-106.25958252,2022-11-29 11:08:15
Popeyes,8800 Montana Ave,,El Paso,TX,79925,US,31.79262161,-106.3712616,2022-11-29 11:08:15
Popeyes,10499 Alameda Avenue,,Socorro,TX,79927,US,31.65043831,-106.28660583,2022-11-29 11:08:15
Popeyes,13910-C Horizon Boulevard,,Horizon City,TX,79928,US,31.68223572,-106.20082092,2022-11-29 11:08:15
Popeyes,20752 Gulf Victory Way (military post access required),,Fort Bliss,TX,79916,US,31.85000038,-106.34999847,2022-11-29 11:08:15
Popeyes,196 Cassidy,,Fort Bliss,TX,79906,US,31.81226921,-106.4332962,2022-11-29 11:08:15
Popeyes,9496 Dyer St,,El Paso,TX,79924,US,31.88122559,-106.42019653,2022-11-29 11:08:15
Popeyes,11380 McCombs St,,El Paso,TX,79934,US,31.93651199,-106.40753937,2022-11-29 11:08:15
Popeyes,7272 N Mesa St,,El Paso,TX,79912,US,31.83740234,-106.55715179,2022-11-29 11:08:15
Popeyes,6820 Spur 16,,El Paso,TX,79932,US,31.90730476,-106.58689117,2022-11-29 11:08:15
Popeyes,957 N La Brea Ave,,Inglewood,CA,90302,US,33.97603226,-118.35803986,2022-11-29 20:12:17
Popeyes,12620 Hawthorne Blvd,,Hawthorne,CA,90250,US,33.91816711,-118.35217285,2022-11-29 17:09:22
Popeyes,2934 W Manchester Blvd,,Inglewood,CA,90305,US,33.95973206,-118.32521057,2022-11-29 20:12:17
Popeyes,3268 W Slauson Ave,,Los Angeles,CA,90043,US,33.98880005,-118.32932281,2022-11-29 20:12:17
Popeyes,14312 Prairie Ave,,Hawthorne,CA,90250,US,33.90119553,-118.34347534,2022-11-29 17:09:22
Popeyes,3050 S La Brea Ave,,Los Angeles,CA,90016,US,34.02569199,-118.35446167,2022-11-29 20:12:17
Popeyes,3995 S Western Ave,,Los Angeles,CA,90062,US,34.01114273,-118.30917358,2022-11-29 20:12:17
Popeyes,8530 S Figueroa St,,Los Angeles,CA,90003,US,33.96038818,-118.28237915,2022-11-29 20:12:17
Popeyes,1150 W Rosecrans Ave,,Gardena,CA,90247,US,33.90166473,-118.29585266,2022-11-29 17:09:22
Popeyes,451 E El Segundo Blvd,,Los Angeles,CA,90061,US,33.91666794,-118.26551819,2022-11-29 19:16:48
Popeyes,2532 S Figueroa St,,Los Angeles,CA,90007,US,34.0282135,-118.27566528,2022-11-29 20:12:17
Popeyes,1653 E 103rd St,,Los Angeles,CA,90002,US,33.94351196,-118.24472046,2022-11-29 20:12:17
Popeyes,1495 N Wilmington Ave,,Compton,CA,90222,US,33.90565872,-118.23873901,2022-11-29 17:09:22
Popeyes,6384 Hollywood Blvd,,Hollywood,CA,90028,US,34.10143661,-118.32939148,2022-11-29 20:12:17
Popeyes,300 W Compton Blvd,,Compton,CA,90220,US,33.89572906,-118.22673798,2022-11-29 17:09:22
Popeyes,3777 Pacific Coast Highway,,Torrance,CA,90505,US,33.80558777,-118.35198212,2022-11-29 12:22:14
Popeyes,154 W Carson St,,Carson,CA,90745,US,33.83138275,-118.27883911,2022-11-29 12:22:14
Popeyes,12622 Long Beach Blvd,,Lynwood,CA,90262,US,33.91213226,-118.20878601,2022-11-29 17:09:22
Popeyes,961 Sepulveda Blvd,,Torrance,CA,90502,US,33.81105423,-118.29201508,2022-11-29 12:22:14
Popeyes,2166 Pacific Coast Hwy,,Lomita,CA,90717,US,33.78921127,-118.3194809,2022-11-29 12:22:14
Popeyes,3748 S Carrier Pkwy,,Grand Prairie,TX,75052,US,32.68148804,-97.00744629,2022-11-28 18:17:44
Popeyes,2450 SE Green Oaks Blvd,,Arlington,TX,76018,US,32.66041946,-97.06440735,2022-11-28 19:19:07
Popeyes,2125 E Pioneer Pkwy,,Arlington,TX,76010,US,32.71252441,-97.072258,2022-11-29 19:15:58
Popeyes,3811 S Cooper St,Arlington Mall,Arlington,TX,76015,US,32.67978668,-97.12949371,2022-11-29 19:15:58
Popeyes,1200 SW Green Oaks Blvd,,Arlington,TX,76017,US,32.65911865,-97.13322449,2022-11-29 19:15:58
Popeyes,905 N Belt Line Rd,,Grand Prairie,TX,75050,US,32.75691986,-96.99545288,2022-11-29 19:16:06
Popeyes,1204 N Collins St,,Arlington,TX,76011,US,32.75315094,-97.09763336,2022-11-29 19:15:58
Popeyes,226 E FM 1382,,Cedar Hill,TX,75104,US,32.59663391,-96.94139862,2022-11-28 19:19:10
Popeyes,338 E Camp Wisdom Rd,,Duncanville,TX,75116,US,32.66125488,-96.90279388,2022-11-29 19:16:06
Popeyes,1901 S Main St,,Duncanville,TX,75137,US,32.62352753,-96.90882111,2022-11-29 19:16:06
Popeyes,801 Highway 287 N,,Mansfield,TX,76063,US,32.57810974,-97.12928009,2022-11-29 19:15:58
Popeyes,2972 W Wheatland Rd,,Dallas,TX,75237,US,32.6471405,-96.86933899,2022-11-29 19:16:06
Popeyes,1760 Eastchase Parkway,,Fort Worth,TX,76120,US,32.75370026,-97.17137146,2022-11-29 19:15:58
Popeyes,3308 W Davis St,,Dallas,TX,75211,US,32.74918747,-96.87448883,2022-11-29 19:16:06
Popeyes,4368 State HIghway 360,,Fort Worth,TX,76155,US,32.82770157,-97.06021118,2022-11-29 07:12:09
Popeyes,1711 N Belt Line Rd,,Irving,TX,75061,US,32.83194351,-96.9942627,2022-11-29 07:12:09
Popeyes,1900 E State Hwy 356,,Irving,TX,75060,US,32.8092804,-96.92067719,2022-11-29 19:16:06
Popeyes,"1010 W Airport Fwy,",,Euless,TX,76039,US,32.8380394,-97.09940338,2022-11-29 11:08:34
Popeyes,705 West Illinois Avenue,,Dallas,TX,75224,US,32.7207756,-96.83454132,2022-11-29 19:16:06
Popeyes,1125 Kennedale Road,"Kennedale, TX 76060",Kennedale,TX,76060,US,32.6638298,-97.24028778,2022-11-29 19:15:58
Popeyes,600 W. Princeton Drive,,Princeton,TX,75407,US,33.17556381,-96.50992584,2022-11-28 18:17:39
Popeyes,1436 Beltline Rd,,Garland,TX,75044,US,32.94477463,-96.64900208,2022-11-28 18:17:39
Popeyes,12435 Plano Rd,,Dallas,TX,75243,US,32.91619492,-96.70068359,2022-11-29 09:12:19
Popeyes,2820 S IH 35,,San Marcos,TX,78666,US,29.84388161,-97.96880341,2022-11-28 17:46:09
Popeyes,1628 Aquarena Springs Dr,,San Marcos,TX,78666,US,29.89257622,-97.91595459,2022-11-28 17:46:09
Popeyes,4817 N Interstate 35,,New Braunfels,TX,78130,US,29.7488308,-98.05788422,2022-11-28 17:46:09
Popeyes,20259 IH 35,,Kyle,TX,78640,US,30.01197243,-97.86012268,2022-11-28 16:10:47
Popeyes,1145 S Interstate 35,,New Braunfels,TX,78130,US,29.68491936,-98.12692261,2022-11-28 19:06:37
Popeyes,15295 I-35,,Buda,TX,78610,US,30.08999634,-97.8158493,2022-11-28 19:34:14
Popeyes,13800 East Independence Blvd,,Indian Trail,NC,28079,US,35.08317947,-80.6608429,2022-11-28 19:33:54
Popeyes,2445 Cherry Rd,,Rock Hill,SC,29732,US,34.96992874,-80.99282837,2022-11-29 15:43:56
Popeyes,1350 E Main St,,Rock Hill,SC,29730,US,34.91691971,-81.00092316,2022-11-29 15:43:56
Popeyes,3430 E Franklin Blvd,,Gastonia,NC,28056,US,35.25868225,-81.11921692,2022-11-28 18:34:37
Popeyes,108 S Kings Ave,,Brandon,FL,33511,US,27.93648338,-82.29420471,2022-11-29 17:09:44
Popeyes,1118 W. MLK Blvd,,Seffner,FL,33584,US,27.98104477,-82.29257202,2022-11-29 17:09:44
Popeyes,11706 Tampa Gateway Blvd,,Seffner,FL,33584,US,28.00991631,-82.30096436,2022-11-29 17:09:44
Popeyes,5410 Staley Drive,,Tampa,FL,33610,US,27.99688721,-82.37167358,2022-11-29 17:09:44
Popeyes,2201 E Hillsborough Ave,,Tampa,FL,33610,US,27.99571419,-82.4344635,2022-11-29 17:09:44
Popeyes,10551 Big Bend Road,,Riverview,FL,33579,US,27.79156876,-82.33352661,2022-11-29 17:09:09
Popeyes,2701 E Busch Blvd,,Tampa,FL,33612,US,28.03216553,-82.42860413,2022-11-29 17:09:44
Popeyes,2337 W Green St,,Tampa,FL,33607,US,27.95668411,-82.48458862,2022-11-29 17:09:44
Popeyes,201 W Alexander St,,Plant City,FL,33563,US,27.98843384,-82.12301636,2022-11-29 17:09:09
Popeyes,2216 E Fletcher Ave,,Tampa,FL,33612,US,28.06955338,-82.433815,2022-11-29 17:09:44
Popeyes,5156 S Dale Mabry Hwy,,Tampa,FL,33611,US,27.88951874,-82.50592804,2022-11-29 17:09:09
Popeyes,2619 W Waters Ave,,Tampa,FL,33614,US,28.02570343,-82.48608398,2022-11-29 17:09:44
Popeyes,2005 S Frontage Rd,,Plant City,FL,33563,US,28.0359211,-82.10318756,2022-11-29 08:32:56
Popeyes,14901 N Florida Ave,,Tampa,FL,33613,US,28.08512688,-82.45914459,2022-11-29 17:09:44
Popeyes,3763 Sun City Center Blvd,,Sun City Center,FL,33573,US,27.71155357,-82.37536621,2022-11-29 17:09:09
Popeyes,8315 W Hillsborough Ave,,Tampa,FL,33615,US,27.99710083,-82.57657623,2022-11-29 17:09:44
Popeyes,26030 Euclid Ave,,Euclid,OH,44132,US,41.58884811,-81.49964142,2022-11-29 13:01:22
Popeyes,18126 Euclid Ave,,Cleveland,OH,44112,US,41.55547333,-81.55171204,2022-11-29 13:01:22
Popeyes,1878 Warrensville Center Rd,,South Euclid,OH,44118,US,41.50853348,-81.53697968,2022-11-29 13:01:22
Popeyes,13337 Euclid Ave,,Cleveland,OH,44112,US,41.52241135,-81.59085846,2022-11-29 13:01:22
Popeyes,12910 Buckeye Rd,,Cleveland,OH,44120,US,41.47958374,-81.59231567,2022-11-29 13:01:22
Popeyes,3855 Lee Rd,,Cleveland,OH,44128,US,41.45473862,-81.56454468,2022-11-29 13:01:22
Popeyes,4645 Northfield Rd,,Cleveland,OH,44128,US,41.43069458,-81.52493286,2022-11-29 13:01:22
Popeyes,7020 Carnegie Ave,,Cleveland,OH,44103,US,41.50139236,-81.64001465,2022-11-29 20:12:42
Popeyes,5581 Warrensville Center Rd,,Maple Heights,OH,44137,US,41.41093063,-81.53691101,2022-11-29 13:01:22
Popeyes,2903 Clark Ave,,Cleveland,OH,44109,US,41.46966553,-81.70166016,2022-11-29 20:12:42
Popeyes,1046 Cypress Pkwy,,Poinciana,FL,34759,US,28.14631081,-81.44458771,2022-11-29 19:16:50
Popeyes,43392 U.S. Hwy 27,,Davenport,FL,33837,US,28.22600746,-81.64684296,2022-11-29 19:16:50
Popeyes,35988 Hwy 27,Wal Mart Shop Ctr,Haines City,FL,33844,US,28.12323189,-81.64029694,2022-11-29 19:16:50
Popeyes,16530 SR 50,,Clermont,FL,34711,US,28.54576111,-81.68044281,2022-11-29 19:16:50
Popeyes,18562 Kuykendahl Rd,,Spring,TX,77379,US,30.04019356,-95.48792267,2022-11-29 18:17:18
Popeyes,6070 FM 2920,,Spring,TX,77379,US,30.07448006,-95.51844788,2022-11-29 18:17:18
Popeyes,10601 North Grand Parkway,,Spring,TX,77379,US,30.05710411,-95.57414246,2022-11-29 18:17:18
Popeyes,3136 FM 1960,,Houston,TX,77068,US,30.00004959,-95.4775238,2022-11-29 18:17:18
Popeyes,22534 Tomball Parkway,,Houston,TX,77070,US,30.01032066,-95.58794403,2022-11-29 18:17:18
Popeyes,7105 FM 1960,,Houston,TX,77069,US,29.96720695,-95.53453064,2022-11-29 18:17:18
Popeyes,1001 FM 1960 Rd W,,Houston,TX,77090,US,30.01581573,-95.4454422,2022-11-29 18:17:18
Popeyes,Bammel North Houston Road,,Houston,TX,77066,US,29.96157074,-95.49902344,2022-11-29 18:17:18
Popeyes,"24354 Kuykendahl Rd,",,"Tomball, TX",TX,77375,US,30.1144886,-95.55331421,2022-11-29 18:17:18
Popeyes,20035 I-45 North,,Spring,TX,77388,US,30.05405617,-95.43364716,2022-11-29 18:17:18
Popeyes,1959 Spring Stuebner,,Spring,TX,77389,US,30.08299637,-95.44457245,2022-11-29 18:17:18
Popeyes,1414 Graham Dr,,Tomball,TX,77375,US,30.08807373,-95.63148499,2022-11-28 16:43:36
Popeyes,202 Airtex Dr,,Houston,TX,77090,US,29.98203468,-95.4260788,2022-11-29 18:17:18
Popeyes,11240 Veterans Memorial Dr,,Houston,TX,77067,US,29.94521141,-95.46547699,2022-11-29 18:17:18
Popeyes,8120 N. Sam Houston Pkwy,,Houston,TX,77064,US,29.93010712,-95.54576874,2022-11-29 20:12:40
Popeyes,12850 Telge Road,,Cypress,TX,77429,US,29.96417046,-95.64994049,2022-11-28 15:07:13
Popeyes,3103 FM 1960 Rd W,,Humble,TX,77338,US,30.02065659,-95.3797226,2022-11-29 18:17:18
Popeyes,9707 Antoine Dr,,Houston,TX,77086,US,29.91255951,-95.48005676,2022-11-29 20:12:40
Popeyes,4510 Panther Creek Pines,"The Woodlands,",The Woodlands,TX,77381,US,30.16649246,-95.50674438,2022-11-28 16:43:36
Popeyes,32310 State Highway 249,,Pinehurst,TX,77362,US,30.13363266,-95.65302277,2022-11-28 16:43:36
Popeyes,39234 Argonaut Way,,Fremont,CA,94538,US,37.54372025,-121.986763,2022-11-29 19:16:43
Popeyes,35193 Newark Blvd,,Newark,CA,94560,US,37.54853439,-122.04634094,2022-11-29 19:16:43
Popeyes,31816 Alkvlarado Blvd,,Union City,CA,94587,US,37.59176636,-122.07106781,2022-11-29 19:16:43
Popeyes,"447 Great Mall Dr.,",Great Mall ,Milpitas,CA,95035,US,37.41589355,-121.89649963,2022-11-29 19:16:43
Popeyes,1671 N Capitol Ave,,San Jose,CA,95132,US,37.39744949,-121.8736496,2022-11-29 19:16:43
Popeyes,24901 Santa Clara St,,Hayward,CA,94544,US,37.64889908,-122.09111023,2022-11-29 19:16:43
Popeyes,802 West El Camino Real,,Sunnyvale,CA,94087,US,37.36906052,-122.04154968,2022-11-29 19:16:43
Popeyes,1790 El Camino Real,,Santa Clara,CA,95050,US,37.35206985,-121.95670319,2022-11-29 19:16:43
Popeyes,7122 Regional St,,Dublin,CA,94568,US,37.70335007,-121.93455505,2022-11-29 18:17:29
Popeyes,311 N Capitol Ave,,San Jose,CA,95133,US,37.36948013,-121.84500122,2022-11-29 18:17:29
Popeyes,17555 Hesperian Blvd,,San Lorenzo,CA,94580,US,37.67425919,-122.1240387,2022-11-29 19:16:43
Popeyes,2855 Stevens Creek Blvd,Westfield Valley Fair Mall,Santa Clara,CA,95050,US,37.32403564,-121.94646454,2022-11-29 19:16:43
Popeyes,1570 W San Carlos St.,,San Jose,CA,95126,US,37.32311249,-121.91985321,2022-11-29 19:16:43
Popeyes,740 Woodside Rd,,Redwood City,CA,94061,US,37.46736145,-122.2243042,2022-11-29 19:16:43
Popeyes,7270 Bollinger Road,,San Jose,CA,95129,US,37.31182098,-122.0318985,2022-11-29 19:16:43
Popeyes,1578 Monterey Road,,San Jose,CA,95112,US,37.31364822,-121.8703537,2022-11-29 18:17:29
Popeyes,1551 Saratoga Ave,,San Jose,CA,95129,US,37.294384,-121.98977661,2022-11-29 19:16:43
Popeyes,13808 E 14th St,,San Leandro,CA,94578,US,37.71504211,-122.14147186,2022-11-29 19:16:43
Popeyes,2301 Las Positas Rd,,Livermore,CA,94551,US,37.69738007,-121.77227783,2022-11-29 18:17:29
Popeyes,1783 E Capitol Expy,,San Jose,CA,95121,US,37.30968857,-121.81017303,2022-11-29 09:12:38
Popeyes,1000 Bald Hill Road,,Warwick,RI,02886,US,41.71278,-71.4885025,2022-11-29 19:16:53
Popeyes,77 Reservoir Ave,,Providence,RI,02907,US,41.79439545,-71.4270401,2022-11-29 19:16:45
Popeyes,1427 Hartford Avenue,,Johnston,RI,02919,US,41.82438278,-71.50003052,2022-11-29 19:16:45
Popeyes,539 Smith St,,Providence,RI,02908,US,41.8362999,-71.42919159,2022-11-29 19:16:45
Popeyes,1382 Mineral Spring Avenue,,N Providence,RI,02904,US,41.86684036,-71.4393692,2022-11-29 19:16:45
Popeyes,849 Victory Hwy,,West Greenwich,RI,02817,US,41.60898972,-71.6641922,2022-11-29 19:16:53
Popeyes,933 Pleasant St,,Fall River,MA,02723,US,41.69542313,-71.14080811,2022-11-29 19:16:53
Popeyes,13860 Smoketown Rd,,Woodbridge,VA,22192,US,38.65325165,-77.30532837,2022-11-29 07:12:54
Popeyes,2700 Potomac Mills Circle,,Woodbridge,VA,22192,US,38.64336014,-77.29618073,2022-11-29 14:19:06
Popeyes,2954 Dale Blvd,,Dale City,VA,22193,US,38.62760162,-77.30118561,2022-11-29 07:12:52
Popeyes,14420 Jefferson Davis Hwy,,Woodbridge,VA,22191,US,38.63995743,-77.26767731,2022-11-29 14:19:06
Popeyes,8971 Ox Rd Suite 250,,Lorton,VA,22079,US,38.71554565,-77.26246643,2022-11-29 14:19:06
Popeyes,6230-T Rolling Road,,Springfield,VA,22152,US,38.78089523,-77.23501587,2022-11-29 14:19:06
Popeyes,(Military Post Access Required) 8651 John J Kingman Rd,Bldg 2321,Fort Belvoir,VA,22060,US,38.72454834,-77.1503067,2022-11-29 14:19:06
Popeyes,6418 Springfield Plz,,Springfield,VA,22150,US,38.78045273,-77.18994141,2022-11-29 17:08:54
Popeyes,6733 Springfield Mall,Springfield Mall,Springfield,VA,22150,US,38.77467346,-77.17319489,2022-11-29 17:08:54
Popeyes,9581 Braddock Road,,Fairfax,VA,22032,US,38.8183403,-77.27590179,2022-11-29 14:19:06
Popeyes,8362 Centreville Rd,,Manassas,VA,20111,US,38.77500534,-77.4526825,2022-11-29 11:07:52
Popeyes,7832 Richmond Hwy,Hybla Valley Shop Center,Alexandria,VA,22306,US,38.74529266,-77.08441925,2022-11-29 17:08:54
Popeyes,7043 Little River Tpke,,Annandale,VA,22003,US,38.82904053,-77.18987274,2022-11-29 17:08:54
Popeyes,8416 Sudley Rd,,Manassas,VA,20109,US,38.77249146,-77.49957275,2022-11-29 07:12:54
Popeyes,5794 Union Mill Road,,Clifton,VA,20124,US,38.83283615,-77.41268921,2022-11-29 11:08:39
Popeyes,9661 Fairfax Blvd,,Fairfax,VA,22031,US,38.86304092,-77.2780838,2022-11-29 11:44:53
Popeyes,25 S Pickett St,,Alexandria,VA,22304,US,38.81163788,-77.1222229,2022-11-29 17:08:54
Popeyes,11938L Fair Oaks Mall,Space M-124,Fairfax,VA,22033,US,38.8628273,-77.35897827,2022-11-29 11:08:39
Popeyes,2835 Gallows Rd,,Falls Church,VA,22042,US,38.87379837,-77.2254715,2022-11-29 17:08:54
Popeyes,2725 Farmstead Way,,Suwanee,GA,30042,US,34.09148026,-84.17079163,2022-11-28 16:58:41
Popeyes,4280 Pleasant Hill Rd.,,Duluth,GA,30096,US,34.00607681,-84.17424774,2022-11-28 19:19:20
Popeyes,Nelson Brogdon Blvd (GA Hwy 20),,Buford,GA,30153,US,34.09817123,-84.01503754,2022-11-28 16:58:41
Popeyes,2925 Buford Dr Suite 1605,,Buford GA,GA,30519,US,34.0647049,-83.9841156,2022-11-28 16:58:41
Popeyes,1635 Pleasant Hill Rd,,Duluth,GA,30096,US,33.94610214,-84.1264267,2022-11-28 19:19:20
Popeyes,1050 Ridgeland Pkwy,,Alpharetta,GA,30004,US,34.12038803,-84.22325134,2022-11-28 16:58:41
Popeyes,5945 Bethelview Road,,Cumming,GA,30040,US,34.16538239,-84.17684174,2022-11-28 14:01:32
Popeyes,985 Market Place Blvd,,Cumming,GA,30041,US,34.18439102,-84.13227844,2022-11-28 14:01:32
Popeyes,290 Grayson Hwy,,Lawrenceville,GA,30046,US,33.94480133,-83.98423767,2022-11-28 16:58:41
Popeyes,2330 Ronald Reagan Pkwy,,Snellville,GA,30078,US,33.87291718,-84.0160141,2022-11-28 16:58:41
Popeyes,3189 Tucker Norcross Rd,,Tucker,GA,30084,US,33.88279724,-84.21932983,2022-11-28 19:19:20
Popeyes,4865 Stone Mountain Hwy,,Lilburn,GA,30047,US,33.8271904,-84.09694672,2022-11-28 19:19:20
Popeyes,Mountain Industrial Blvd & Greer Circle,,Stone Mountain,GA,30083,US,33.83139801,-84.19830322,2022-11-28 19:19:20
Popeyes,3896 Lavista Rd,,Tucker,GA,30084,US,33.84403992,-84.25817871,2022-11-29 20:11:58
Popeyes,3474 Winder Highway,,Flowery Branch,GA,30542,US,34.21644974,-83.86165619,2022-11-28 16:26:41
Popeyes,2767 Clairmont Rd NE,,Atlanta,GA,30329,US,33.83789825,-84.31159973,2022-11-29 20:11:58
Popeyes,17318 Spring Cypress Rd,,Cypress,TX,77429,US,29.97353745,-95.68843842,2022-11-28 15:07:13
Popeyes,9120 Barker Cypress Rd,,Cypress,TX,77433,US,29.9105835,-95.68560028,2022-11-29 08:32:20
Popeyes,8935 Highway 6 N,,Houston,TX,77095,US,29.90829659,-95.63072968,2022-11-29 20:12:40
Popeyes,18550 Northwest Fwy,,Houston,TX,77065,US,29.90009689,-95.59687042,2022-11-29 20:12:40
Popeyes,15107 FM 529 Rd,,Houston,TX,77095,US,29.87875557,-95.63500214,2022-11-29 20:12:40
Popeyes,20022 FM 2920 Rd.,"Hockley,",Hockley,TX,77447,US,30.08087349,-95.73680115,2022-11-28 19:34:16
Popeyes,714 Vann Dr,,Jackson,TN,38305,US,35.66685486,-88.84906006,2022-11-29 09:50:49
Popeyes,1921 N Highland Ave,,Jackson,TN,38305,US,35.65397644,-88.82896423,2022-11-29 09:50:49
Popeyes,200 S Royal,,Jackson,TN,38301,US,35.61310577,-88.8131485,2022-11-29 09:50:49
Popeyes,6105 Ringgold Road,,Eastridge,TN,37412,US,34.99038696,-85.2149353,2022-11-29 09:11:28
Popeyes,4428 Hwy 58,,Chattanooga,TN,37416,US,35.0838356,-85.20111847,2022-11-28 19:06:35
Popeyes,3352 Broad St,,Chattanooga,TN,37409,US,35.01566315,-85.32284546,2022-11-28 19:06:35
Popeyes,1247 N Glenwood Avenue,,Dalton,GA,30721,US,34.79322815,-84.96260834,2022-11-29 09:11:28
Popeyes,4801 Clinton Hwy,,Knoxville,TN,37912,US,36.0011673,-83.97383881,2022-11-29 11:45:09
Popeyes,6944 Maynardville Pike,,Knoxville,TN,37918,US,36.07394028,-83.9271698,2022-11-29 11:45:09
Popeyes,835 Foothills Mall Dr,,Maryville,TN,37801,US,35.75284195,-83.99674988,2022-11-29 11:45:09
Popeyes,615 N Watt Rd,,Knoxville,TN,37934,US,35.87319946,-84.23801422,2022-11-29 11:45:07
Popeyes,2071 Stringtown Road,,Grove City,OH,43123,US,39.87807846,-83.05841064,2022-11-29 14:18:15
Popeyes,3705 S. High Street,,Columbus,OH,43207,US,39.88544464,-82.99997711,2022-11-29 14:18:15
Popeyes,1480 West Broad St,,Columbus,OH,43222,US,39.95775986,-83.04003906,2022-11-29 14:18:15
Popeyes,4328 W Broad Street,,Columbus,OH,43228,US,39.95325089,-83.11658478,2022-11-29 14:18:15
Popeyes,2135 E Livingston Ave,,Columbus,OH,43209,US,39.94779205,-82.93956757,2022-11-29 14:18:15
Popeyes,1510 N. High Street,,Columbus,OH,43201,US,39.99312973,-83.00644684,2022-11-29 14:18:15
Popeyes,2297 S. Hamilton Road,,Columbus,OH,43232,US,39.92761993,-82.88024139,2022-11-29 14:18:15
Popeyes,3559 E Broad St,,Columbus,OH,43213,US,39.97245789,-82.9059906,2022-11-29 14:18:15
Popeyes,6335 Prentiss School Pl,,Canal Winchester,OH,43110,US,39.85303879,-82.83008575,2022-11-29 14:18:15
Popeyes,3461 Cleveland Ave,,Columbus,OH,43224,US,40.03894424,-82.96229553,2022-11-29 14:18:15
Popeyes,1928 Brice Rd,,Reynoldsburg,OH,43068,US,39.94057846,-82.82945251,2022-11-29 14:18:15
Popeyes,5150 Tuttle Crossing Blvd,,Dublin,OH,43016,US,40.07707596,-83.12883759,2022-11-29 14:18:15
Popeyes,1080 - Hill Rd N,,Pickerington,OH,43147-9129,US,39.90885925,-82.777565,2022-11-29 14:18:15
Popeyes,1275 E Dublin Granville Rd,,Columbus,OH,43229,US,40.0870018,-82.98365784,2022-11-29 14:18:15
Popeyes,5111 N. Hamilton Road,,Columbus,OH,43230,US,40.06034088,-82.86399841,2022-11-29 14:18:15
Popeyes,,,Dublin,OH,43016,US,40.12319565,-83.08946228,2022-11-29 14:18:15
Popeyes,940 US Highway 42 NE,,London,OH,43140,US,39.95377731,-83.37941742,2022-11-29 10:29:52
Popeyes,750 Southgate Drive,,Billings,MT,59101,US,45.75566101,-108.53791046,2022-11-29 10:29:38
Popeyes,8537 South Fwy,,Fort Worth,TX,76134,US,32.62893677,-97.32054138,2022-11-29 19:15:58
Popeyes,3100 E. Berry Street,,Fort Worth,TX,76105,US,32.7128334,-97.28099823,2022-11-29 19:15:58
Popeyes,3525 Altamesa Blvd,,Fort Worth,TX,76133,US,32.64949417,-97.36888885,2022-11-29 19:15:58
Popeyes,1011 E Pleasant Run Rd,,Desoto,TX,75115,US,32.60464859,-96.83294678,2022-11-29 19:16:06
Popeyes,7031 San Pedro Ave,,San Antonio,TX,78216,US,29.50893211,-98.49971008,2022-11-29 10:30:04
Popeyes,10131 Wurzbach Rd,,San Antonio,TX,78230,US,29.53412056,-98.55957794,2022-11-29 10:30:04
Popeyes,1472 Austin Highway,,San Antonio,TX,78209,US,29.49332428,-98.43375397,2022-11-29 10:30:04
Popeyes,18150 Blanco Rd,,San Antonio,TX,78232,US,29.60744095,-98.50773621,2022-11-29 06:31:05
Popeyes,6127 Callaghan Rd,,San Antonio,TX,78228,US,29.48885155,-98.57558441,2022-11-29 10:30:04
Popeyes,12826 IH 10 West,,San Antonio,TX,78249,US,29.56542015,-98.59277344,2022-11-29 10:30:04
Popeyes,(Military Post Access Required) 2449 Winfield Scott Rd.,"Fort Sam -Bldg 382,",San Antonio,TX,78234,US,29.44996071,-98.44982147,2022-11-29 10:30:04
Popeyes,4535 Rittiman Rd,,San Antonio,TX,78218,US,29.48441505,-98.40418243,2022-11-29 10:30:04
Popeyes,2107 Culebra Rd,,San Antonio,TX,78228,US,29.44702721,-98.54057312,2022-11-29 10:30:04
Popeyes,17718 Bulverde Road,,San Antonio,TX,78259,US,29.60302353,-98.4182663,2022-11-29 06:31:05
Popeyes,14107 Nacogdoches Rd,,San Antonio,TX,78247,US,29.57019043,-98.38316345,2022-11-29 06:31:05
Popeyes,21210 US Highway 281 N,,San Antonio,TX,78258,US,29.64073181,-98.45330811,2022-11-29 06:31:05
Popeyes,7606 Guilbeau Rd,,San Antonio,TX,78250,US,29.51882172,-98.6381073,2022-11-29 10:30:04
Popeyes,18415 Rim Dr,,San Antonio,TX,78257,US,29.6164341,-98.60475922,2022-11-29 06:31:05
Popeyes,506 S WW White Rd,,San Antonio,TX,78220,US,29.42366219,-98.40512848,2022-11-29 10:30:04
Popeyes,9102 N Loop,1604 W,San Antonio,TX,78254,US,29.55705261,-98.66166687,2022-11-29 10:30:04
Popeyes,6170 Interstate 10 E,,San Antonio,TX,78219,US,29.44319534,-98.36148834,2022-11-29 10:30:04
Popeyes,529 Fair Ave,,San Antonio,TX,78223,US,29.38453865,-98.46750641,2022-11-29 10:30:04
Popeyes,2980 Pat Booker Rd,,Universal City,TX,78148,US,29.55917168,-98.32293701,2022-11-29 06:31:05
Popeyes,8842 Potranco Rd,,San Antonio,TX,78251,US,29.4438591,-98.66055298,2022-11-29 10:30:04
Popeyes,1900 N Ventura Rd,,Oxnard,CA,93036,US,34.21952438,-119.19407654,2022-11-29 07:12:22
Popeyes,2805 Saviers Rd,,Oxnard,CA,93033,US,34.1740799,-119.17799377,2022-11-29 07:12:22
Popeyes,60 N Stephanie St,,Henderson,NV,89074,US,36.03297043,-115.0464859,2022-11-29 18:18:04
Popeyes,3541 Saint Rose Parkway,Pad D,Henderson,NV,89052,US,35.98629379,-115.14141846,2022-11-29 18:18:04
Popeyes,(Military Post Access Required) 61 Spaatz Dr.,Langley AFB,Hampton,VA,23665,US,37.07466125,-76.3600235,2022-11-29 20:12:32
Popeyes,11706 Jefferson Ave,,Newport News,VA,23606,US,37.07817841,-76.47682953,2022-11-29 20:12:32
Popeyes,13795 Warwick Blvd,,Newport News,VA,23602,US,37.12373352,-76.53089142,2022-11-29 20:12:32
Popeyes,(Military Post Access Required) Exchange Food Court,Bldg 1386 - Lee Blvd,Fort Eustis,VA,23604,US,37.15813446,-76.58039856,2022-11-29 20:12:32
Popeyes,1502 Richmond Road,,Williamsburg,VA,23185,US,37.29045486,-76.72333527,2022-11-28 16:27:14
Popeyes,3228 W Gate City Blvd.,,Greensboro,NC,27407,US,36.04162216,-79.84473419,2022-11-29 13:01:14
Popeyes,1100 E Bessemer Ave,,Greensboro,NC,27407,US,36.08488083,-79.77176666,2022-11-29 11:08:32
Popeyes,106 Pisgah Church Rd,,Greensboro,NC,27455,US,36.13405228,-79.79088593,2022-11-29 12:22:07
Popeyes,1101 NC Highway 61,,Whitsett,NC,27377,US,36.06349564,-79.56352234,2022-11-29 11:45:22
Popeyes,1323 Red Wolf Blvd,,Jonesboro,AR,72401,US,35.83016586,-90.66939545,2022-11-28 20:33:17
Popeyes,3305 Harrisburg Road,,Jonesboro,AR,72404,US,35.80424118,-90.69904327,2022-11-28 20:33:17
Popeyes,2001 W. Kingshighway,,Paragould,AR,72450,US,36.05649185,-90.51042175,2022-11-28 20:33:17
Popeyes,1379 Towne Square Blvd NW,,Roanoke,VA,24012,US,37.31901169,-79.96263885,2022-11-29 15:44:43
Popeyes,3938 Melrose Ave NW,,Roanoke,VA,24017,US,37.29510498,-80.00141144,2022-11-29 15:44:43
Popeyes,648 S Memorial Dr,,Greenville,NC,27834,US,35.61001587,-77.39363861,2022-11-29 10:29:08
Popeyes,32-78 48th Street,,Astoria,NY,11103,US,40.75394821,-73.91442871,2022-11-29 15:43:46
Popeyes,22-26 31st St,,Astoria,NY,11105,US,40.77576447,-73.91168976,2022-11-29 15:43:46
Popeyes,22 Defense St,,Annapolis,MD,21401,US,38.98402405,-76.53723907,2022-11-29 15:44:09
Popeyes,2002 Annapolis Mall Rd,Suite 180 FC10,Annapolis,MD,21401,US,38.98810959,-76.54607391,2022-11-29 15:44:09
Popeyes,98 Central Ave E,,Edgewater,MD,21037,US,38.92734909,-76.5668335,2022-11-29 15:44:09
Popeyes,566 Governor Ritchie Highway,,Severna Park,MD,21146,US,39.07590866,-76.54511261,2022-11-29 15:44:09
Popeyes,1086 State Route 3 N,,Gambrills,MD,21054,US,39.0253334,-76.69097137,2022-11-29 14:18:46
Popeyes,1111 Annapolis Road,,Odenton,MD,21113,US,39.08023834,-76.68775177,2022-11-29 15:44:07
Popeyes,15480 Annapolis Rd,,Bowie,MD,20715,US,38.98014832,-76.73434448,2022-11-29 14:18:46
Popeyes,8700 Fort Smallwood Rd,,Pasadena,MD,21122,US,39.14436722,-76.52580261,2022-11-29 15:44:09
Popeyes,1810 Crain Hwy S,,Glen Burnie,MD,21061,US,39.14097977,-76.63288116,2022-11-29 15:44:09
Popeyes,7009 Ritchie Hwy,,Glen Burnie,MD,21061,US,39.18203354,-76.61275482,2022-11-29 15:44:09
Popeyes,2612 Annapolis Rd,Severn Square Shop Ctr,Severn,MD,21144,US,39.12976456,-76.73687744,2022-11-29 15:44:07
Popeyes,12120 Central Ave,,Mitchellville,MD,20721,US,38.90081024,-76.79616547,2022-11-29 12:23:01
Popeyes,7000 Arundel Mills Cir,Arundel Mills Mall,Hanover,MD,21076,US,39.15705109,-76.72427368,2022-11-29 15:44:07
Popeyes,3388 Laurel Fort Meade Rd,,Laurel,MD,20724,US,39.09913635,-76.80904388,2022-11-29 15:44:07
Popeyes,5317 Governor Ritchie Hwy,,Brooklyn Park,MD,21225,US,39.22174454,-76.61309814,2022-11-29 15:44:09
Popeyes,8520 Washington Boulevard,,Jessup,MD,20794,US,39.14778137,-76.80703735,2022-11-29 15:44:07
Popeyes,7711 Annapolis Rd,,Lanham,MD,20706,US,38.95243073,-76.87850952,2022-11-29 12:23:01
Popeyes,6241 Washington Boulevard,,Elkridge,MD,21075,US,39.20893097,-76.72426605,2022-11-29 15:44:07
Popeyes,15006 Baltimore Ave,,Laurel,MD,20707,US,39.09672928,-76.85049438,2022-11-29 15:44:07
Popeyes,1701 Ritchie Station Court,,Capitol Heights,MD,20743,US,38.86547089,-76.85049438,2022-11-29 12:23:01
Popeyes,1153 W Main St,,League City,TX,77573,US,29.50442314,-95.10756683,2022-11-29 07:12:36
Popeyes,2585 League City Parkway,,League City,TX,77573,US,29.50292778,-95.0435257,2022-11-29 07:12:36
Popeyes,900 West FM 517,,Dickinson,TX,77539,US,29.44102287,-95.09348297,2022-11-29 07:12:36
Popeyes,2406 Bay Area Blvd,,Houston,TX,77058,US,29.57279205,-95.10864258,2022-11-29 07:12:36
Popeyes,125 El Dorado Blvd,,Webster,TX,77598,US,29.5555687,-95.1518631,2022-11-29 07:12:36
Popeyes,404 W Parkwood Ave,,Friendswood,TX,77546,US,29.50742722,-95.19104767,2022-11-29 07:12:36
Popeyes,9802 FM 1764,,Texas City,TX,77591,US,29.40219879,-95.01973724,2022-11-29 07:12:36
Popeyes,14266 Gulf Fwy,,Houston,TX,77034,US,29.59285545,-95.19267273,2022-11-29 07:12:39
Popeyes,5401 Crenshaw Road,,Pasadena,TX,77505,US,29.63917923,-95.15785217,2022-11-29 10:30:10
Popeyes,1509 W Fairmont Pkwy,,La Porte,TX,77571,US,29.65151024,-95.03472137,2022-11-29 10:30:10
Popeyes,8506 Spencer Highway,,La Porte,TX,77571,US,29.66357994,-95.10701752,2022-11-29 10:30:10
Popeyes,3315 Palmer Hwy,,Texas City,TX,77590,US,29.39485931,-94.94561005,2022-11-28 08:31:01
Popeyes,2601 S Bypass 35,,Alvin,TX,77511,US,29.40152168,-95.24104309,2022-11-28 19:34:08
Popeyes,10765 Kingspoint Rd,,Houston,TX,77075,US,29.62008476,-95.22979736,2022-11-29 07:12:39
Popeyes,3416 Broadway St,,Pearland,TX,77581,US,29.56139183,-95.27696991,2022-11-29 07:12:39
Popeyes,3430 Spencer Hwy,,Pasadena,TX,77504,US,29.66463852,-95.19063568,2022-11-29 11:08:50
Popeyes,1110 Edgebrook Dr,,Houston,TX,77034,US,29.64229965,-95.24066925,2022-11-29 11:08:50
Popeyes,1421 Center St,,Deer Park,TX,77536,US,29.69830894,-95.12334442,2022-11-29 11:08:50
Popeyes,7635 S Sam Houston Pkwy E,,Houston,TX,77075,US,29.60103989,-95.28791809,2022-11-29 07:12:39
Popeyes,212 W Southmore Ave,,Pasadena,TX,77502,US,29.69110107,-95.21370697,2022-11-29 11:08:50
Popeyes,13546 South Blackbob Road,,Olathe,KS,66062,US,38.8825264,-94.76215363,2022-11-29 18:18:08
Popeyes,10125 State Line Rd,,Kansas City,MO,64114,US,38.94396973,-94.60741425,2022-11-29 18:18:08
Popeyes,6821 Johnson Dr,,Mission,KS,66202,US,39.0220108,-94.66526031,2022-11-29 18:18:08
Popeyes,510 E North Ave,,Belton,MO,64012,US,38.81462479,-94.52423096,2022-11-29 15:43:49
Popeyes,6330 Troost Ave,,Kansas City,MO,64131,US,39.01231384,-94.57537842,2022-11-29 18:18:08
Popeyes,3102 Prospect Ave,,Kansas City,MO,64128,US,39.06955719,-94.55330658,2022-11-29 18:18:08
Popeyes,7601 Raytown Rd,,Raytown,MO,64138,US,38.98508453,-94.46403503,2022-11-29 18:18:08
Popeyes,7615 Telegraph Rd,,Taylor,MI,48180,US,42.25300217,-83.2688446,2022-11-29 18:17:50
Popeyes,Detroit Metropolitan Wayne County Airport,McNamara Terminal - Concourse A - Space 8-1,Detroit,MI,48242,US,42.21184158,-83.35554504,2022-11-29 20:11:44
Popeyes,34275 Ford Road,,Westland,MI,48185,US,42.32429123,-83.37879944,2022-11-29 18:17:50
Popeyes,11307 Telegraph Rd,,Redford,MI,48239,US,42.36899567,-83.27624512,2022-11-29 20:12:44
Popeyes,13050 Middlebelt Road,,Livonia,MI,48150,US,42.38011551,-83.33003998,2022-11-29 20:12:44
Popeyes,17700 Grand River Ave,,Detroit,MI,48227,US,42.40037537,-83.21684265,2022-11-29 20:12:44
Popeyes,14300 Livernois Ave,,Detroit,MI,48238,US,42.39314651,-83.13943481,2022-11-29 20:12:44
Popeyes,13959 Woodward Ave,,Highland Park,MI,48203,US,42.40621948,-83.09796906,2022-11-29 20:12:44
Popeyes,"20919 Eight Mile Rd,",,"Detroit, MI",MI,48219,US,42.44319534,-83.24976349,2022-11-29 20:12:44
Popeyes,2209 E 8 Mile Rd,,Warren,MI,48091,US,42.44774246,-83.07962799,2022-11-29 20:12:44
Popeyes,25910 Greenfield Rd,,Oak Park,MI,48237,US,42.48078918,-83.20147705,2022-11-29 20:12:44
Popeyes,12218 E Warren Ave,,Detroit,MI,48215,US,42.38931274,-82.97511292,2022-11-29 20:12:44
Popeyes,29177 Telegraph Rd,,Southfield,MI,48034,US,42.50280762,-83.28586578,2022-11-29 20:12:44
Popeyes,14180 Gratiot Ave,,Detroit,MI,48205,US,42.4338913,-82.97798157,2022-11-29 20:12:44
Popeyes,16701 Harper Ave,,Detroit,MI,48224,US,42.41437912,-82.94034576,2022-11-29 20:12:44
Popeyes,26681 Hoover Rd,,Warren,MI,48089,US,42.49031067,-83.00711823,2022-11-29 20:12:44
Popeyes,18592 E 9 Mile Road,,Eastpointe,MI,48021,US,42.46512604,-82.9287262,2022-11-29 20:12:44
Popeyes,908 Old Industrial Boulevard,,Mcdonough,GA,30253,US,33.42950058,-84.17928314,2022-11-29 15:44:25
Popeyes,2120 Lovejoy Road,,Lovejoy,GA,30228,US,33.44199371,-84.32289124,2022-11-29 15:44:25
Popeyes,5557 N Henry Blvd,,Stockbridge,GA,30281,US,33.55253601,-84.25895691,2022-11-28 19:20:41
Popeyes,"6185 Jonesboro Rd,",,Morrow,GA,30260,US,33.58584213,-84.33947754,2022-11-29 12:22:36
Popeyes,6553 Tara Blvd,,Jonesboro,GA,30236,US,33.57540131,-84.37266541,2022-11-29 12:22:36
Popeyes,2990 Anvil Block Road,,Ellenwood,GA,30294,US,33.63430405,-84.29170227,2022-11-29 20:11:58
Popeyes,1411 Georgia Highway 16 W,,Griffin,GA,30223,US,33.24792099,-84.28762817,2022-11-29 15:44:25
Popeyes,242 Banks Xing,,Fayetteville,GA,30214,US,33.4695816,-84.44664001,2022-11-29 15:44:25
Popeyes,6717 Highway 85,,Riverdale,GA,30274,US,33.57156754,-84.4131012,2022-11-29 12:22:36
Popeyes,1638 Highway 138 SE,,Conyers,GA,30013,US,33.64684296,-84.01254272,2022-11-28 14:17:55
Popeyes,3001 Panola Rd,,Lithonia,GA,30038,US,33.70006561,-84.1730957,2022-11-28 18:50:04
Popeyes,2665 Wesley Chapel Rd,,Decatur,GA,30034,US,33.70969391,-84.21842957,2022-11-28 19:20:41
Popeyes,6125 Old National Hwy,,College Park,GA,30349,US,33.58784103,-84.46971893,2022-11-29 12:22:36
Popeyes,2578 Candler Rd,,Decatur,GA,30032,US,33.71460724,-84.27240753,2022-11-29 20:11:58
Popeyes,6000 South Terminal Pkwy,Hartsfield-Jackson Airport Atrium,Atlanta,GA,30320,US,33.63900375,-84.42935944,2022-11-29 20:11:58
Popeyes,9700 Spine Road,Hartsfield-Jackson Airport Concourse B Gate 13,"Atlanta, GA",GA,30320,US,33.63983536,-84.43585968,2022-11-29 20:11:58
Popeyes,11700 Spine Road,Hartsfield-Jackson Airport Concourse D Gate 8,"Atlanta, GA",GA,30320,US,33.64070511,-84.44441986,2022-11-29 20:11:58
Popeyes,839 Cleveland Avenue SW,,Atlanta,GA,30315,US,33.6816597,-84.41617584,2022-11-29 20:11:58
Popeyes,1211 Moreland Ave SE,,Atlanta,GA,30316,US,33.72153854,-84.34980011,2022-11-29 20:11:58
Popeyes,3248 Highway 278,,Covington,GA,30014,US,33.60249329,-83.85528564,2022-11-28 14:17:55
Popeyes,1906 South Lakeline Blvd,,Cedar Park,TX,78613,US,30.48166847,-97.82720947,2022-11-29 20:12:26
Popeyes,10743 Crystal Falls Pkwy,,Leander,TX,78641,US,30.56506157,-97.82341766,2022-11-29 20:12:26
Popeyes,17400 FM 620,,Round Rock,TX,78681,US,30.50641632,-97.71737671,2022-11-29 20:12:26
Popeyes,1008 N Interstate 35,,Round Rock,TX,78681,US,30.51613235,-97.68933868,2022-11-29 20:12:26
Popeyes,325 University Blvd,#100A,Round Rock,TX,78665,US,30.56012726,-97.68379974,2022-11-29 20:12:26
Popeyes,1801 S A W Grimes Blvd,,Round Rock,TX,78664,US,30.49482727,-97.65585327,2022-11-29 20:12:26
Popeyes,1030 West University Avenue,,Georgetown,TX,78626,US,30.63345718,-97.69681549,2022-11-29 20:12:26
Popeyes,1702 Pecan St W,,Pflugerville,TX,78660,US,30.44773674,-97.64024353,2022-11-29 20:12:26
Popeyes,9815 N Lamar Blvd,,Austin,TX,78753,US,30.36791229,-97.69373322,2022-11-29 06:31:14
Popeyes,"1609 E Parmer Lane,",,Austin,TX,78753,US,30.3874054,-97.65035248,2022-11-29 20:12:26
Popeyes,1547 FM 685,,Pflugerville,TX,78660,US,30.45205498,-97.60370636,2022-11-29 20:12:26
Popeyes,5630 Cameron Rd,,Austin,TX,78723,US,30.31453705,-97.70355225,2022-11-29 06:31:14
Popeyes,80 Chris Kelley Blvd,,Hutto,TX,78634,US,30.5386982,-97.56378174,2022-11-29 06:31:14
Popeyes,1823 Airport BLvd,,Austin,TX,78702,US,30.28214264,-97.703125,2022-11-29 06:31:14
Popeyes,2101 W Ben White Blvd,,Austin,TX,78704,US,30.23016167,-97.79051208,2022-11-29 06:31:14
Popeyes,2320 E Riverside Dr,,Austin,TX,78741,US,30.23763275,-97.72525024,2022-11-29 06:31:14
Popeyes,1343 S Gilbert Rd,,Mesa,AZ,85204,US,33.39056778,-111.78768921,2022-11-29 12:23:49
Popeyes,2850 South Alma School Road,,Chandler,AZ,85286,US,33.26425171,-111.85923004,2022-11-29 09:12:21
Popeyes,"1661 N Higley Rd Gilbert, AZ 85234.",,Gilbert,AZ,85234,US,33.3803978,-111.72186279,2022-11-29 12:23:49
Popeyes,1999 East Pecos Road,,Gilbert,AZ,85295,US,33.29415512,-111.74723053,2022-11-29 09:12:21
Popeyes,4170 S Gilbert Rd,,Chandler,AZ,85249,US,33.24526215,-111.79013824,2022-11-29 09:12:21
Popeyes,5329 South Power Road,,Mesa,AZ,85212,US,33.3192482,-111.68627167,2022-11-29 09:12:30
Popeyes,8030 Greenback Ln,,Citrus Heights,CA,95610,US,38.6781311,-121.26534271,2022-11-29 09:12:54
Popeyes,1100 Douglas Blvd,,Roseville,CA,95678,US,38.74380875,-121.27522278,2022-11-29 09:12:54
Popeyes,2817 Zinfandel Drive,,Rancho Cordova,CA,95670,US,38.59513092,-121.28783417,2022-11-29 09:12:54
Popeyes,6502 Antelope Rd,,Citrus Heights,CA,95621,US,38.70700455,-121.31297302,2022-11-29 09:12:54
Popeyes,5301 Auburn Blvd,,Sacramento,CA,95841,US,38.66624069,-121.34101868,2022-11-29 09:12:54
Popeyes,6631 Watt Ave,,North Highlands,CA,95660,US,38.68821335,-121.38328552,2022-11-29 09:12:54
Popeyes,3501 El Camino Avenue,,Sacramento,CA,95821,US,38.61079025,-121.38254547,2022-11-29 09:12:54
Popeyes,901 El Camino Ave,,Sacramento,CA,95815,US,38.61144257,-121.44592285,2022-11-29 09:12:54
Popeyes,5064 Stockton Blvd.,,Sacramento,CA,95820,US,38.52985764,-121.44483948,2022-11-29 09:12:54
Popeyes,1500 West El Camino,Unit 1,"Sacramento, CA",CA,95833,US,38.6125412,-121.49465179,2022-11-29 09:12:54
Popeyes,7229 Stockton Blvd,,Sacramento,CA,95823,US,38.4948349,-121.42797852,2022-11-29 09:12:54
Popeyes,7501 W Stockton Blvd,,Sacramento,CA,95823,US,38.45561218,-121.41590881,2022-11-29 09:12:54
Popeyes,4554 Mack Road,,Sacramento,CA,95823,US,38.47375488,-121.44884491,2022-11-29 09:12:54
Popeyes,9685 E Stockton Blvd,,Elk Grove,CA,95624,US,38.40616608,-121.38567352,2022-11-29 09:12:54
Popeyes,2655 Richmond Avenue,,Staten Island,NY,10314,US,40.58174133,-74.165802,2022-11-29 11:08:13
Popeyes,Forest Ave,,Staten Island,NY,10303,US,40.62767029,-74.16716766,2022-11-29 18:18:01
Popeyes,1351 Forest Ave,,Staten Island,NY,10302,US,40.62660217,-74.13557434,2022-11-29 11:08:13
Popeyes,2506 Hylan Boulevard,,Staten Island,NY,10306,US,40.56985855,-74.10933685,2022-11-29 11:08:13
Popeyes,651 Kapkowski Rd,Jersey Gardens Mall Food Court,Elizabeth,NJ,07201,US,40.66033936,-74.17146301,2022-11-29 18:18:01
Popeyes,804 Bayonne Crossing Way,,Bayonne,NJ,07002,US,40.6603775,-74.10900879,2022-11-29 11:08:13
Popeyes,868 C E Grand Street,,Elizabeth,NJ,07201,US,40.66398621,-74.2012558,2022-11-29 18:18:01
Popeyes,1857 US Highway 1,,Rahway,NJ,07065,US,40.60553741,-74.26218414,2022-11-29 18:18:01
Popeyes,117 Broad St,,Elizabeth,NJ,07201,US,40.66589737,-74.2146225,2022-11-29 18:18:01
Popeyes,1190 E Saint Georges Ave,,Linden,NJ,07036,US,40.64694214,-74.24874878,2022-11-29 18:18:01
Popeyes,"Mile Marker 92.9, NJ Turnpike North",Grover Cleveland Travel Plaza,Woodbridge,NJ,07095,US,40.55989838,-74.26454926,2022-11-29 18:18:01
Popeyes,2-36 Garfield Avenue,,Jersey City,NJ,07305,US,40.68555832,-74.0983963,2022-11-29 11:08:13
Popeyes,8514 5th Ave,,Brooklyn,NY,11209,US,40.62194061,-74.02614594,2022-11-29 20:11:54
Popeyes,867 Frelinghuysen Ave,,Newark,NJ,07114,US,40.69231796,-74.20192719,2022-11-29 18:18:01
Popeyes,889 St Georges Ave,,Woodbridge Township,NJ,07095,US,40.56867981,-74.29412842,2022-11-29 18:18:01
Popeyes,7123 Fort Hamilton Pkwy,,Brooklyn,NY,11228,US,40.6271553,-74.01390839,2022-11-29 20:11:54
Popeyes,6013 7th Ave,,Brooklyn,NY,11220,US,40.63618088,-74.01203918,2022-11-29 20:11:54
Popeyes,1318 Liberty Ave,,Hillside,NJ,07205,US,40.69874954,-74.23262787,2022-11-29 18:18:01
Popeyes,2010 86th St,,Brooklyn,NY,11214,US,40.60427856,-73.99812317,2022-11-29 20:11:54
Popeyes,306 Elizabeth Avenue,,Newark,NJ,07112,US,40.71251297,-74.19392395,2022-11-29 18:18:01
Popeyes,275 Broadway,,Brooklyn,NY,11211,US,40.70891571,-73.95871735,2022-11-29 19:15:51
Popeyes,259 Vandervoot Avenue,,Brooklyn,NY,11211,US,40.71458054,-73.93385315,2022-11-29 19:15:51
Popeyes,914 Jefferson St,,Nashville,TN,37208,US,36.17301178,-86.79362488,2022-11-29 13:00:06
Popeyes,3012 Gallatin Pike,,Nashville,TN,37216,US,36.20410538,-86.73780823,2022-11-29 13:00:06
Popeyes,433 Opry Mills Dr,Opry Mills Mall,Nashville,TN,37214,US,36.20226669,-86.69291687,2022-11-29 13:00:06
Popeyes,6403 Charlotte Pike,,Nashville,TN,37209,US,36.14354706,-86.87321472,2022-11-29 13:00:06
Popeyes,735 Myatt Dr,,Madison,TN,37115,US,36.29596329,-86.69777679,2022-11-29 13:00:06
Popeyes,1000 Callender Lane,,Hendersonville,TN,37075,US,36.3139534,-86.59220123,2022-11-29 06:31:03
Popeyes,133 Hutton Place,,Ashland City,TN,37015,US,36.25058746,-87.03453827,2022-11-29 13:00:06
Popeyes,7064 US 72,,Huntsville,AL,35806,US,34.75497437,-86.71099854,2022-11-29 19:16:17
Popeyes,(Military Post Access Required) 3220 Acton Dr,Redstone Arsenal,Huntsville,AL,35898,US,34.69590378,-86.63188934,2022-11-29 19:16:17
Popeyes,3820 University Dr NW,,Huntsville,AL,35816,US,34.7356987,-86.62682343,2022-11-29 19:16:17
Popeyes,3234 N Memorial Parkway,,Huntsville,AL,35810,US,34.76819611,-86.58634949,2022-11-29 19:16:17
Popeyes,"550 US Hwy 72 West,",,Athens,AL,35611,US,34.79051208,-86.97496796,2022-11-28 14:00:56
Popeyes,1827 Beltline Rd SW,,Decatur,AL,35601,US,34.57515335,-87.01744843,2022-11-29 17:09:31
Popeyes,10300 Southside Blvd #3040A,The Avenues Mall,Jacksonville,FL,32256,US,30.1858387,-81.55409241,2022-11-29 18:18:06
Popeyes,10132 San Jose Blvd,,Jacksonville,FL,32257,US,30.19425583,-81.62475586,2022-11-29 18:18:06
Popeyes,4108 University Blvd S,,Jacksonville,FL,32216,US,30.28229523,-81.60314178,2022-11-29 20:12:30
Popeyes,7507 Atlantic Blvd,,Jacksonville,FL,32211,US,30.31381035,-81.57875061,2022-11-29 20:12:30
Popeyes,1509 University Blvd N,,Jacksonville,FL,32211,US,30.33608627,-81.60232544,2022-11-29 20:12:30
Popeyes,9309 Merrill Rd,,Jacksonville,FL,32225,US,30.35300636,-81.5454483,2022-11-29 20:12:30
Popeyes,1650 County Road 210 W,,Jacksonville,FL,32259,US,30.06629372,-81.49634552,2022-11-29 18:18:06
Popeyes,1902 N Main St,,Jacksonville,FL,32206,US,30.347332,-81.65416718,2022-11-29 20:12:30
Popeyes,6310 103rd St,,Jacksonville,FL,32210,US,30.24810791,-81.74567413,2022-11-29 14:18:44
Popeyes,649 McDuff Ave S,,Jacksonville,FL,32205,US,30.32006645,-81.70509338,2022-11-29 20:12:30
Popeyes,430 Blanding Blvd,,Orange Park,FL,32073,US,30.16202164,-81.74791718,2022-11-29 14:18:44
Popeyes,1833 Kings Rd,,Jacksonville,FL,32209,US,30.34555244,-81.6872406,2022-11-29 20:12:30
Popeyes,524 Atlantic Blvd,,Neptune Beach,FL,32266,US,30.32422066,-81.40142822,2022-11-29 18:18:06
Popeyes,7762 Argyle Forest Boulevard,,Jacksonville,FL,32244,US,30.19571877,-81.7753067,2022-11-29 14:18:44
Popeyes,5715 Normandy Blvd,,Jacksonville,FL,32205,US,30.30806351,-81.74632263,2022-11-29 20:12:30
Popeyes,656 Edgewood Ave N,,Jacksonville,FL,32254,US,30.32910347,-81.73132324,2022-11-29 20:12:30
Popeyes,7606 Lem Turner Rd,,Jacksonville,FL,32208,US,30.38856888,-81.6780777,2022-11-29 20:12:30
Popeyes,2143 Edgewood Ave W,,Jacksonville,FL,32209,US,30.38002968,-81.6964035,2022-11-29 20:12:30
Popeyes,8007 Normandy Blvd,,Jacksonville,FL,32221,US,30.29280853,-81.78163147,2022-11-29 20:12:30
Popeyes,9144 103rd Street,,Jacksonville,FL,32210,US,30.24777794,-81.80672455,2022-11-29 14:18:44
Popeyes,2801 N Highway 190,,Covington,LA,70433,US,30.47059822,-90.08672333,2022-11-28 18:17:31
Popeyes,68182 Highway 59,,Mandeville,LA,70471,US,30.41867447,-90.04014587,2022-11-28 18:17:31
Popeyes,701 N Causeway Blvd,,Mandeville,LA,70448,US,30.37585449,-90.09131622,2022-11-28 18:17:31
Popeyes,43103 S Airport Rd,,Hammond,LA,70403,US,30.48200989,-90.41506195,2022-11-29 11:07:44
Popeyes,184 Hwy 190,,Slidell,LA,70458,US,30.28792953,-89.78160858,2022-11-28 18:17:31
Popeyes,5988 Rivers Ave,,North Charleston,SC,29406,US,32.90482712,-80.01999664,2022-11-28 19:32:48
Popeyes,135 St James Ave,,Goose Creek,SC,29445,US,33.00059891,-80.04169464,2022-11-28 19:32:48
Popeyes,8427 Dorchester Rd,,North Charleston,SC,29420,US,32.91451263,-80.10938263,2022-11-28 19:32:48
Popeyes,109 Parkway Avenue,,Summerville,SC,29483,US,33.02283478,-80.16732788,2022-11-28 19:32:48
Popeyes,460 N U.S. Hwy 52,,Moncks Corner,SC,29461,US,33.20680618,-79.98482513,2022-11-28 19:32:48
Popeyes,2402 East 38th Street,,Indianapolis,IN,46218,US,39.82575607,-86.12132263,2022-11-29 18:17:26
Popeyes,6161 East 82nd Street,,Indianapolis,IN,46250,US,39.9048233,-86.06084442,2022-11-29 15:44:21
Popeyes,7615 Pendleton Pike,,Indianapolis,IN,46226,US,39.83353424,-86.03210449,2022-11-29 18:17:26
Popeyes,3128 E Washington St,,Indianapolis,IN,46201,US,39.76903152,-86.1108017,2022-11-29 18:17:26
Popeyes,3633 W 86th St,,Indianapolis,IN,46268,US,39.91121674,-86.22356415,2022-11-29 15:44:21
Popeyes,3021 W 16th St,,Indianapolis,IN,46222,US,39.78755951,-86.20886993,2022-11-29 18:17:26
Popeyes,625 E Carmel Dr,,Carmel,IN,46032,US,39.96166229,-86.1159668,2022-11-29 15:44:21
Popeyes,10087 East Washington Street,,Indianapolis,IN,46229,US,39.77453232,-85.98854828,2022-11-29 18:17:26
Popeyes,2902 Madison Ave,,Indianapolis,IN,46225,US,39.72401047,-86.15163422,2022-11-29 18:17:26
Popeyes,9403 Ambleside Drive,,Fishers,IN,46038,US,39.97943878,-86.00106049,2022-11-29 15:44:21
Popeyes,5930 Whitestown Pkwy,,Whitestown,IN,46075,US,39.94794464,-86.3567276,2022-11-29 15:44:21
Popeyes,9302 East Highway 36,,Avon,IN,46123,US,39.76404953,-86.35643768,2022-11-29 18:17:26
Popeyes,5020 E County Line Rd,,Indianapolis,IN,46237,US,39.63698196,-86.08325195,2022-11-29 18:17:26
Popeyes,270 N State Rd 135,,Greenwood,IN,46142,US,39.61948395,-86.15903473,2022-11-29 18:17:26
Popeyes,2304 E Main St,,Plainfield,IN,46168,US,39.71278381,-86.37094879,2022-11-29 18:17:26
Popeyes,1981 North State Street,,Greenfield,IN,46140,US,39.81287003,-85.76902008,2022-11-29 18:17:26
Popeyes,6622 W Fullerton Ave,,Chicago,IL,60707,US,41.92403793,-87.79162598,2022-11-29 14:19:13
Popeyes,1959 W Howard St,,Chicago,IL,60626,US,42.01920319,-87.67987823,2022-11-29 14:19:13
Popeyes,4142 N Harlem Ave,,Norridge,IL,60706,US,41.95467758,-87.80947113,2022-11-29 14:19:13
Popeyes,5353 N Harlem Ave,,Chicago,IL,60656,US,41.97868347,-87.80672455,2022-11-29 14:19:13
Popeyes,1886 Revere Beach Pkwy,,Everett,MA,02149,US,42.4023819,-71.05004883,2022-11-29 18:17:31
Popeyes,Northeastern University,360 Huntington Ave,Boston,MA,02115,US,42.33946228,-71.08853149,2022-11-29 20:12:52
Popeyes,330 Martin Luther King Blvd,,Roxbury,MA,02119,US,42.31856537,-71.08290863,2022-11-29 20:12:52
Popeyes,710 American Legion Hwy,,Roslindale,MA,02131,US,42.28294754,-71.11281586,2022-11-29 20:12:52
Popeyes,180 Boston Street,,Lynn,MA,01904,US,42.47142029,-70.95855713,2022-11-29 18:17:31
Popeyes,502 Southern Artery,,Quincy,MA,02169,US,42.25397873,-70.99455261,2022-11-29 20:12:52
Popeyes,250 Granite Street,,Braintree,MA,02184,US,42.22227859,-71.02420807,2022-11-29 20:12:52
Popeyes,1630 VFW Parkway,,West Roxbury,MA,02132,US,42.26503754,-71.16766357,2022-11-29 20:12:52
Popeyes,84 Mazzeo Street,,Randolph,MA,02368,US,42.16224289,-71.06056213,2022-11-29 20:12:52
Popeyes,200 Westgate Drive,Westgate Mall & Plaza Unit E-119,Brockton,MA,02301,US,42.09241867,-71.05258179,2022-11-29 20:12:52
Popeyes,85 Parkhurst Rd,,Chelmsford,MA,01824,US,42.62578964,-71.359375,2022-11-29 20:12:07
Popeyes,3450 Wrightsboro Rd,Augusta Mall,Augusta,GA,30909,US,33.46362305,-82.07880402,2022-11-28 20:34:08
Popeyes,2802 Wrightsboro Rd,,Augusta,GA,30909,US,33.46859741,-82.03257751,2022-11-28 20:34:08
Popeyes,431 S Belair Rd,,Martinez,GA,30907,US,33.48421097,-82.13287354,2022-11-28 20:34:08
Popeyes,3209 Deans Bridge Rd,,Augusta,GA,30906,US,33.42184067,-82.06417084,2022-11-28 20:34:08
Popeyes,450 Walton Way,,Augusta,GA,30901,US,33.46549988,-81.96232605,2022-11-28 20:34:08
Popeyes,(Military Post Access Required) 3rd Ave,,Fort Gordon,GA,30905,US,33.40797043,-82.13532257,2022-11-28 20:34:08
Popeyes,2491 Tobacco Road,,Hephzibah,GA,30815,US,33.37707138,-82.0704422,2022-11-28 20:34:08
Popeyes,422 Lewiston Rd,,Grovetown,GA,30813,US,33.49131012,-82.1986084,2022-11-28 20:34:08
Popeyes,21100 Dulles Town Cir,Dulles Town Center Mall,Dulles,VA,20166,US,39.03245163,-77.42388916,2022-11-29 11:08:39
Popeyes,358 Elden St,,Herndon,VA,20170,US,38.96837616,-77.3742981,2022-11-29 11:08:39
Popeyes,3075 Centreville Rd,,Herndon,VA,20171,US,38.92199707,-77.41697693,2022-11-29 11:08:39
Popeyes,44061 Ashburn Shopping Plz,,Ashburn,VA,20147,US,39.04343033,-77.4755249,2022-11-29 11:08:39
Popeyes,12218 Leesburg Pike,,Herndon,VA,20170,US,39.01468658,-77.37068176,2022-11-29 11:08:39
Popeyes,11850 Sunrise Valley Dr,,Reston,VA,20191,US,38.94789124,-77.35752106,2022-11-29 11:08:39
Popeyes,24431 Stone Springs Boulevard,,Dulles,VA,20166,US,38.94204712,-77.54443359,2022-11-29 11:08:39
Popeyes,13051 Lee Jackson Memorial Hwy,,Fairfax,VA,22033,US,38.88050842,-77.39762878,2022-11-29 11:08:39
Popeyes,5131 Westfields Blvd,,Centreville,VA,20120,US,38.86832428,-77.44773102,2022-11-29 11:08:39
Popeyes,"520 Compass Point Plaza SE,","Leesburg, NV 20175",Leesburg,VA,20175,US,39.08472824,-77.56255341,2022-11-29 11:08:39
Popeyes,515 E Market St,,Leesburg,VA,20176,US,39.10885239,-77.55313873,2022-11-29 11:08:39
Popeyes,325 Maple Ave E,,Vienna,VA,22180,US,38.90467072,-77.2591095,2022-11-29 11:44:53
Popeyes,18074 Mateny Rd,,Germantown,MD,20874,US,39.14748001,-77.272789,2022-11-29 11:08:39
Popeyes,5950 Park Blvd N,,Pinellas Park,FL,33781,US,27.8388195,-82.71511078,2022-11-29 14:19:03
Popeyes,8700 Ulmerton Rd,,Largo,FL,33771,US,27.89386177,-82.75936127,2022-11-29 14:19:03
Popeyes,600 34th Street North,,St. Petersburg,FL,33713,US,27.77855492,-82.67980957,2022-11-29 17:09:09
Popeyes,1285 S Missouri Ave,,Clearwater,FL,33756,US,27.95198631,-82.78716278,2022-11-29 17:09:44
Popeyes,28014 Wesley Chapel Blvd,,Wesley Chapel,FL,33543,US,28.23602295,-82.3527298,2022-11-29 17:09:44
Popeyes,6904 N Dysart Rd,,Glendale,AZ,85307,US,33.53557587,-112.34151459,2022-11-29 14:18:10
Popeyes,(Military Post Access Required) 7071 N 138th Ave,Building 1540,Glendale,AZ,85307,US,33.53885651,-112.35520172,2022-11-29 14:18:10
Popeyes,16411 West Bell Road,,Surprise,AZ,85374,US,33.63819122,-112.41179657,2022-11-29 14:18:10
Popeyes,9915 West Lower Buckeye Road,,Tolleson,AZ,85353,US,33.42051697,-112.27349091,2022-11-29 14:18:10
Popeyes,1860 North Pebble Creek Parkway,,Goodyear,AZ,85395,US,33.46759033,-112.39317322,2022-11-29 14:18:10
Popeyes,8035 Forest Ln,,Dallas,TX,75243,US,32.90970993,-96.76683807,2022-11-29 19:16:06
Popeyes,3561 Forest Ln,,Dallas,TX,75234,US,32.91007996,-96.85978699,2022-11-29 19:16:06
Popeyes,4140 Merle Hay Rd,,Des Moines,IA,50310,US,41.63630295,-93.69825745,2022-11-29 11:45:06
Popeyes,6230 SE 14th St,,Des Moines,IA,50320,US,41.52812576,-93.59786987,2022-11-29 11:45:06
Popeyes,3831 8th St SW,,Altoona,IA,50009,US,41.64473724,-93.50830078,2022-11-29 11:45:06
Popeyes,162 NJ-4,,Paramus,NJ,07652,US,40.92433167,-74.08641815,2022-11-29 19:17:02
Popeyes,282 E State Rt 4,,Paramus,NJ,07652,US,40.91389465,-74.04801941,2022-11-29 19:17:02
Popeyes,786 N State Rt 17,,Paramus,NJ,07652,US,40.97357178,-74.08047485,2022-11-29 19:17:02
Popeyes,Popeyes - 11 US Highway 46,,Lodi,NJ,07644,US,40.88609695,-74.08987427,2022-11-29 19:17:02
Popeyes,345 Essex St,,Hackensack,NJ,07601,US,40.88307571,-74.05804443,2022-11-29 19:17:02
Popeyes,1307 Teaneck Rd,,Teaneck,NJ,07666,US,40.89707184,-74.00028992,2022-11-29 19:17:03
Popeyes,237 Market St,,Paterson,NJ,07505,US,40.91607666,-74.1679306,2022-11-29 19:17:02
Popeyes,831 Main Ave,,Passaic,NJ,07055,US,40.86575699,-74.13091278,2022-11-29 19:17:03
Popeyes,146 US Highway 46,,Little Ferry,NJ,07643,US,40.85322952,-74.03656769,2022-11-29 19:17:03
Popeyes,438 Haledon Avenue,,Haledon,NJ,07508,US,40.93878555,-74.18251801,2022-11-29 19:17:02
Popeyes,104 Meadow Rd,,Rutherford,NJ,07070,US,40.82230759,-74.10089874,2022-11-29 19:17:03
Popeyes,"Vince Lombardi Travel Center,","NJ Turnpike, Mile Marker 116",Ridgefield,NJ,07657,US,40.82299423,-74.02993011,2022-11-29 19:17:03
Popeyes,300 Washington Ave,,Carlstadt,NJ,07072,US,40.8180275,-74.06651306,2022-11-29 19:17:03
Popeyes,16 Main Ave,,Clifton,NJ,07014,US,40.82876587,-74.14431763,2022-11-29 19:17:03
Popeyes,75 Andrews Drive,,Woodland Park,NJ,07424,US,40.88694,-74.2148819,2022-11-29 19:17:02
Popeyes,1 American Dream Way,Washington & S Connection,Carlstadt,NJ,07072,US,40.80963898,-74.06861877,2022-11-29 11:08:21
Popeyes,175 Dyckman Street,,New York,NY,10040,US,40.86414719,-73.92601776,2022-11-29 13:01:03
Popeyes,53 S Broadway,,Yonkers,NY,10701,US,40.93196106,-73.8992157,2022-11-29 18:18:18
Popeyes,8701 Tonnelle Avenue,,North Bergen,NJ,07047,US,40.81135178,-74.01289368,2022-11-29 11:08:21
Popeyes,1046 Hamburg Tpke,,Wayne,NJ,07470,US,40.96037674,-74.23688507,2022-11-29 19:17:02
Popeyes,2422 S Texas Ave College Station,,College Station,TX,77840,US,30.60744286,-96.3123703,2022-11-27 19:28:33
Popeyes,505 N Harvey Mitchell Pkwy,,Bryan,TX,77807,US,30.63155556,-96.37817383,2022-11-27 19:28:33
Popeyes,890 N Earl Rudder Fwy,,Bryan,TX,77802,US,30.67162323,-96.33607483,2022-11-27 19:28:33
Popeyes,9319 Highway 90 S,,Navasota,TX,77868,US,30.39677811,-96.06988525,2022-11-28 12:39:58
Popeyes,1324 Dunn Ave,,Jacksonville,FL,32218,US,30.42947197,-81.66850281,2022-11-29 20:12:30
Popeyes,45 Duval Station Rd,,Jacksonville,FL,32218,US,30.4900341,-81.62373352,2022-11-29 20:12:30
Popeyes,5581 Soutel Dr,,Jacksonville,FL,32219,US,30.38767242,-81.7332077,2022-11-29 20:12:30
Popeyes,450047 State Road 200,,Callahan,FL,32011,US,30.56661224,-81.82775116,2022-11-29 20:12:30
Popeyes,2000 Towne Centre Dr,,Mesquite,TX,75150,US,32.7986412,-96.63275146,2022-11-29 07:12:06
Popeyes,5724 Broadway Blvd,,Garland,TX,75043,US,32.84563065,-96.59508514,2022-11-28 18:17:39
Popeyes,8120 E R L Thornton Fwy,,Dallas,TX,75228,US,32.79316711,-96.70111847,2022-11-29 19:16:06
Popeyes,3040 Broadway Blvd,,Garland,TX,75041,US,32.87995148,-96.62208557,2022-11-28 18:17:39
Popeyes,11360 E Northwest Hwy,,Dallas,TX,75238,US,32.86372375,-96.68356323,2022-11-29 19:16:06
Popeyes,9540 Lake June Rd,,Dallas,TX,75217,US,32.73361588,-96.65750885,2022-11-29 19:16:06
Popeyes,11850 Elam Rd,,Balch Springs,TX,75180,US,32.71879959,-96.6230011,2022-11-29 07:12:03
Popeyes,5251 Rowlett Rd,,Rowlett,TX,75088,US,32.90655136,-96.56997681,2022-11-28 18:17:39
Popeyes,4700 Ross Ave,,Dallas,TX,75204,US,32.80497742,-96.77723694,2022-11-29 19:16:06
Popeyes,2535 Ridge Rd,,Rockwall,TX,75087,US,32.89973068,-96.46780396,2022-11-28 18:17:39
Popeyes,212 Continental Ave,,Dallas,TX,75207,US,32.78343201,-96.81439209,2022-11-29 19:16:06
Popeyes,630 S R L Thornton Fwy,,Dallas,TX,75203,US,32.74499893,-96.81182098,2022-11-29 19:16:06
Popeyes,6502 Lemmon Ave,,Dallas,TX,75209,US,32.83694077,-96.83157349,2022-11-29 19:16:06
Popeyes,1031 S. I-45 Service Road,,Hutchins,TX,75141,US,32.63317108,-96.70098877,2022-11-29 19:16:06
Popeyes,3635 W Northwest Hwy,,Dallas,TX,75220,US,32.86043167,-96.8589859,2022-11-29 19:16:06
Popeyes,9036 Eastchase Parkway,,Montgomery,AL,36117,US,32.36283493,-86.1394043,2022-11-29 14:18:49
Popeyes,2797 Eastern Blvd,,Montgomery,AL,36117,US,32.34426498,-86.22270203,2022-11-29 14:18:49
Popeyes,876 North East Blvd,,Montgomery,AL,36117,US,32.40668488,-86.21443939,2022-11-29 14:18:49
Popeyes,832 Ann St,,Montgomery,AL,36107,US,32.37041092,-86.27138519,2022-11-29 14:18:49
Popeyes,East South Blvd.,Capital Plaza,Montgomery,AL,36116,US,32.32659531,-86.2668457,2022-11-29 14:18:49
Popeyes,955 W South Blvd,,Montgomery,AL,36105,US,32.32585907,-86.33029938,2022-11-29 14:18:49
Popeyes,4900 US Hwy 231 Wetumpka,,Wetumpka,AL,36092,US,32.51034164,-86.21309662,2022-11-29 14:18:49
Popeyes,(Military Post Access Required) 355 S Kelly St,,Montgomery,AL,36112,US,32.37467194,-86.35447693,2022-11-29 14:18:49
Popeyes,375 Main Street,,Shorter,AL,36075,US,32.40342712,-85.95467377,2022-11-28 19:19:15
Popeyes,1723 E Main St,,Prattville,AL,36066,US,32.46093369,-86.42462158,2022-11-29 14:18:49
Popeyes,Hwy 14 & I-65,,Millbrook,AL,36054,US,32.49323654,-86.40512848,2022-11-29 14:18:49
Popeyes,2115 W Evans St,,Florence,SC,29501,US,34.19163895,-79.81027985,2022-11-28 15:38:14
Popeyes,2301 W Lucas St,,Florence,SC,29501,US,34.23638153,-79.80635834,2022-11-28 15:38:14
Popeyes,2850 National Ave,,San Diego,CA,92113,US,32.69631958,-117.1325531,2022-11-29 20:13:07
Popeyes,2810 El Cajon Blvd,,San Diego,CA,92104,US,32.75577545,-117.13341522,2022-11-29 20:13:07
Popeyes,3194 - Midway Dr,Suite 100,San Diego,CA,92110,US,32.75054169,-117.20891571,2022-11-29 20:13:07
Popeyes,1561 Euclid Ave,,San Diego,CA,92105,US,32.72116089,-117.08457947,2022-11-29 20:13:07
Popeyes,2100 Highland Avenue,,National City,CA,91950,US,32.66661072,-117.09450531,2022-11-29 20:13:07
Popeyes,2210 E Plaza Blvd,,National City,CA,91950,US,32.67783356,-117.08260345,2022-11-29 20:13:07
Popeyes,6095 El Cajon Blvd,,San Diego,CA,92115,US,32.76151657,-117.06613159,2022-11-29 20:13:07
Popeyes,4020 Convoy St,,San Diego,CA,92111,US,32.81616211,-117.15510559,2022-11-29 20:13:07
Popeyes,3489 Santo Rd,,San Diego,CA,92124,US,32.8093338,-117.1048584,2022-11-29 20:13:07
Popeyes,3065 Lemon Grove Avenue,,Lemon Grove,CA,91945,US,32.73920822,-117.03044128,2022-11-29 20:13:07
Popeyes,1525 Palm Ave,16th St,San Diego,CA,92154,US,32.58341599,-117.10071564,2022-11-29 12:23:12
Popeyes,"3295 Palm Ave.,",,San Diego,CA,92154,US,32.58342361,-117.06261444,2022-11-29 12:23:12
Popeyes,4310 Camino De La Plaza H-1,,San Diego,CA,92173,US,32.54571533,-117.03973389,2022-11-29 06:30:22
Popeyes,9045 Mira Mesa Blvd,,San Diego,CA,92126,US,32.91577911,-117.12980652,2022-11-29 20:13:07
Popeyes,110 Jamacha Rd,,El Cajon,CA,92019,US,32.79437637,-116.9361496,2022-11-29 20:13:07
Popeyes,5753 Fairburn Rd,,Douglasville,GA,30134,US,33.75177002,-84.72245026,2022-11-29 18:17:13
Popeyes,610 Cascade Ave SW,,Atlanta,GA,30310,US,33.73827744,-84.43447876,2022-11-29 20:11:58
Popeyes,9541 Highway 5,,Douglasville,GA,30135,US,33.72399902,-84.76289368,2022-11-29 18:17:13
Popeyes,515 Lee St SW,,Atlanta,GA,30310,US,33.74090576,-84.41449738,2022-11-29 20:11:58
Popeyes,683 Boulevard NE,,Atlanta,GA,30308,US,33.77321243,-84.37075806,2022-11-29 20:11:58
Popeyes,1100 S Hayes St - Space M108,The Fashion Center-Pentagon City Mall,Arlington,VA,22202,US,38.86327362,-77.06058502,2022-11-29 20:12:14
Popeyes,3402 Mount Vernon Ave,,Alexandria,VA,22305,US,38.8357811,-77.06123352,2022-11-29 17:08:54
Popeyes,4241 N Pershing Dr,,Arlington,VA,22203,US,38.8734169,-77.1064682,2022-11-29 20:12:14
Popeyes,4675 King St,,Arlington,VA,22206,US,38.842453,-77.10796356,2022-11-29 17:08:54
Popeyes,601 Malcolm X Ave SE,,Washington,DC,20032,US,38.84489441,-76.99710083,2022-11-29 17:08:54
Popeyes,5007 Columbia Pike,,Arlington,VA,22204,US,38.85613251,-77.11316681,2022-11-29 17:08:54
Popeyes,1322 14th St NW,,Washington,DC,20005,US,38.90802383,-77.03232574,2022-11-29 20:12:14
Popeyes,5151 Indian Head Hwy,,Oxon Hill,MD,20745,US,38.81888962,-77.00067902,2022-11-29 17:08:54
Popeyes,1226 H St NE,,Washington,DC,20002,US,38.90037918,-76.98922729,2022-11-29 20:12:14
Popeyes,1742 Columbia Road NW,,Washington,DC,20009,US,38.9239006,-77.04039764,2022-11-29 20:12:14
Popeyes,6247 Livingston Rd,,Oxon Hill,MD,20745,US,38.80503464,-76.99087524,2022-11-29 17:08:54
Popeyes,6134 Arlington Blvd,,Falls Church,VA,22044,US,38.86888123,-77.14571381,2022-11-29 20:12:14
Popeyes,2024 Concessions Pentagon,,Washington,DC,20310-2024,US,38.92461014,-77.01348114,2022-11-29 20:12:14
Popeyes,2310 Iverson St,,Temple Hills,MD,20748,US,38.83398819,-76.95982361,2022-11-29 17:08:54
Popeyes,1060 Brentwood Rd NE,,Washington,WA,20018,US,38.91962433,-76.992836,2022-11-29 20:12:14
Popeyes,4309 Wisconsin Ave NW,,Washington,DC,20016,US,38.94521332,-77.07782745,2022-11-29 20:12:14
Popeyes,4020 Minnesota Avenue,,Washington,DC,20019,US,38.89608383,-76.94869995,2022-11-29 12:23:01
Popeyes,5200 Georgia Ave NW,,Washington,DC,20011,US,38.95319748,-77.02798462,2022-11-29 20:12:14
Popeyes,4621 Silver Hill Rd,,Suitland,MD,20746,US,38.84572983,-76.92696381,2022-11-29 12:23:01
Popeyes,8723 Benbrook Blvd.,,Benbrook,TX,76126,US,32.67867279,-97.46369934,2022-11-29 19:15:58
Popeyes,1510 W Henderson St,,Cleburne,TX,76033,US,32.34023666,-97.4100647,2022-11-28 16:26:05
Popeyes,1747 S Cherry Ln,,White Settlement,TX,76108,US,32.74058151,-97.45133972,2022-11-29 19:15:58
Popeyes,3542 NE 30th St,,Fort Worth,TX,76106,US,32.79940796,-97.3217926,2022-11-29 19:15:58
Popeyes,6601 Lake Worth Blvd,Suite 100,Fort Worth,TX,76135,US,32.81095886,-97.43248749,2022-11-29 19:15:58
Popeyes,3000 Grapevine Mills Pkwy,Grapevine Mills Mall,Grapevine,TX,76051,US,32.96618652,-97.04262543,2022-11-29 09:12:19
Popeyes,601 E. Northwest Hwy,,Grapevine,TX,76051,US,32.94158554,-97.07198334,2022-11-29 11:08:34
Popeyes,1000 Market Place Blvd,,Irving,TX,75063,US,32.91747665,-96.96117401,2022-11-29 09:12:19
Popeyes,3200 E Airfield Dr,"Terminal A, Gate 15",Dallas,TX,75261,US,32.90621567,-97.03663635,2022-11-29 07:12:13
Popeyes,1331 North Highway 377,,Roanoke,TX,76262,US,33.01725388,-97.21874237,2022-11-29 11:08:34
Popeyes,1716 S Loop 288,,Denton,TX,76205,US,33.19288254,-97.09770966,2022-11-29 11:08:34
Popeyes,8245 Precinct Line Rd,,North Richland Hills,TX,76182,US,32.90589142,-97.18732452,2022-11-29 11:08:34
Popeyes,402 E Main St,,Apopka,FL,32703,US,28.67289162,-81.50292969,2022-11-29 17:09:51
Popeyes,"13451 Northwest Fwy,",,"Houston, TX",TX,77040,US,29.84994316,-95.50961304,2022-11-29 20:12:40
Popeyes,3450 Austin Bluffs Pkwy,,Colorado Springs,CO,80918,US,38.8910675,-104.76354218,2022-11-29 06:31:16
Popeyes,7480 Austin Bluffs Pkwy,,Colorado Springs,CO,80923,US,38.93912888,-104.74044037,2022-11-29 06:31:16
Popeyes,3815 E Pikes Peak Ave,,Colorado Springs,CO,80909,US,38.83133316,-104.7567215,2022-11-29 06:31:16
Popeyes,2839 E Fountain Blvd,,Colorado Springs,CO,80910,US,38.81599426,-104.77959442,2022-11-29 06:31:16
Popeyes,1190 W Baptist Rd,,Colorado Springs,CO,80921,US,39.05733871,-104.84427643,2022-11-29 06:31:16
Popeyes,6666 Camden Blvd,,Fountain,CO,80817,US,38.74487686,-104.73903656,2022-11-29 06:31:16
Popeyes,3102 Willowbrook Mall,,Wayne,NJ,07470,US,40.88850784,-74.25972748,2022-11-29 19:17:03
Popeyes,500 NJ-23,,Pompton Plains,NJ,07444,US,40.96678925,-74.28456879,2022-11-29 19:17:02
Popeyes,1 Lackawanna Plaza,#18 - Lackawanna Plaza II,Montclair,NJ,07042,US,40.81121826,-74.21312714,2022-11-29 14:18:32
Popeyes,168 Bloomfield Avenue,,Bloomfield,NJ,07003,US,40.78019333,-74.19039917,2022-11-29 14:18:32
Popeyes,48 Washington Ave,,Belleville,NJ,07109,US,40.7829628,-74.1534729,2022-11-29 11:08:21
Popeyes,112 Eisenhower Pkw,Livingston Mall #VC04,Livingston,NJ,07039,US,40.77716064,-74.35398102,2022-11-29 17:09:54
Popeyes,372 Central Ave,,East Orange,NJ,07018,US,40.75650406,-74.21676636,2022-11-29 18:18:01
Popeyes,1665 Hankook Rd,,Clarksville,TN,37043,US,36.55805969,-87.23905182,2022-11-28 18:02:13
Popeyes,1640 Fort Campbell Blvd,,Clarksville,TN,37042,US,36.57554245,-87.40840149,2022-11-28 18:02:13
Popeyes,(Military Post Access Required) Ft Campbell Food Court,Bldg 2840 Bastogne/Penn Ave,Fort Campbell,KY,42223,US,36.64587784,-87.45198059,2022-11-28 18:02:13
Popeyes,(Military Post Access Required) Market Garden Road,,Fort Campbell,KY,42223,US,36.6639595,-87.4813385,2022-11-28 18:02:13
Popeyes,4000 Ft. Campbell Blvd.,,Hopkinsville,KY,42240,US,36.83604431,-87.47368622,2022-11-28 18:02:13
Popeyes,1860 S Lake Dr,,Lexington,SC,29073,US,33.90834808,-81.22424316,2022-11-29 20:11:49
Popeyes,2832 Augusta Rd,,West Columbia,SC,29170,US,33.97980881,-81.11277771,2022-11-29 20:11:49
Popeyes,1160 Dutch Fork Road,,Irmo,SC,29063,US,34.12618256,-81.22348022,2022-11-29 20:11:49
Popeyes,7540 Garners Ferry Rd,,Columbia,SC,29209,US,33.96192551,-80.94021606,2022-11-29 19:16:21
Popeyes,(Military Post Access Required) 5650 Lee Rd,,Columbia,SC,29206,US,34.01291656,-80.93104553,2022-11-29 19:16:21
Popeyes,468 Killian Road,,Columbia,SC,29203,US,34.13959885,-80.95097351,2022-11-29 19:16:21
Popeyes,10002 Two Notch Road,,Columbia,SC,29223,US,34.11193085,-80.8940506,2022-11-29 19:16:21
Popeyes,"1721 East Centerton Blvd & Greenhouse Rd, Centerton, AR",,Centerton,AR,72712,US,36.35745239,-94.25601196,2022-11-29 15:44:01
Popeyes,2325 W Walnut St,,Rogers,AR,72756,US,36.33459473,-94.15164948,2022-11-29 15:44:01
Popeyes,2044 W. Pleasant Grove Rd.,,Rogers,AR,72758,US,36.28258896,-94.14866638,2022-11-29 15:44:01
Popeyes,5780 W Sunset Ave,,Springdale,AR,72762,US,36.17595291,-94.1945343,2022-11-29 15:44:01
Popeyes,538 E Robinson Ave,,Springdale,AR,72764,US,36.16747284,-94.12671661,2022-11-29 15:44:01
Popeyes,3500 Hwy 412 East,,Siloam Springs,AR,72761,US,36.18042755,-94.50704193,2022-11-29 15:44:01
Popeyes,2401 Menards Drive,,Evansville,IN,47715,US,37.99901199,-87.49314117,2022-11-28 13:13:11
Popeyes,8867 High Pointe Dr,,Newburgh,IN,47630,US,37.97752762,-87.41120911,2022-11-28 13:13:11
Popeyes,3300 N 1st Ave,,Evansville,IN,47710,US,38.00893784,-87.57488251,2022-11-28 13:13:11
Popeyes,34 N Green St,,Henderson,KY,42420,US,37.83781815,-87.58905029,2022-11-28 13:13:11
Popeyes,4510 19th Avenue South,,Fargo,ND,58103,US,46.85010147,-96.86322021,2022-11-28 09:33:47
Popeyes,4850 Highway 6 S.,,Missouri City,TX,77459,US,29.57799339,-95.5802002,2022-11-29 11:08:47
Popeyes,10220 Highway 6,,Missouri City,TX,77459,US,29.53156281,-95.51115417,2022-11-29 11:08:47
Popeyes,3833 South Main Street,,Stafford,TX,77477,US,29.6218605,-95.5718689,2022-11-29 11:08:47
Popeyes,16540 Southwest Fwy,,Sugar Land,TX,77479,US,29.59103203,-95.63466644,2022-11-29 11:08:47
Popeyes,7416A S Sam Houston Pkwy W,,Houston,TX,77085,US,29.61555862,-95.49570465,2022-11-29 15:43:38
Popeyes,11855 Wilcrest Dr,,Houston,TX,77031,US,29.6501503,-95.5662384,2022-11-29 15:43:38
Popeyes,1134 Eldridge Rd,,Sugar Land,TX,77478,US,29.63827705,-95.61830139,2022-11-29 11:08:47
Popeyes,8519 W Bellfort St,,Houston,TX,77071,US,29.65534782,-95.52545929,2022-11-29 15:43:38
Popeyes,4502 W Fuqua St,,Houston,TX,77045,US,29.61361313,-95.4463501,2022-11-29 15:43:38
Popeyes,16722 W Grand Pkwy S,,Sugar Land,TX,77479,US,29.57439613,-95.68260956,2022-11-28 14:00:50
Popeyes,10112 Bissonnet St,,Houston,TX,77036,US,29.67519569,-95.55699158,2022-11-29 15:43:38
Popeyes,12436 Bissonnet St,,Houston,TX,77099,US,29.67680359,-95.59711456,2022-11-29 11:08:47
Popeyes,12234 Shadow Creek Parkway,,Pearland,TX,77584,US,29.57784653,-95.41902161,2022-11-29 11:08:47
Popeyes,9508 Beechnut St.,"Houston,",Houston,TX,77036,US,29.69066429,-95.55102539,2022-11-29 20:12:40
Popeyes,4862 Willowbend Blvd,,Houston,TX,77035,US,29.66469383,-95.46318054,2022-11-29 15:43:38
Popeyes,11308 Broadway St,,Pearland,TX,77584,US,29.55523491,-95.39540863,2022-11-29 11:08:47
Popeyes,7138-7176 Bellaire Blvd,,Houston,TX,77074,US,29.70436668,-95.51097107,2022-11-29 20:12:40
Popeyes,3503 S Sam Houston Pkwy E,,Houston,TX,77047,US,29.59897041,-95.36655426,2022-11-29 07:12:39
Popeyes,Almeda Genoa Near Hwy 288,,Houston,TX,77047,US,29.614645,-95.38420105,2022-11-29 11:08:47
Popeyes,9222 Cullen Blvd,,Houston,TX,77051,US,29.6574173,-95.35579681,2022-11-29 15:43:38
Popeyes,7159 Scott St,,Houston,TX,77021,US,29.68650627,-95.36425018,2022-11-29 15:43:38
Popeyes,9120 Main St,,Houston,TX,77025,US,29.68627167,-95.42138672,2022-11-29 15:43:38
Popeyes,8331 Broadway,,Houston,TX,77061,US,29.67119598,-95.27666473,2022-11-29 11:08:50
Popeyes,4702 Scott Street,,Houston,TX,77004,US,29.71656227,-95.35438538,2022-11-29 15:43:38
Popeyes,7015 Gulf Fwy,,Houston,TX,77087,US,29.70121384,-95.29297638,2022-11-29 11:08:54
Popeyes,5721 Bellaire Blvd,,Houston,TX,77081,US,29.70515633,-95.48119354,2022-11-29 15:43:38
Popeyes,1100 Airport Highway,,Bedford,TX,76022,US,32.83855438,-97.15177917,2022-11-29 19:15:58
Popeyes,8393 Boulevard 26,,North Richland Hills,TX,76180,US,32.84327316,-97.20178986,2022-11-29 19:15:58
Popeyes,1125 S. Main Street,,Keller,TX,76248,US,32.91596222,-97.25455475,2022-11-29 19:15:58
Popeyes,13620 Raceway Drive,,Northlake,TX,76262,US,33.02388382,-97.2743988,2022-11-29 11:08:34
Popeyes,10679 Lancaster Rd,,Hebron,OH,43025,US,39.93933487,-82.53504944,2022-11-28 16:26:39
Popeyes,507 S. Cumberland St.,,Lebanon,TN,37087,US,36.19514847,-86.29489136,2022-11-28 08:00:46
Popeyes,3131 Sachem Ct N,,West Lafayette,IN,47906,US,40.46231461,-86.93518829,2022-11-28 03:18:37
Popeyes,3836 South St,,Lafayette,IN,47905,US,40.41821671,-86.83548737,2022-11-28 19:32:57
Popeyes,329 Old Gate Ln,,Milford,CT,06460,US,41.23492432,-73.02654266,2022-11-29 18:17:48
Popeyes,121 Boston Post Rd,,Orange,CT,06477,US,41.27536392,-72.9917984,2022-11-29 18:17:48
Popeyes,200 E. Main Street,,Stratford,CT,06614,US,41.20251465,-73.11708069,2022-11-29 14:19:01
Popeyes,317 Kimberly Ave,,New Haven,CT,06519,US,41.284832,-72.93740845,2022-11-29 18:17:48
Popeyes,70 Pershing Drive,,Derby,CT,06418,US,41.32843018,-73.08452606,2022-11-29 18:17:48
Popeyes,35 Whalley Ave,,New Haven,CT,06511,US,41.31358719,-72.93361664,2022-11-29 18:17:48
Popeyes,287 North Ave,,Bridgeport,CT,06606,US,41.19961166,-73.19204712,2022-11-29 14:19:01
Popeyes,"5065 Main St FC 10 Trumbull,",Trumbul Mall,Trumbull,CT,06611,US,41.22954178,-73.22696686,2022-11-29 18:17:48
Popeyes,2201 Fairfield Avenue,,Bridgeport,CT,06605,US,41.16451263,-73.21924591,2022-11-29 14:19:01
Popeyes,350 Foxon Boulevard,,New Haven,CT,06513,US,41.32094955,-72.87346649,2022-11-29 18:17:48
Popeyes,2390 Dixwell Ave,,Hamden,CT,06514,US,41.37565231,-72.91553497,2022-11-29 18:17:48
Popeyes,173 Washington Ave,,North Haven,CT,06473,US,41.39860153,-72.853302,2022-11-29 18:17:48
Popeyes,3 E Industrial Rd,,Branford,CT,06405,US,41.29692078,-72.75920868,2022-11-29 18:17:48
Popeyes,480 Westport Ave,,Norwalk,CT,06851,US,41.12671661,-73.38657379,2022-11-29 20:12:51
Popeyes,74 Newton Road,,Danbury,CT,06810,US,41.40895462,-73.41609192,2022-11-29 14:19:01
Popeyes,14200 E Alameda Ave #2070B,Aurora  Mall,Aurora,CO,80012,US,39.70825958,-104.82321167,2022-11-29 20:12:54
Popeyes,3122 S Parker Rd,,Aurora,CO,80014,US,39.66009903,-104.85131836,2022-11-29 20:12:54
Popeyes,11097 E Colfax Ave,,Aurora,CO,80010,US,39.74049759,-104.85913849,2022-11-29 20:12:54
Popeyes,15199 E Colfax Ave,,Aurora,CO,80011,US,39.74045181,-104.81150055,2022-11-29 20:12:54
Popeyes,2150 S. Quebec St.,,Denver,CO,80231,US,39.67751312,-104.90289307,2022-11-29 20:12:54
Popeyes,5454 E Colfax Ave,,Denver,CO,80220,US,39.73983383,-104.92372131,2022-11-29 20:12:54
Popeyes,4388 Peoria Street,,Denver,CO,80239,US,39.7759552,-104.84635925,2022-11-29 20:12:54
Popeyes,4747 North Tower Road,,Denver,CO,80249,US,39.78245926,-104.77275085,2022-11-29 20:12:54
Popeyes,2122 E Colfax Ave,,Denver,CO,80206,US,39.73971176,-104.96131134,2022-11-29 20:12:54
Popeyes,5101 Quebec St,,Commerce City,CO,80022,US,39.7899704,-104.90414429,2022-11-29 20:12:54
Popeyes,4070 N. Colorado Blvd.,,Denver,CO,80216,US,39.77428055,-104.94007111,2022-11-29 20:12:54
Popeyes,SWC E Smoky Hill Rd & Gun Club Rd,,Aurora,CO,80015,US,39.60229874,-104.71675873,2022-11-29 20:12:54
Popeyes,8401 Park Meadows Center,Park Meadows Mall,Lone Tree,CO,80124,US,39.56263351,-104.87612152,2022-11-29 20:12:54
Popeyes,4400 Federal Blvd,,Denver,CO,80211,US,39.77693558,-105.02481079,2022-11-29 20:12:54
Popeyes,2145 S Webster St,,Lakewood,CO,80227,US,39.68227386,-105.08155823,2022-11-29 20:12:54
Popeyes,5651 West 44th Street,,Lakeside,CO,80212,US,39.77661514,-105.06250763,2022-11-29 20:12:54
Popeyes,15050 East 104th Avenue,,Commerce City,CO,80022,US,39.8849678,-104.81259155,2022-11-29 12:23:16
Popeyes,550 W 84th Ave,,Thornton,CO,80260,US,39.84869003,-104.99378204,2022-11-29 20:12:54
Popeyes,6450 Sheridan Blvd,,Arvada,CO,80003,US,39.8139267,-105.05286407,2022-11-29 20:12:54
Popeyes,"4311 E. 104th Ave,",,Thornton,CO,80233,US,39.8854332,-104.93733215,2022-11-29 18:17:24
Popeyes,2120 Main ST.,,Longmont,CO,80501,US,40.19671631,-105.102005,2022-11-29 18:17:24
Popeyes,11055 E I-25 Frontage Road,,Firestone,CO,80504,US,40.16127777,-104.97719574,2022-11-29 18:17:24
Popeyes,2149 Highway 7,,Erie,CO,80516,US,40.00034714,-105.01787567,2022-11-29 18:17:24
Popeyes,885 E. 144th Ave,,Thornton,CO,80602,US,39.95860291,-104.97753906,2022-11-29 18:17:24
Popeyes,74 W. Flatiron Crossing Drive,,Broomfield,CO,80021,US,39.92832565,-105.13498688,2022-11-29 18:17:24
Popeyes,2032 Prairie Center Pkwy,,Brighton,CO,80601,US,39.95750427,-104.7755661,2022-11-28 16:58:26
Popeyes,4165 Centerplace Dr.,,Greeley,CO,80634,US,40.39546585,-104.74737549,2022-11-28 05:28:41
Popeyes,3060 North Campbell Avenue,,Tucson,AZ,85719,US,32.26269531,-110.94351959,2022-11-29 08:32:14
Popeyes,1110 North Stone Ave.,,Tucson,AZ,85705,US,32.23625183,-110.97138977,2022-11-29 08:32:14
Popeyes,1058 East Tucson Marketplace Boulevard,,Tucson,AZ,85713,US,32.18638229,-110.95561981,2022-11-29 08:32:14
Popeyes,(Military Post Access Required) 5404 E Granite St - Bldg 2527,,Tucson,AZ,85707,US,32.18339157,-110.8766098,2022-11-29 08:32:14
Popeyes,NEC Irvington I-19,,Tucson,AZ,85714,US,32.16329575,-110.98565674,2022-11-29 08:32:14
Popeyes,7111 E 22nd St,,Tucson,AZ,85710,US,32.20691681,-110.83965302,2022-11-29 08:32:14
Popeyes,3814 West River Road,,Tucson,AZ,85741,US,32.32055283,-111.0451355,2022-11-29 08:32:14
Popeyes,9230 South Houghton Road,,Tucson,AZ,85747,US,32.08465195,-110.77326965,2022-11-29 08:32:14
Popeyes,1900 Lincoln Hwy,,North Versailles,PA,15137,US,40.36749268,-79.77947998,2022-11-29 19:16:52
Popeyes,3420 William Penn Hwy,,Pittsburgh,PA,15235,US,40.42998505,-79.81328583,2022-11-29 19:16:52
Popeyes,201 Hoffman Blvd,,Duquesne,PA,15110,US,40.38407135,-79.86378479,2022-11-29 19:16:52
Popeyes,2316 E 5th St,,Tyler,TX,75701,US,32.33266068,-95.27236938,2022-11-28 17:46:20
Popeyes,3820 W Elm St,,Tyler,TX,75702,US,32.34923553,-95.34263611,2022-11-28 17:46:20
Popeyes,7998 Leavitt Rd,#5 Plaza South,Amherst,OH,44001,US,41.37742615,-82.22335052,2022-11-29 20:12:42
Popeyes,46402 Middleridge Rd,#5 Plaza North,Amherst,OH,44001,US,41.37996674,-82.22402954,2022-11-29 20:12:42
Popeyes,26170 Lorain Road,,North Olmstead,OH,44070,US,41.42010117,-81.91256714,2022-11-29 20:12:42
Popeyes,14747 Lorain Ave,,Cleveland,OH,44111,US,41.45299149,-81.79960632,2022-11-29 20:12:42
Popeyes,2659 Valley Ave,,Winchester,VA,22601,US,39.15255356,-78.18825531,2022-11-29 17:09:07
Popeyes,117 Sunnyside Plaza Dr,,Winchester,VA,22603,US,39.2087326,-78.17653656,2022-11-29 17:09:07
Popeyes,1720 N. Shenandoah Avenue,,Front Royal,VA,22630,US,38.9381485,-78.19972992,2022-11-29 11:07:48
Popeyes,805 E Washington St,,Charles Town,WV,25414,US,39.29296494,-77.8494339,2022-11-29 17:09:07
Popeyes,3004 Nashville Road,,Bowling Green,KY,42104,US,36.95152283,-86.4748764,2022-11-28 02:09:45
Popeyes,6860 Louisville Road,,Bowling Green,KY,42101,US,37.03529358,-86.33947754,2022-11-27 08:55:50
Popeyes,1377 Nashville Highway,,Franklin,KY,42134,US,36.69834137,-86.57115936,2022-11-28 15:23:06
Popeyes,5875 NW 36th Street,,Virginia Gardens,FL,33166,US,25.80789375,-80.29227448,2022-11-29 20:13:02
Popeyes,2490 NW 79th St,,Miami,FL,33147,US,25.84584618,-80.23937225,2022-11-29 20:13:02
Popeyes,1695 NW 103rd St,,Miami,FL,33147,US,25.86898613,-80.22579956,2022-11-29 20:13:02
Popeyes,12100 NW 7th Ave,,North Miami,FL,33168,US,25.88583755,-80.21102142,2022-11-29 20:13:02
Popeyes,3285 NW 183rd St,,Miami Gardens,FL,33056,US,25.94083214,-80.25519562,2022-11-29 20:13:02
Popeyes,5534 NW 7th Ave,,Miami,FL,33127,US,25.82618523,-80.20849609,2022-11-29 20:13:02
Popeyes,6800 SW 8th St.,,Miami,FL,33144,US,25.76270866,-80.3062973,2022-11-29 20:13:02
Popeyes,1501 NW 20th St,,Miami,FL,33142,US,25.79503441,-80.22159576,2022-11-29 20:13:02
Popeyes,12421 Miramar Pkwy,,Miramar,FL,33027,US,25.97949982,-80.31626892,2022-11-29 20:13:02
Popeyes,1000 NE 163rd St,,Miami,FL,33162,US,25.92648125,-80.17990112,2022-11-29 20:13:02
