company_name,address_line_1,address_line_2,city,state_alpha,postal_code,country_code,latitude,longitude,when_verified
Sonic,3340 East Flamingo Road,,Las Vegas,NV,89121,US,36.1174202,-115.1014328,2022-12-18 06:25:10
Sonic,5399 International Drive,,Orlando,FL,32819,US,28.46283722,-81.45207977,2022-12-18 07:39:42
Sonic,242 South Semoran Blvd,,Orlando,FL,32807,US,28.5410862,-81.31119537,2022-12-18 06:25:10
Sonic,4350 West 13th Street,,Saint Cloud,FL,34769,US,28.25332642,-81.31537628,2022-12-18 07:39:42
Sonic,155 East Sr 434,,Longwood,FL,32750,US,28.69828606,-81.34503174,2022-12-18 06:25:10
Sonic,1051 Cypress Parkway,,Kissimmee,FL,34759,US,28.14797974,-81.44439697,2022-12-18 07:39:42
Sonic,1055 Broadway Street,,Oviedo,FL,32765,US,28.67011452,-81.1900177,2022-12-18 06:25:10
Sonic,415 Magnolia Avenue,,Auburndale,FL,33823,US,28.05822372,-81.78833771,2022-12-18 07:39:42
Sonic,1221 Saxon Boulevard,,Orange City,FL,32763,US,28.91169739,-81.27790833,2022-12-18 06:25:10
Sonic,9740 Gaston Road,,Katy,TX,77494,US,29.73527908,-95.81111908,2022-12-16 15:27:40
Sonic,5220 Fm 1463,,Fulshear,TX,77494,US,29.71687889,-95.84684753,2022-12-16 15:27:40
Sonic,25022 Fm 1093 Road,,Katy,TX,77494,US,29.69847298,-95.81136322,2022-12-16 15:27:40
Sonic,23802 Westheimer Parkway,,Cinco Ranch,TX,77494,US,29.73514366,-95.77757263,2022-12-16 15:27:53
Sonic,5451 Highway Boulevard,,Katy,TX,77450,US,29.78537369,-95.81954193,2022-12-16 15:27:53
Sonic,"30575 Kingsland Boulevard, Suite 100",,Brookshire,TX,77423,US,29.76836777,-95.90065002,2022-12-16 15:27:40
Sonic,1530 S. Mason Road,,Katy,TX,77450,US,29.76023674,-95.75209808,2022-12-16 15:27:53
Sonic,1438 West Grand Parkway,,Katy,TX,77449,US,29.79347038,-95.77603912,2022-12-16 15:27:53
Sonic,3702 Queens Boulevard,,Long Island City,NY,11101,US,40.74369812,-73.92799377,2022-12-16 15:27:37
Sonic,156 Route 17 North,,Hasbrouck Heights,NJ,07604,US,40.85459518,-74.07111359,2022-12-18 06:25:13
Sonic,100 Bayonne Crossing Way,,Bayonne,NJ,07002,US,40.66358185,-74.10722351,2022-12-16 15:27:37
Sonic,189-237 Springfield Avenue,,Newark,NJ,07103,US,40.73458862,-74.18753052,2022-12-16 15:27:37
Sonic,573 Spring Street,,Elizabeth,NJ,07201,US,40.67221832,-74.20021057,2022-12-16 15:27:37
Sonic,750 West Sunrise Highway,,Valley Stream,NY,11582,US,40.66351318,-73.7264328,2022-12-16 15:27:37
Sonic,148 Page Avenue,,Staten Island,NY,10309,US,40.52078629,-74.23560333,2022-12-16 15:27:37
Sonic,1724 Hempstead Turnpike,,East Meadow,NY,11554,US,40.72314835,-73.57243347,2022-12-16 15:27:38
Sonic,296 Highway 29 North,,Concord,NC,28025,US,35.40341568,-80.60874176,2022-12-18 06:25:19
Sonic,7761 Gateway Lane Nw,,Concord,NC,28027,US,35.36732483,-80.7106781,2022-12-18 06:25:19
Sonic,5445 Highway 49 South,,Harrisburg,NC,28075,US,35.32003403,-80.66810608,2022-12-18 06:25:19
Sonic,2894 N Cannon Blvd,,Kannapolis,NC,28083,US,35.53559113,-80.60568237,2022-12-18 06:25:19
Sonic,128 Williamson Road,,Mooresville,NC,28117,US,35.59386444,-80.87031555,2022-12-18 06:25:20
Sonic,940 West Main Street,,Rockwell,NC,28138,US,35.55988312,-80.41445923,2022-12-18 06:25:19
Sonic,265 Mt Holly-huntersville Rd,,Charlotte,NC,28214,US,35.30288696,-80.98587799,2022-12-18 06:25:21
Sonic,935 West Innes Street,,Salisbury,NC,28144,US,35.67459488,-80.47977448,2022-12-18 06:25:20
Sonic,1022 West Wilson Avenue,,Chicago,IL,60640,US,41.96575546,-87.65588379,2022-12-18 06:25:10
Sonic,2922 South Cicero Avenue,,Cicero,IL,60804,US,41.83927536,-87.74425507,2022-12-18 06:25:19
Sonic,10440 Grand Avenue,,Franklin Park,IL,60131,US,41.93086243,-87.88686371,2022-12-18 06:25:19
Sonic,11915 South Pulaski Rd,,Alsip,IL,60803,US,41.67611313,-87.71928406,2022-12-18 06:25:12
Sonic,290 West Roosevelt Road,,Villa Park,IL,60181,US,41.86030197,-88.02294922,2022-12-18 06:25:17
Sonic,1299 Torrence Avenue,,Calumet City,IL,60409,US,41.59892654,-87.55847168,2022-12-18 06:25:12
Sonic,4023 West 167th Street,,Country Club Hills,IL,60478,US,41.5857048,-87.71685791,2022-12-18 06:25:12
Sonic,1151 East Dundee Road,,Palatine,IL,60074,US,42.13878632,-88.01646423,2022-12-18 06:25:10
Sonic,1534 Woodruff Road,,Greenville,SC,29607,US,34.81969452,-82.27820587,2022-12-18 06:25:20
Sonic,954 North Pleasantburg Drive,,Greenville,SC,29607,US,34.86662674,-82.35739899,2022-12-18 06:25:20
Sonic,12 Berryblue Court,,Simpsonville,SC,29680,US,34.70733643,-82.25597382,2022-12-18 06:25:20
Sonic,119 Buncombe Road,,Greer,SC,29650,US,34.94117355,-82.25753021,2022-12-18 06:25:20
Sonic,6398 Calhoun Memorial Highway,,Easley,SC,29640,US,34.82311249,-82.58300781,2022-12-18 06:25:21
Sonic,2149 E. Main,,Duncan,SC,29334,US,34.88801193,-82.06907654,2022-12-18 06:25:20
Sonic,3121 Boiling Springs Road,,Boiling Springs,SC,29316,US,35.03973389,-81.97566223,2022-12-18 06:25:20
Sonic,1522 E Greenville Street,,Anderson,SC,29621,US,34.52689362,-82.63603973,2022-12-18 06:25:12
Sonic,1710 Dual Highway,,Hagerstown,MD,21740,US,39.61565018,-77.69125366,2022-12-18 07:39:42
Sonic,861 Norland Avenue,,Chambersburg,PA,17201,US,39.94255829,-77.63469696,2022-12-18 07:39:42
Sonic,7420 Guilford Drive,,Frederick,MD,21704,US,39.3946228,-77.40988159,2022-12-18 07:39:42
Sonic,171 Gateway Drive,,Winchester,VA,22602,US,39.18593979,-78.1319809,2022-12-18 07:39:42
Sonic,400 North Center Street,,Westminster,MD,21157,US,39.57823563,-76.98339081,2022-12-18 07:39:42
Sonic,290 Wilson Avenue,,Hanover,PA,17331,US,39.82655716,-76.987854,2022-12-18 06:25:08
Sonic,10160 Baltimore National Pike,,Ellicott City,MD,21042,US,39.28010941,-76.86175537,2022-12-18 07:39:42
Sonic,8212 Liberty Road,,Baltimore,MD,21244,US,39.35701752,-76.76380157,2022-12-18 07:39:42
Sonic,4007 E. Greenway Road,,Phoenix,AZ,85032,US,33.62600327,-111.99554443,2022-12-18 06:25:20
Sonic,734 E. Greenway Pkwy,,Phoenix,AZ,85022,US,33.63811111,-112.06386566,2022-12-18 06:25:21
Sonic,17238 N. 19th Ave.,,Phoenix,AZ,85023,US,33.64262009,-112.10037994,2022-12-18 06:25:21
Sonic,9606 N. 19th Ave.,,Phoenix,AZ,85021,US,33.57313919,-112.10010529,2022-12-16 15:27:51
Sonic,1919 W. Deer Valley,,Phoenix,AZ,85027,US,33.68332291,-112.10108185,2022-12-18 06:25:20
Sonic,3411 West Union Hills Drive,,Phoenix,AZ,85027,US,33.65422821,-112.1324234,2022-12-18 06:25:21
Sonic,8002 N 43rd Avenue,,Glendale,AZ,85302,US,33.55350876,-112.15207672,2022-12-16 15:27:46
Sonic,3330 E. Thomas Ave.,,Phoenix,AZ,85018,US,33.48099518,-112.0098877,2022-12-16 15:27:51
Sonic,8245 Highland Pointe Drive,,West Chester,OH,45069,US,39.34622955,-84.39505005,2022-12-18 06:25:08
Sonic,3105 W State Route 22 & 3,,Maineville,OH,45039,US,39.30706787,-84.27809143,2022-12-18 06:25:18
Sonic,1550 South Erie Boulevard,,Hamilton,OH,45011,US,39.38026428,-84.54928589,2022-12-18 06:25:08
Sonic,3607 Dixie Highway,,Franklin,OH,45005,US,39.49754715,-84.33628082,2022-12-18 06:25:08
Sonic,1421 Main Street,,Hamilton,OH,45013,US,39.422966,-84.59375,2022-12-18 06:25:08
Sonic,1065 State Road 28,,Milford,OH,45150,US,39.19353867,-84.23970032,2022-12-18 06:25:08
Sonic,5753 Harrison Avenue,,Cincinnati,OH,45248,US,39.17107391,-84.63935089,2022-12-18 06:25:13
Sonic,4451 Eastgate Boulevard,,Cincinnati,OH,45245,US,39.09616089,-84.27810669,2022-12-18 06:25:08
Sonic,2705 Cobb Parkway,,Kennesaw,GA,30144,US,34.01944733,-84.62136078,2022-12-16 15:27:53
Sonic,3497 Baker Road,,Acworth,GA,30101,US,34.07539368,-84.65104675,2022-12-16 15:27:51
Sonic,11960 Georgia Highway 92,,Woodstock,GA,30188,US,34.08745193,-84.48770142,2022-12-16 15:27:53
Sonic,833 Joe Frank Harris Parkway,,Cartersville,GA,30120,US,34.19429016,-84.78988647,2022-12-18 06:25:21
Sonic,580 Thornton Rd,,Lithia Springs,GA,30122,US,33.78998184,-84.62348938,2022-12-16 15:27:44
Sonic,1425 Ellsworth Industrial BLVD NW,,Atlanta,GA,30318,US,33.79378128,-84.42596436,2022-12-16 15:27:44
Sonic,6050 Jimmy Carter Blvd.,,Norcross,GA,30071,US,33.92247009,-84.21406555,2022-12-16 15:27:50
Sonic,3246 State Highway 5,,Douglasville,GA,30135,US,33.71665573,-84.76538086,2022-12-18 06:25:08
Sonic,2005 Silas Creek Parkway,,Winston Salem,NC,27103,US,36.07027435,-80.26813507,2022-12-18 06:25:17
Sonic,2615 Lewisville-clemmons Road,,Clemmons,NC,27012,US,36.02701187,-80.38175201,2022-12-18 06:25:17
Sonic,528 Nelson St,,Kernersville,NC,27284,US,36.12729263,-80.06791687,2022-12-18 06:25:17
Sonic,"786 Valley Road, Lot #2",Lot #2,Mocksville,NC,27028,US,35.90332794,-80.57852173,2022-12-18 06:25:17
Sonic,603 Randolph Street,,Thomasville,NC,27360,US,35.87453461,-80.07645416,2022-12-18 06:25:17
Sonic,1800 S Main Street,,High Point,NC,27260,US,35.93857193,-79.99660492,2022-12-18 06:25:17
Sonic,4500 Gate City Boulevard,,Greensboro,NC,27407,US,36.03388214,-79.86681366,2022-12-18 06:25:17
Sonic,1715 Spring Garden,,Greensboro,NC,27403,US,36.06333542,-79.82010651,2022-12-18 06:25:17
Sonic,108 Lucy Lane,,Waynesboro,VA,22980,US,38.06584167,-78.93437195,2022-12-18 07:39:42
Sonic,5817 Plank Road,,Fredericksburg,VA,22407,US,38.29236603,-77.57011414,2022-12-18 07:39:42
Sonic,240 Mcwhirt Loop,,Fredericksburg,VA,22406,US,38.35780716,-77.51744843,2022-12-18 07:39:42
Sonic,10045 Jefferson Davis Highway,,Fredericksburg,VA,22407,US,38.22436905,-77.50521851,2022-12-18 07:39:42
Sonic,10850 Promenade Lane,,Manassas,VA,20109,US,38.79738235,-77.51941681,2022-12-18 07:39:42
Sonic,999 Independence Blvd,,Bedford,VA,24523,US,37.32751083,-79.50279236,2022-12-18 06:25:08
Sonic,11250 West Broad Street,,Glen Allen,VA,23060,US,37.65024185,-77.603508,2022-12-18 07:39:42
Sonic,1930 Mister Joe White Avenue,,Myrtle Beach,SC,29577,US,33.71085358,-78.89817047,2022-12-18 06:25:20
Sonic,3782 Renee Drive,,Myrtle Beach,SC,29579,US,33.75904083,-78.96477509,2022-12-18 06:25:20
Sonic,1927 Highway 544,,Conway,SC,29526,US,33.76489258,-79.01932526,2022-12-18 06:25:20
Sonic,9704 Highway 707,,Myrtle Beach,SC,29588,US,33.62771225,-79.03596497,2022-12-18 06:25:21
Sonic,200 Rivertown Boulevard,,Conway,SC,29526,US,33.85686111,-79.08879852,2022-12-18 06:25:20
Sonic,701 Highway 17 North,,North Myrtle Beach,SC,29582,US,33.83458328,-78.6732254,2022-12-18 06:25:19
Sonic,11361 Ocean Highway,,Pawleys Island,SC,29585,US,33.44827271,-79.12126923,2022-12-18 06:25:22
Sonic,602 North J K Powell Boulevard,,Whiteville,NC,28472,US,34.33696365,-78.7077179,2022-12-18 06:25:19
Sonic,8130 E. 91st Street,,Tulsa,OK,74133,US,36.03146744,-95.88530731,2022-12-16 15:27:51
Sonic,9310 E. 71st Street,,Tulsa,OK,74133,US,36.06047821,-95.87267303,2022-12-16 15:27:50
Sonic,4700 W. Houston St,,Broken Arrow,OK,74012,US,36.04682541,-95.84835052,2022-12-16 15:27:51
Sonic,4927 E 91st Street,,Tulsa,OK,74137,US,36.03224945,-95.92095184,2022-12-16 15:27:49
Sonic,10830 S Memorial,,Tulsa,OK,74133,US,36.00623703,-95.88718414,2022-12-16 15:27:49
Sonic,4949 E. 71st Street,,Tulsa,OK,74136,US,36.06145096,-95.92006683,2022-12-16 15:27:42
Sonic,4801 S. Memorial Dr,,Tulsa,OK,74145,US,36.09408569,-95.88604736,2022-12-16 15:27:50
Sonic,2220 W. Kenosha Street,,Broken Arrow,OK,74012,US,36.06139755,-95.81645203,2022-12-16 15:27:50
Sonic,10080 Sam Neace Drive,,Florence,KY,41042,US,38.95751572,-84.62753296,2022-12-18 06:25:13
Sonic,2095 Litton Lane,,Hebron,KY,41048,US,39.07784653,-84.70818329,2022-12-18 06:25:13
Sonic,1214 Ohio Pike,,Amelia,OH,45102,US,39.04673004,-84.24428558,2022-12-18 06:25:08
Sonic,1842 Snow Road,,Parma,OH,44134,US,41.40546799,-81.69496155,2022-12-18 07:39:42
Sonic,9780 State Route 14,,Streetsboro,OH,44241,US,41.25159454,-81.36460114,2022-12-18 07:39:42
Sonic,2213 East Maple Street,,North Canton,OH,44720,US,40.87545013,-81.36517334,2022-12-18 07:39:42
Sonic,5392 Wales Avenue Nw,,Massillon,OH,44646,US,40.8592453,-81.48451233,2022-12-18 07:39:42
Sonic,"5854 Peach Street, Unit 0985",,Erie,PA,16509,US,42.06761932,-80.09391785,2022-12-18 07:39:42
Sonic,5606 Milan Road,,Sandusky,OH,44870,US,41.40222931,-82.65714264,2022-12-18 07:39:42
Sonic,16270 Fort Street,,Southgate,MI,48195,US,42.18959427,-83.18377686,2022-12-18 06:54:29
Sonic,40257 Groesbeck Highway,,Clinton Township,MI,48036,US,42.59462357,-82.90109253,2022-12-18 06:25:13
Sonic,31187 Mission Boulevard,,Hayward,CA,94544,US,37.61907196,-122.03533173,2022-12-18 07:39:42
Sonic,3080 N. Naglee Road,,Tracy,CA,95304,US,37.75775528,-121.46076965,2022-12-18 07:39:42
Sonic,1400 North Park Boulevard,,Pittsburg,CA,94565,US,38.01193619,-121.86482239,2022-12-18 07:39:42
Sonic,6921 Cameron Boulevard,,Gilroy,CA,95020,US,37.00340271,-121.54683685,2022-12-18 06:25:19
Sonic,15107 Old Harlan Road,,Lathrop,CA,95330,US,37.82512283,-121.28955078,2022-12-18 07:39:42
Sonic,1483 Colony Road,,Ripon,CA,95366,US,37.75471497,-121.14006805,2022-12-18 07:39:42
Sonic,6055 Main Street,,American Canyon,CA,94503,US,38.18154907,-122.25436401,2022-12-18 07:39:42
Sonic,10354 Trinity Parkway,,Stockton,CA,95219,US,38.0505867,-121.37387085,2022-12-18 07:39:42
Sonic,4504 Challenger Avenue,,Roanoke,VA,24012,US,37.32308578,-79.87228394,2022-12-18 06:54:29
Sonic,"5040 Rutgers Blvd, Bldg B",Bldg B,Roanoke,VA,24012,US,37.31725693,-79.96370697,2022-12-18 06:54:29
Sonic,"3555 Franklin Road, S.w.",,Roanoke,VA,24014,US,37.23668289,-79.97003174,2022-12-18 06:54:29
Sonic,1968 West Main Street,,Salem,VA,24153,US,37.28683472,-80.09183502,2022-12-18 06:54:29
Sonic,150 Holt Garrison Parkway,,Danville,VA,24540,US,36.59972,-79.41713715,2022-12-18 06:25:20
Sonic,355 N. Franklin Street,,Christiansburg,VA,24073,US,37.13460541,-80.41278839,2022-12-18 06:54:29
Sonic,1642 East Republic Road,,Springfield,MO,65804,US,37.13700485,-93.26578522,2022-12-16 15:27:42
Sonic,210 West Battelfield,,Springfield,MO,65807,US,37.1597023,-93.29297638,2022-12-16 15:27:41
Sonic,2935 East Sunshine,,Springfield,MO,65804,US,37.18120193,-93.23615265,2022-12-18 06:25:21
Sonic,729 West Sunshine St,,Springfield,MO,65807,US,37.18268967,-93.30148315,2022-12-18 06:25:17
Sonic,5656 S Farm Road 157,,Springfield,MO,65810,US,37.11148453,-93.29613495,2022-12-16 15:27:39
Sonic,2605 West Republic Road,,Springfield,MO,65807,US,37.13887024,-93.33052826,2022-12-18 06:25:17
Sonic,1630 North Glenstone,,Springfield,MO,65803,US,37.22760391,-93.26091766,2022-12-18 06:25:17
Sonic,635 W. Commercial,,Springfield,MO,65803,US,37.229599,-93.29763031,2022-12-18 06:25:17
Sonic,1336 N. Zaragosa Road,,El Paso,TX,79936,US,31.72777367,-106.29880524,2022-12-16 15:27:49
Sonic,1865 N Zaragosa Road,,El Paso,TX,79936,US,31.75858307,-106.2722702,2022-12-16 15:27:49
Sonic,2270 Trawood,,El Paso,TX,79935,US,31.76457405,-106.32138824,2022-12-16 15:27:49
Sonic,10655 Vista Del Sol,,El Paso,TX,79935,US,31.75591087,-106.34056091,2022-12-16 15:27:49
Sonic,12400 Edgemere Boulevard,,El Paso,TX,79938,US,31.79196167,-106.25931549,2022-12-16 15:27:49
Sonic,13004 Eastlake Boulevard,,El Paso,TX,79928,US,31.69878197,-106.2407608,2022-12-16 15:27:49
Sonic,9505 Socorro Avenue,,El Paso,TX,79927,US,31.67738914,-106.31536102,2022-12-16 15:27:49
Sonic,7391 Alameda Avenue,,El Paso,TX,79915,US,31.74240112,-106.37781525,2022-12-16 15:27:50
Sonic,10381 Sliding Hill Road,,Ashland,VA,23005,US,37.6864624,-77.46121979,2022-12-18 07:39:42
Sonic,2055 Crain Highway,,Waldorf,MD,20601,US,38.65563965,-76.87761688,2022-12-18 07:39:42
Sonic,5805 West Broad Street,,Richmond,VA,23230,US,37.59042358,-77.50476837,2022-12-18 06:25:19
Sonic,10033 Balm Riverview Road,,Riverview,FL,33569,US,27.85463333,-82.31498718,2022-12-18 06:54:29
Sonic,1230 E. Brandon Blvd,,Brandon,FL,33511,US,27.93832016,-82.26454926,2022-12-18 06:25:12
Sonic,16525 FISHHAWK BOULEVARD,,LITHIA,FL,33547,US,27.85596466,-82.20471191,2022-12-18 06:54:29
Sonic,10251 BIG BEND ROAD,,RIVERVIEW,FL,33578,US,27.79113007,-82.34012604,2022-12-18 06:54:29
Sonic,2901 James L. Redman Parkway,,Plant City,FL,33566,US,27.98408699,-82.12229156,2022-12-18 06:25:12
Sonic,2523 North Dale Mabry Hwy,,Tampa,FL,33607,US,27.96276855,-82.50495911,2022-12-18 06:54:29
Sonic,1915 E Fowler Ave,,Tampa,FL,33612,US,28.05393219,-82.43703461,2022-12-18 06:25:15
Sonic,2320 EAST BEARSS AVE,,TAMPA,FL,33549,US,28.08078575,-82.43322754,2022-12-18 06:25:15
Sonic,7011 Louetta Road,,Spring,TX,77379,US,30.02271652,-95.51987457,2022-12-16 15:27:52
Sonic,6020 Fm 2920,,Spring,TX,77379,US,30.07458496,-95.5151062,2022-12-16 15:27:50
Sonic,3815 Louetta Blvd,,Spring,TX,77388,US,30.04860687,-95.47284698,2022-12-16 15:27:51
Sonic,22601 Tomball Parkway,,Tomball,TX,77375,US,30.01384926,-95.59223175,2022-12-16 15:27:50
Sonic,19625 Tomball Pkwy,,Houston,TX,77070,US,29.98028374,-95.56819153,2022-12-16 15:27:42
Sonic,13028 Veterans Memorial Hwy,,Houston,TX,77014,US,29.97707176,-95.48947144,2022-12-16 15:27:42
Sonic,1437 Fm 1960 Road West,,Houston,TX,77090,US,30.0128212,-95.45201111,2022-12-16 15:27:51
Sonic,13070 Louetta Rd,,Cypress,TX,77429,US,29.99571991,-95.62217712,2022-12-16 15:27:50
Sonic,3225 Lawrenceville-suwanee Rd,,Suwanee,GA,30024,US,34.03570175,-84.05188751,2022-12-16 15:27:49
Sonic,299 Grayson Highway,,Lawrenceville,GA,30045,US,33.9441185,-83.98480225,2022-12-18 06:25:21
Sonic,812 DACULA ROAD,,DACULA,GA,30019,US,34.00650787,-83.91460419,2022-12-18 06:25:14
Sonic,820 Oak Road,,Lawrenceville,GA,30044,US,33.88946533,-84.06152344,2022-12-16 15:27:49
Sonic,7425 Spout Springs Road,,Braselton,GA,30542,US,34.10746765,-83.87291718,2022-12-18 07:39:42
Sonic,4885 Stone Mountain Highway,,Stone Mountain,GA,30047,US,33.82668304,-84.09771729,2022-12-18 06:25:22
Sonic,3415 Atlanta Highway,,Oakwood,GA,30542,US,34.21971893,-83.86334991,2022-12-18 07:39:42
Sonic,1520 First Street S.,,Winter Haven,FL,33880,US,28.00699615,-81.72632599,2022-12-18 07:39:42
Sonic,5030 Dave Robbins Way,,Lakeland,FL,33812,US,27.97178078,-81.88380432,2022-12-18 07:39:42
Sonic,40124 10th Street West,,Palmdale,CA,93550,US,34.61138153,-118.14730835,2022-12-18 06:25:10
Sonic,3220 Taft Highway,,Bakersfield,CA,93313,US,35.26741409,-119.03855896,2022-12-18 06:54:29
Sonic,6701 White Lane,,Bakersfield,CA,93309,US,35.31765747,-119.07669067,2022-12-18 06:54:29
Sonic,1070 E. HUNTINGTON DRIVE,,DUARTE,CA,91010,US,34.13924789,-117.98212433,2022-12-18 06:25:10
Sonic,2031 WHITE LANE,,BAKERSFIELD,CA,93304,US,35.31715393,-119.0255127,2022-12-18 06:54:29
Sonic,1040 Valley Boulevard,,Tehachapi,CA,93561,US,35.12395477,-118.46616364,2022-12-18 06:25:22
Sonic,4601 Ming Avenue,,Bakersfield,CA,93309,US,35.33931351,-119.0533905,2022-12-18 06:54:29
Sonic,13015 Stockdale Highway,,Bakersfield,CA,93312,US,35.35388947,-119.14698792,2022-12-18 06:54:29
Sonic,6610 Montana Avenue,,El Paso,TX,79925,US,31.78912163,-106.39745331,2022-12-16 15:27:37
Sonic,3925 Dyer Street,,El Paso,TX,79930,US,31.811903,-106.44499969,2022-12-16 15:27:37
Sonic,4800 Hondo Pass Drive,,El Paso,TX,79904,US,31.86945152,-106.43058014,2022-12-16 15:27:37
Sonic,2830 South 1-35,,San Marcos,TX,78666,US,29.84368324,-97.96910858,2022-12-18 06:25:18
Sonic,802 S. Guadalupe,,San Marcos,TX,78666,US,29.87262726,-97.94007111,2022-12-18 06:25:18
Sonic,1646 Aquarena Springs Drive,,San Marcos,TX,78666,US,29.89256287,-97.91506958,2022-12-18 06:25:18
Sonic,400 Fm 150 East,,Kyle,TX,78640,US,29.98169518,-97.87073517,2022-12-18 06:25:18
Sonic,861 Loop 337,,New Braunfels,TX,78130,US,29.71697998,-98.10401154,2022-12-16 15:27:54
Sonic,1736 Rebel Drive,,Kyle,TX,78640,US,30.01163292,-97.89009094,2022-12-18 06:25:18
Sonic,18350 Fm 306,,Canyon Lake,TX,78133,US,29.91543198,-98.21555328,2022-12-18 06:25:20
Sonic,716 State Highway 46 South,,New Braunfels,TX,78130,US,29.69635201,-98.08930206,2022-12-18 06:25:18
Sonic,601 North Main Street,,Billings,MT,59105,US,45.80930328,-108.47214508,2022-12-18 06:54:29
Sonic,4050 S Great Sw Parkway,,Grand Prairie,TX,75052,US,32.67280579,-97.04489136,2022-12-16 15:27:54
Sonic,3738 S. Carrier Parkway,,Grand Prairie,TX,75052,US,32.68187332,-97.00765991,2022-12-16 15:27:52
Sonic,2864 W. Camp Wisdom Road,,Grand Prairie,TX,75052,US,32.64783096,-97.05558014,2022-12-16 15:27:52
Sonic,2240 Se Green Oaks,,Arlington,TX,76018,US,32.65909576,-97.06843567,2022-12-16 15:27:54
Sonic,2991 S Highway 360,,Grand Prairie,TX,75052,US,32.69002533,-97.06240082,2022-12-16 15:27:54
Sonic,4880 Mountain Creek Pkwy,,Dallas,TX,75236,US,32.67238998,-96.96820831,2022-12-16 15:27:52
Sonic,210 West Pioneer,,Grand Prairie,TX,75051,US,32.71000671,-97.006073,2022-12-16 15:27:52
Sonic,4301 S. COLLINS STREET,,ARLINGTON,TX,76018,US,32.67449188,-97.09220886,2022-12-16 15:27:54
Sonic,3525 Chestnut Expressway,,Springfield,MO,65802,US,37.21264267,-93.35044098,2022-12-18 06:25:17
Sonic,2001 West Mercury Blvd.,,Hampton,VA,23666,US,37.03907013,-76.39815521,2022-12-18 07:39:42
Sonic,200 Floyd Thompson Road,,Hampton,VA,23666,US,37.08692551,-76.39585114,2022-12-18 07:39:42
Sonic,11835 Jefferson Avenue,,Newport News,VA,23606,US,37.08686447,-76.48363495,2022-12-18 06:54:29
Sonic,2514 George Washington Mem Hwy,,Yorktown,VA,23693,US,37.11988068,-76.45596313,2022-12-18 07:39:42
Sonic,12740 Jefferson Ave,,Newport News,VA,23602,US,37.13790131,-76.51882172,2022-12-18 07:39:42
Sonic,13450 CARROLLTON BLVD.,,CARROLLTON,VA,23314,US,36.95344925,-76.53052521,2022-12-18 06:54:29
Sonic,3285 Western Branch Boulevard,,Chesapeake,VA,23321,US,36.86474228,-76.41181183,2022-12-18 06:25:19
Sonic,2404 East Little Creek Road,,Norfolk,VA,23518,US,36.91563416,-76.21598816,2022-12-18 06:25:21
Sonic,915 Summit Avenue,,Greensboro,NC,27405,US,36.08502197,-79.77732849,2022-12-18 06:25:17
Sonic,3431 S Church Street,,Burlington,NC,27215,US,36.08094025,-79.51085663,2022-12-18 06:25:17
Sonic,1122 E Broadway Road,,Tempe,AZ,85282,US,33.40816116,-111.92118073,2022-12-16 15:27:51
Sonic,2870 North Hayden Road,,Scottsdale,AZ,85257,US,33.4797287,-111.9094696,2022-12-16 15:27:51
Sonic,235 West University,,Mesa,AZ,85201,US,33.42191696,-111.83808899,2022-12-16 15:27:48
Sonic,618 West Southern Avenue,,Mesa,AZ,85210,US,33.39366913,-111.84446716,2022-12-16 15:27:48
Sonic,4740 E. Baseline Rd.,,Phoenix,AZ,85040,US,33.37871933,-111.97966003,2022-12-16 15:27:40
Sonic,2935 South Dobson Road,,Mesa,AZ,85202,US,33.36132812,-111.87584686,2022-12-18 06:25:21
Sonic,647 E. Mckellips Road,,Mesa,AZ,85203,US,33.45103073,-111.81632233,2022-12-16 15:27:48
Sonic,630 W Elliott Road,,Tempe,AZ,85283,US,33.3496933,-111.94701385,2022-12-18 06:25:21
Sonic,5722 Kingston Pike,,Knoxville,TN,37919,US,35.93347931,-83.9980545,2022-12-18 06:25:21
Sonic,8475 Kingston Pike,,Knoxville,TN,37919,US,35.92230606,-84.06292725,2022-12-18 06:25:21
Sonic,4410 Western Ave,,KNOXVILLE,TN,37921,US,35.97246552,-83.9839859,2022-12-16 15:27:42
Sonic,4515 Chapman Hwy,,Knoxville,TN,37920,US,35.93196106,-83.90338898,2022-12-18 06:25:20
Sonic,2742 Schaad Road,,Knoxville,TN,37921,US,36.00466919,-84.01956177,2022-12-16 15:27:42
Sonic,3307 North Broadway,,Knoxville,TN,37917,US,36.00174332,-83.92640686,2022-12-18 06:25:20
Sonic,2506 Alcoa Hwy,,Alcoa,TN,37701,US,35.81404114,-83.98173523,2022-12-18 06:25:20
Sonic,7816 Oakridge Highway,,Knoxville,TN,37931,US,35.97979355,-84.11619568,2022-12-16 15:27:42
Sonic,6915 Shallowford Road,,Chattanooga,TN,37421,US,35.0447197,-85.16104889,2022-12-16 15:27:44
Sonic,7420 East Brainerd Road,,Chattanooga,TN,37421,US,35.0144577,-85.16326904,2022-12-16 15:27:44
Sonic,4407 Highway 58,,Chattanooga,TN,37416,US,35.08481598,-85.20278168,2022-12-16 15:27:44
Sonic,3907 Brainerd Road,,Chattanooga,TN,37411,US,35.02096558,-85.24037933,2022-12-16 15:27:44
Sonic,5921 Ooltewah-ringgold Road,,Ooltewah,TN,37363,US,35.08179474,-85.05943298,2022-12-18 06:25:19
Sonic,4348 Ringgold Road,,East Ridge,TN,37412,US,34.99536896,-85.23668671,2022-12-16 15:27:44
Sonic,4305 Hixson Pike,,Chattanooga,TN,37415,US,35.11688614,-85.25102234,2022-12-18 06:25:19
Sonic,6216 Hixson Pike,,Hixson,TN,37343,US,35.15297318,-85.1997757,2022-12-18 06:25:19
Sonic,1600 Cedar Road,,Chesapeake,VA,23322,US,36.72708511,-76.29947662,2022-12-18 06:25:19
Sonic,1216 Battlefield Blvd. North,,Chesapeake,VA,23320,US,36.76231003,-76.25160217,2022-12-18 06:25:21
Sonic,1916 Centerville Turnpike,,Virginia Beach,VA,23464,US,36.77978897,-76.19139862,2022-12-18 06:25:19
Sonic,103 Currituck Commercial Dr,,Moyock,NC,27958,US,36.51667023,-76.16977692,2022-12-18 06:25:19
Sonic,969 Providence Road,,Chesapeake,VA,23325,US,36.81029129,-76.21945953,2022-12-16 15:27:40
Sonic,5755 Portsmouth Boulevard,,Portsmouth,VA,23701,US,36.81978607,-76.38276672,2022-12-18 06:25:19
Sonic,3581 Holland Road,,Virginia Beach,VA,23452,US,36.81240463,-76.09715271,2022-12-18 06:25:19
Sonic,1093 Military Highway,,Norfolk,VA,23502,US,36.85912323,-76.21038818,2022-12-18 06:25:21
Sonic,2085 E Fire Tower Road,,Greenville,NC,27858,US,35.5669899,-77.35207367,2022-12-18 06:25:18
Sonic,1907 GREENVILLE BLVD SE,,GREENVILLE,NC,27858,US,35.59706497,-77.33829498,2022-12-18 06:25:18
Sonic,3751 South Memorial Drive,,Greenville,NC,27834,US,35.56132126,-77.40459442,2022-12-18 06:25:18
Sonic,3510 Martin Luther King Jr,,New Bern,NC,28562,US,35.09883881,-77.10007477,2022-12-18 06:25:19
Sonic,404 N Berkeley,,Goldsboro,NC,27530,US,35.37334824,-77.94671631,2022-12-18 06:25:18
Sonic,2401 Forest Hills Road West,,Wilson,NC,27893,US,35.73275375,-77.95278168,2022-12-18 06:25:18
Sonic,2804 Sunset Avenue,,Rocky Mount,NC,27804,US,35.96278763,-77.83248138,2022-12-18 06:25:18
Sonic,1301 B East Main Street,,Havelock,NC,28532,US,34.86024094,-76.89632416,2022-12-18 06:25:19
Sonic,3745 Dix Hwy,,Lincoln Park,MI,48146,US,42.22993469,-83.1940155,2022-12-18 06:54:29
Sonic,10403 Ford Road,,Dearborn,MI,48126,US,42.32941818,-83.16000366,2022-12-18 06:25:13
Sonic,7725 North Wayne Road,,Westland,MI,48185,US,42.34392548,-83.385849,2022-12-18 06:25:14
Sonic,29622 7 Mile Road,,Livonia,MI,48152,US,42.4274025,-83.34151459,2022-12-18 06:25:13
Sonic,815 North Telegraph Road,,Monroe,MI,48162,US,41.93328857,-83.41003418,2022-12-18 06:54:29
Sonic,124 John R. Road,,Troy,MI,48083,US,42.53517151,-83.10623169,2022-12-18 06:25:13
Sonic,3270 Pontiac Trail,,Commerce,MI,48390,US,42.55791092,-83.44065857,2022-12-18 06:25:13
Sonic,55 Newbury Street,,Peabody,MA,01960,US,42.52537918,-70.99454498,2022-12-18 07:39:42
Sonic,630 Washngton Street,,Stoughton,MA,02072,US,42.12903976,-71.10151672,2022-12-18 06:25:08
Sonic,393 Putnam Pike,,Smithfield,RI,02917,US,41.87071228,-71.52431488,2022-12-18 06:25:08
Sonic,707 Grand Army Highway,,Somerset,MA,02726,US,41.72957611,-71.1677475,2022-12-18 06:25:08
Sonic,1134 Bald Hill Road,,Warwick,RI,02886,US,41.70783997,-71.49099731,2022-12-18 06:25:08
Sonic,1057 Boston Road,,Springfield,MA,01119,US,42.13840485,-72.50853729,2022-12-18 07:39:42
Sonic,90 Buckland Street,,Manchester,CT,06042,US,41.79918671,-72.5514679,2022-12-18 07:39:42
Sonic,1379 Farmington Avenue,,BRISTOL,CT,06010,US,41.69945526,-72.89769745,2022-12-18 07:39:42
Sonic,1799 Stringtown Road,,Grove City,OH,43123,US,39.87828827,-83.04465485,2022-12-18 07:39:42
Sonic,3250 Olentangy River Road,,Columbus,OH,43202,US,40.02712631,-83.02694702,2022-12-18 06:25:17
Sonic,2846 Stelzer Road,,Columbus,OH,43219,US,40.03143311,-82.90975189,2022-12-18 07:39:42
Sonic,6206 East Broad Street,,Columbus,OH,43213,US,39.98085785,-82.8359375,2022-12-18 07:39:42
Sonic,1031 Gemini Place,,Columbus,OH,43240,US,40.14686203,-82.98923492,2022-12-18 06:25:11
Sonic,1415 S. Court Street,,Circleville,OH,43113,US,39.58488464,-82.95248413,2022-12-18 07:39:42
Sonic,1334 Ety Pointe Drive,,Lancaster,OH,43130,US,39.73611832,-82.6397934,2022-12-18 07:39:42
Sonic,403 West Court Street,,Washington Court House,OH,43160,US,39.5328598,-83.44382477,2022-12-18 06:25:08
Sonic,8352 West Union Hills Drive,,Peoria,AZ,85382,US,33.65320206,-112.23892212,2022-12-18 06:25:21
Sonic,8359 W. Deer Valley Rd.,,Peoria,AZ,85382,US,33.68109512,-112.2390976,2022-12-18 06:25:21
Sonic,6753 West Happy Valley Road,,Peoria,AZ,85383,US,33.71172333,-112.20465851,2022-12-18 06:25:21
Sonic,13916 N. 67th Ave.,,Glendale,AZ,85306,US,33.61156845,-112.20317078,2022-12-16 15:27:44
Sonic,5151 W Peoria Ave,,Glendale,AZ,85302,US,33.5814743,-112.17012787,2022-12-16 15:27:50
Sonic,3701 N Aspen Ave,,Broken Arrow,OK,74012,US,36.08884811,-95.81456757,2022-12-16 15:27:50
Sonic,2361 E. Kenosha Street (E. Kenosha St & County Line Rd),,Broken Arrow,OK,74012,US,36.06045914,-95.76233673,2022-12-18 06:25:21
Sonic,3208 S Elm Place,,Broken Arrow,OK,74012,US,36.0194397,-95.79788971,2022-12-18 06:25:21
Sonic,3017 S 129th Street East Ave,,Tulsa,OK,74134,US,36.11569977,-95.83236694,2022-12-16 15:27:50
Sonic,10901 E 41st Street,,Tulsa,OK,74146,US,36.10488892,-95.85509491,2022-12-16 15:27:50
Sonic,955 East Bitters Road,,San Antonio,TX,78216,US,29.56214333,-98.47826385,2022-12-16 15:27:48
Sonic,2209 Nw Military Hwy,,Castle Hill,TX,78213,US,29.53392029,-98.52282715,2022-12-16 15:27:48
Sonic,6523 San Pedro Ave,,San Antonio,TX,78216,US,29.49812508,-98.49974823,2022-12-16 15:27:48
Sonic,4318 Vance Jackson Road,,San Antonio,TX,78230,US,29.51339149,-98.53481293,2022-12-16 15:27:48
Sonic,2314 Thousand Oaks,,San Antonio,TX,78232,US,29.58617401,-98.45191956,2022-12-16 15:27:48
Sonic,1435 Austin Hwy,,San Antonio,TX,78209,US,29.49310875,-98.43665314,2022-12-16 15:27:48
Sonic,14635 Huebner Road,,San Antonio,TX,78230,US,29.57478714,-98.54598999,2022-12-16 15:27:48
Sonic,2301 Blanco Rd,,San Antonio,TX,78212,US,29.46777725,-98.50819397,2022-12-18 06:25:20
Sonic,40 South Tuttle Road,,Springfield,OH,45503,US,39.92267227,-83.74607849,2022-12-18 06:25:11
Sonic,12381 Barker Cypress Rd,,Cypress,TX,77429,US,29.95927429,-95.67276764,2022-12-16 15:27:52
Sonic,26044 Nw Freeway (hwy 290),,Cypress,TX,77429,US,29.97369957,-95.69661713,2022-12-16 15:27:50
Sonic,13630 Cypress North Houston Rd,,Cypress,TX,77429,US,29.94781494,-95.62704468,2022-12-16 15:27:52
Sonic,12620 Jones Road,,Houston,TX,77070,US,29.95663643,-95.58468628,2022-12-16 15:27:42
Sonic,9020 Barker Cypress,,Cypress,TX,77433,US,29.90973473,-95.68550873,2022-12-16 15:27:52
Sonic,110 N. Walnut Creek Drive,,Mansfield,TX,76063,US,32.56447983,-97.13491058,2022-12-16 15:27:53
Sonic,1700 Highway 157 North,,Mansfield,TX,76063,US,32.59288788,-97.14976501,2022-12-16 15:27:54
Sonic,3120 E. Broad Street,,Mansfield,TX,76063,US,32.57313156,-97.08764648,2022-12-16 15:27:54
Sonic,8130 Matlock Road,,Arlington,TX,76002,US,32.61275482,-97.11826324,2022-12-16 15:27:54
Sonic,1400 Debbie Lane,,Arlington,TX,76002,US,32.60755539,-97.07957458,2022-12-16 15:27:52
Sonic,5501 S. Cooper Street,,Arlington,TX,76017,US,32.65739822,-97.13392639,2022-12-16 15:27:54
Sonic,4721 West Sublett Road,,Arlington,TX,76017,US,32.64691162,-97.18289948,2022-12-16 15:27:54
Sonic,5472 Fm Highway 1187,,Burleson,TX,76028,US,32.57938004,-97.24385834,2022-12-16 15:27:53
Sonic,10100 Olde Us Highway 20,,Rossford,OH,43460,US,41.54525757,-83.58979034,2022-12-18 07:39:42
Sonic,185 Mcmahan Boulevard,,Marion,OH,43302,US,40.58281708,-83.08338165,2022-12-18 07:39:42
Sonic,2925 Navarre Avenue,,Oregon,OH,43616,US,41.63737869,-83.47831726,2022-12-18 07:39:42
Sonic,3225 Secor Road,,Toledo,OH,43606,US,41.67933655,-83.62351227,2022-12-18 06:54:29
Sonic,1355 South Main Street,,Bryan,OH,43506,US,41.45942307,-84.55024719,2022-12-18 06:25:10
Sonic,66 South Raceway,,Avon,IN,46231,US,39.76224136,-86.32733917,2022-12-18 06:25:12
Sonic,418 Dan Jones Rd,,Plainfield,IN,46168,US,39.71304321,-86.38076019,2022-12-18 06:25:11
Sonic,1262 North Emerson Avenue,,Greenwood,IN,46143,US,39.63470078,-86.08344269,2022-12-18 06:25:10
Sonic,8060 Upland Bend,,Camby,IN,46113,US,39.64625549,-86.32850647,2022-12-18 06:25:12
Sonic,2321 East Markland Avenue,,Kokomo,IN,46902,US,40.47635651,-86.10054016,2022-12-18 06:25:10
Sonic,150 South Creasy Lane,,Lafayette,IN,47901,US,40.41527939,-86.83942413,2022-12-18 06:25:11
Sonic,2030 NORTH NATIONAL ROAD,,COLUMBUS,IN,47201,US,39.21905899,-85.88710022,2022-12-18 06:25:14
Sonic,1815 NORTH MICHIGAN AVENUE,,GREENSBURG,IN,47240,US,39.35398102,-85.50727844,2022-12-18 06:25:08
Sonic,40 Chloe Place,,Jackson,TN,38305,US,35.67355347,-88.78180695,2022-12-18 06:25:21
Sonic,112 University Parkway,,Jackson,TN,38305,US,35.69569016,-88.82512665,2022-12-18 06:25:21
Sonic,1592 N. Parkway,,Jackson,TN,38301,US,35.64815903,-88.80134583,2022-12-18 06:25:21
Sonic,505 Sonic Drive,,Medina,TN,38355,US,35.79642868,-88.78552246,2022-12-16 15:27:44
Sonic,2101 N. Highland,,Jackson,TN,38305,US,35.65950394,-88.8285675,2022-12-18 06:25:21
Sonic,1052 Vann Drive,,Jackson,TN,38305,US,35.66791534,-88.85798645,2022-12-18 06:25:21
Sonic,1559 S. Highland,,Jackson,TN,38301,US,35.57003403,-88.81530762,2022-12-18 06:25:21
Sonic,2349 East End Drive,,Humboldt,TN,38343,US,35.8291893,-88.9052124,2022-12-18 06:25:20
Sonic,1005 Henry Parkway Connector,,Mcdonough,GA,30253,US,33.42205811,-84.15535736,2022-12-18 07:39:42
Sonic,4541 North Henry Blvd.,,Stockbridge,GA,30281,US,33.54330826,-84.22727966,2022-12-18 07:39:42
Sonic,4499 Highway 20 Se,,Conyers,GA,30094,US,33.5680809,-84.01628113,2022-12-18 07:39:42
Sonic,1010 Pointe South Parkway,,Jonesboro,GA,30238,US,33.52156448,-84.42354584,2022-12-18 07:39:42
Sonic,5195 Jonesboro Road,,Lake City,GA,30260,US,33.61246872,-84.34896851,2022-12-18 07:39:42
Sonic,1204 W Taylor Street,,Griffin,GA,30223,US,33.24703217,-84.28206635,2022-12-18 06:25:21
Sonic,3900 Flat Shoals Parkway,,Decatur,GA,30034,US,33.69554138,-84.26218414,2022-12-18 07:39:42
Sonic,1375 Highway 138,,Conyers,GA,30013,US,33.65871811,-83.9994278,2022-12-18 06:54:29
Sonic,398 HARDING PLACE,,NASHVILLE,TN,37211,US,36.08072281,-86.72218323,2022-12-18 06:25:21
Sonic,1331 Bell Road,,Nashville,TN,37013,US,36.04672623,-86.6770401,2022-12-18 06:25:21
Sonic,1701 Murfreesboro Pike,,Nashville,TN,37217,US,36.10250854,-86.66603088,2022-12-18 06:25:21
Sonic,208 B. Wilson Pike Circle,,Brentwood,TN,37027,US,36.03223038,-86.78460693,2022-12-18 06:25:21
Sonic,2787 Murfreesboro Pike (Murfreesboro Pike & Morris Gentry Bv),,Antioch,TN,37013,US,36.06771469,-86.63217163,2022-12-16 15:27:52
Sonic,2501 Franklin Road,,Nashville,TN,37204,US,36.12435913,-86.7767868,2022-12-18 06:25:21
Sonic,444 Murfreesboro Road,,Nashville,TN,37210,US,36.1436348,-86.74554443,2022-12-18 06:25:21
Sonic,414 DONELSON PIKE,,DONELSON,TN,37214,US,36.15475845,-86.66588593,2022-12-16 15:27:46
Sonic,5080 BUTLER POINT ROAD,,JACKSONVILLE,FL,32256,US,30.24398422,-81.59873199,2022-12-16 15:27:38
Sonic,11110 Beach Boulevard,,Jacksonville,FL,32246,US,30.28622055,-81.53122711,2022-12-18 06:25:15
Sonic,1500 Fruit Cove Road,,Jacksonville,FL,32259,US,30.10462189,-81.62698364,2022-12-16 15:27:38
Sonic,9572 Regency Square Blvd North,,Jacksonville,FL,32225,US,30.32625389,-81.54856873,2022-12-18 06:25:15
Sonic,1801 Town Center Boulevard,,Orange Park,FL,32003,US,30.09807587,-81.71231079,2022-12-18 06:25:22
Sonic,6350 103rd Street,,Jacksonville,FL,32210,US,30.24802399,-81.7467804,2022-12-16 15:27:38
Sonic,908 Blanding Blvd,,Orange Park,FL,32065,US,30.14100075,-81.7697525,2022-12-18 06:25:18
Sonic,7045 Normandy Blvd.,,Jacksonville,FL,32205,US,30.301157,-81.76481628,2022-12-18 06:25:21
Sonic,463939 S.R. 200 A1A,,YULEE,FL,32097,US,30.6250248,-81.54051208,2022-12-18 06:25:15
Sonic,395 Charlie Smith Sr. Hwy,,Saint Mary's,GA,31558,US,30.75608826,-81.57665253,2022-12-18 06:25:15
Sonic,989 North Resler Road,,El Paso,TX,79912,US,31.86330414,-106.55845642,2022-12-18 06:25:08
Sonic,5930 Cromo Drive,,El Paso,TX,79912,US,31.81939507,-106.53964996,2022-12-16 15:27:37
Sonic,5328 Doniphan Drive,,El Paso,TX,79932,US,31.85288048,-106.58371735,2022-12-18 06:25:17
Sonic,7069 South Desert Boulevard,,Canutillo,TX,79835,US,31.91308975,-106.58384705,2022-12-18 06:25:08
Sonic,110 W Elm,,Anthony,NM,88021,US,32.00630569,-106.6072464,2022-12-18 06:25:08
Sonic,15140 S Blackbob Rd,,Olathe,KS,66062,US,38.85389709,-94.76159668,2022-12-16 15:27:52
Sonic,13730 S Blackbob Road,,Olathe,KS,66062,US,38.88050842,-94.76172638,2022-12-16 15:27:53
Sonic,915 S. Parker,,Olathe,KS,66061,US,38.8701973,-94.83493042,2022-12-16 15:27:52
Sonic,1265 E. 119th St,,Olathe,KS,66061,US,38.91223145,-94.79898071,2022-12-16 15:27:53
Sonic,13485 Switzer Road,,Overland Park,KS,66213,US,38.88417816,-94.69974518,2022-12-16 15:27:53
Sonic,8501 West 151st Street,,Stanley,KS,66223,US,38.85417557,-94.68399811,2022-12-16 15:27:51
Sonic,12090 Metcalf Avenue,,Overland Park,KS,66213,US,38.90870667,-94.66830444,2022-12-16 15:27:52
Sonic,909 N Webster,,Springhill,KS,66083,US,38.75204086,-94.8260498,2022-12-18 06:25:21
Sonic,3743 Wheeler Road,,Augusta,GA,30909,US,33.48476028,-82.10119629,2022-12-18 06:25:15
Sonic,122 Bellair Road,,Evans,GA,30809,US,33.51022339,-82.14312744,2022-12-18 06:25:15
Sonic,4436 Washington Road,,Evans,GA,30809,US,33.54345703,-82.14083099,2022-12-18 06:25:15
Sonic,5190 Wrightsboro Road,,Grovetown,GA,30813,US,33.45659256,-82.20089722,2022-12-18 06:25:15
Sonic,2505 Tobacco Road,,Hephzibah,GA,30815,US,33.37730408,-82.07324982,2022-12-18 06:25:15
Sonic,1187 Knox Avenue,,North Augusta,SC,29841,US,33.49959946,-81.95923615,2022-12-18 06:25:21
Sonic,3712 Mike Padgett Highway,,Augusta,GA,30906,US,33.36748505,-81.99572754,2022-12-18 06:25:15
Sonic,1036 Edgefield Rd,,North Augusta,SC,29841,US,33.57096863,-81.93888092,2022-12-18 06:25:21
Sonic,2829 El Cajon Boulevard,,San Diego,CA,92104,US,32.7549057,-117.13295746,2022-12-18 06:25:18
Sonic,3007 Highland Avenue,,National City,CA,91950,US,32.65888214,-117.08878326,2022-12-18 06:25:18
Sonic,5247 Kearny Villa Road,,San Diego,CA,92123,US,32.82964706,-117.1411438,2022-12-18 06:25:18
Sonic,10515 Mission Gorge Road,,Santee,CA,92071,US,32.83800507,-116.96856689,2022-12-18 06:25:18
Sonic,1215 Grand Avenue,,San Marcos,CA,92078,US,33.14205933,-117.19018555,2022-12-18 06:25:18
Sonic,101 Main Street,,Vista,CA,92084,US,33.20118713,-117.24273682,2022-12-18 06:25:18
Sonic,Military Base,"Building 51095, Basilone Rd",Camp Pendleton,CA,92055,US,33.38559723,-117.58042145,2022-12-18 06:25:12
Sonic,39490 Murrieta Hot Springs,,Murrieta,CA,92563,US,33.55763245,-117.1566925,2022-12-18 06:25:18
Sonic,8950 Walker Mill Road,,Capitol Heights,MD,20743,US,38.87059402,-76.85162354,2022-12-18 07:39:42
Sonic,3106 B Solomons Island Road,,Edgewater,MD,21037,US,38.94010162,-76.56517029,2022-12-18 07:39:42
Sonic,2205 West Patapsco Avenue,,Baltimore,MD,21230,US,39.25087738,-76.64566803,2022-12-18 06:25:17
Sonic,2204 Midway Road,,Plano,TX,75093,US,33.02960968,-96.84276581,2022-12-16 15:27:52
Sonic,3404 Coit Road,,Plano,TX,75023,US,33.04349518,-96.76959991,2022-12-16 15:27:52
Sonic,4025 Mapleshade Lane,,Plano,TX,75075,US,33.0032959,-96.76937103,2022-12-16 15:27:52
Sonic,3650 Frankford Road,,Dallas,TX,75287,US,32.99656677,-96.8533783,2022-12-16 15:27:48
Sonic,2449 Midway Road,,Carrollton,TX,75006,US,32.98097229,-96.84351349,2022-12-16 15:27:48
Sonic,7925 Coit Road,,Plano,TX,75024,US,33.08491516,-96.77236176,2022-12-16 15:27:51
Sonic,2601 PRESTON ROAD #2048,STONEBRIAR MALL,FRISCO,TX,75034,US,33.09910965,-96.81255341,2022-12-16 15:27:51
Sonic,1601 Custer Road,,Plano,TX,75075,US,33.02071762,-96.73422241,2022-12-16 15:27:49
Sonic,199 Route 22 East,,Green Brook,NJ,08812,US,40.60071564,-74.48013306,2022-12-18 06:25:11
Sonic,238 Lafayette Avenue,,Edison,NJ,08837,US,40.5462532,-74.33001709,2022-12-18 06:25:20
Sonic,4470 26th Avenue South,,Fargo,ND,58104,US,46.83983231,-96.8609848,2022-12-18 07:39:42
Sonic,1800 South Washington Street,,Grand Forks,ND,58201,US,47.90250397,-97.04589844,2022-12-18 07:39:42
Sonic,815 S. Tyler,,Covington,LA,70433,US,30.47203827,-90.11198425,2022-12-18 06:25:17
Sonic,330 Emerald Forest Blvd.,,Covington,LA,70433,US,30.44469452,-90.08026123,2022-12-16 15:27:46
Sonic,4610 Highway 22,,Mandeville,LA,70471,US,30.39988708,-90.1088562,2022-12-18 06:25:17
Sonic,68077 Highway 59,,Abita Springs,LA,70471,US,30.41554451,-90.0417099,2022-12-16 15:27:44
Sonic,43156 Highway 445,,Robert,LA,70454,US,30.52160072,-90.34552002,2022-12-18 06:25:15
Sonic,753 W. Pine Street,,Ponchatoula,LA,70454,US,30.4373436,-90.45287323,2022-12-18 06:25:17
Sonic,1600 Sw Railroad Avenue,,Hammond,LA,70403,US,30.48775101,-90.45735168,2022-12-18 06:25:17
Sonic,61105 Airport Road,,Slidell,LA,70460,US,30.31796455,-89.82649231,2022-12-16 15:27:44
Sonic,1159 W. Main,,League City,TX,77573,US,29.50423431,-95.10791016,2022-12-18 06:25:20
Sonic,2311 Fm 518 East,,League City,TX,77573,US,29.52244568,-95.07531738,2022-12-18 06:25:20
Sonic,2855 East League City,,League City,TX,77573,US,29.5073719,-95.03768158,2022-12-18 06:25:20
Sonic,310 W. Bay Area Blvd,,Webster,TX,77598,US,29.54720688,-95.13175201,2022-12-16 15:27:48
Sonic,4401 Highway 3,,Dickinson,TX,77539,US,29.45962715,-95.05124664,2022-12-18 06:25:20
Sonic,169 Fm 517 Road West,,Dickinson,TX,77539,US,29.44852257,-95.07940674,2022-12-18 06:25:20
Sonic,3221 Fm 528,,Friendswood,TX,77546,US,29.52152443,-95.16352844,2022-12-16 15:27:48
Sonic,2500 Bay Area Boulevard,,Clear Lake City,TX,77058,US,29.57548523,-95.1071701,2022-12-16 15:27:52
Sonic,1510 Cypress Creek Road,,Cedar Park,TX,78613,US,30.48018456,-97.83256531,2022-12-16 15:27:44
Sonic,2000 Bagdad Road,,Cedar Park,TX,78613,US,30.53145599,-97.84514618,2022-12-16 15:27:47
Sonic,11506 Ranch Road 620 North,,Austin,TX,78726,US,30.45441818,-97.82688141,2022-12-16 15:27:44
Sonic,6816 Mcneil Road,,Austin,TX,78729,US,30.43826675,-97.75883484,2022-12-16 15:27:44
Sonic,809 S Us Highway 183,,Leander,TX,78641,US,30.56741524,-97.8486557,2022-12-18 06:25:21
Sonic,11881 Jollyville Road,,Austin,TX,78759,US,30.42392349,-97.75597382,2022-12-16 15:27:44
Sonic,1320 Round Rock Avenue,,Round Rock,TX,78664,US,30.51234245,-97.69664001,2022-12-16 15:27:44
Sonic,1805 N. Mays,,Round Rock,TX,78664,US,30.52592468,-97.68636322,2022-12-16 15:27:49
Sonic,6025 North Fry Road,,Katy,TX,77449,US,29.85906029,-95.72000885,2022-12-16 15:27:52
Sonic,1955a Mason Road,,Katy,TX,77449,US,29.80145264,-95.75271606,2022-12-16 15:27:53
Sonic,1849 Fry Road,,Katy,TX,77449,US,29.79369926,-95.71947479,2022-12-16 15:27:53
Sonic,24002 CLAY ROAD A,,KATY,TX,77493,US,29.8319397,-95.79090881,2022-12-16 15:27:53
Sonic,8915 Fry Road,,Cypress,TX,77433,US,29.91083527,-95.72679138,2022-12-16 15:27:50
Sonic,1463 Moreland Avenue S.e.,,Atlanta,GA,30316,US,33.71330261,-84.35015869,2022-12-18 07:39:42
Sonic,6301 Rivers Avenue,,North Charleston,SC,29406,US,32.91054535,-80.02467346,2022-12-18 06:25:21
Sonic,9101 University Blvd.,,North Charleston,SC,29406,US,32.97509384,-80.06331635,2022-12-18 06:25:21
Sonic,122 St. James Ave.,,Goose Creek,SC,29445,US,32.99944687,-80.04000092,2022-12-18 06:25:22
Sonic,660 College Park Road,,Goose Creek,SC,29456,US,33.01517868,-80.08805847,2022-12-18 06:25:22
Sonic,1710 Sam Rittenburg Blvd,,Charleston,SC,29407,US,32.80471802,-80.01327515,2022-12-18 06:25:21
Sonic,3418 Shelby Ray Court,,Charleston,SC,29414,US,32.81910324,-80.06523132,2022-12-18 06:25:21
Sonic,9920 DORCHESTER ROAD,,SUMMERVILLE,SC,29456,US,32.95056152,-80.15824127,2022-12-18 06:25:21
Sonic,2868 Highway 17 North,,Mount Pleasant,SC,29466,US,32.85879898,-79.79672241,2022-12-18 06:25:22
Sonic,2339 North Main Street,,Longmont,CO,80501,US,40.20134354,-105.10321808,2022-12-18 06:25:11
Sonic,2223 Highway 7,,Erie,CO,80516,US,40.00072479,-105.01371002,2022-12-18 06:25:20
Sonic,857 S. Lincoln Boulevard,,Loveland,CO,80537,US,40.38459778,-105.07409668,2022-12-18 06:25:11
Sonic,809 First Street,,Fort Lupton,CO,80621,US,40.08060837,-104.8092804,2022-12-18 07:39:42
Sonic,2305 East 13th Street,,Loveland,CO,80537,US,40.40552139,-105.04398346,2022-12-18 06:25:18
Sonic,2400 Coalton Road,,Superior,CO,80027,US,39.92842865,-105.14019775,2022-12-18 06:25:10
Sonic,2440 West 128th Avenue,,Broomfield,CO,80234,US,39.92803192,-105.01767731,2022-12-18 06:25:20
Sonic,120 West 45th Street,,Loveland,CO,80538,US,40.43787766,-105.07791138,2022-12-18 06:25:11
Sonic,7031 W Broadway St,,Pearland,TX,77581,US,29.55965996,-95.32910156,2022-12-16 15:27:51
Sonic,10101 Broadway Street,,Pearland,TX,77584,US,29.55662918,-95.3766861,2022-12-16 15:27:51
Sonic,4020 S. Sam Houston Pkwy East,@ Cullen,Houston,TX,77047,US,29.59951401,-95.3549881,2022-12-16 15:27:51
Sonic,11309 Shadow Creek Parkway,,Pearland,TX,77581,US,29.58014107,-95.39471436,2022-12-16 15:27:51
Sonic,2815 E. Broadway Street,,Pearland,TX,77581,US,29.55540085,-95.26220703,2022-12-16 15:27:48
Sonic,17518 STATE HIGHWAY 6,,MANVEL,TX,77578,US,29.48039246,-95.3970871,2022-12-16 15:27:51
Sonic,11390 Monroe Road,,Houston,TX,77075,US,29.602108,-95.26683044,2022-12-16 15:27:48
Sonic,2723 FM 521 Rd,,Fresno,TX,77545,US,29.54727745,-95.44481659,2022-12-16 15:27:51
Sonic,6450 Cottage Hill Road,,Mobile,AL,36695,US,30.64042664,-88.19235992,2022-12-18 06:25:19
Sonic,7845 Moffett Road,,Semmes,AL,36575,US,30.76273537,-88.22704315,2022-12-18 06:25:18
Sonic,951 Montlimar Drive,,Mobile,AL,36609,US,30.67100716,-88.13308716,2022-12-18 06:25:19
Sonic,1461 Springhill Avenue,,Mobile,AL,36604,US,30.69204712,-88.07169342,2022-12-18 06:25:19
Sonic,619 Highway 43 South,,Saraland,AL,36571,US,30.8077507,-88.07207489,2022-12-18 06:25:18
Sonic,4725 Main Street,,Moss Point,MS,39563,US,30.41000366,-88.53965759,2022-12-18 06:25:21
Sonic,182 Winter Street,,Lucedale,MS,39452,US,30.91369438,-88.59654999,2022-12-18 06:25:18
Sonic,2412 Market Avenue,,Pascagoula,MS,39567,US,30.35944176,-88.54811096,2022-12-18 06:25:21
Sonic,695 South 30th Street,,Heath,OH,43056,US,40.03280258,-82.44376373,2022-12-18 07:39:42
Sonic,1025 E. Canal Street,,Nelsonville,OH,45764,US,39.45010757,-82.22099304,2022-12-18 07:39:42
Sonic,75 E. Stimson Avenue,,Athens,OH,45701,US,39.33189774,-82.0898819,2022-12-18 07:39:42
Sonic,4751 Jonesboro Road,,Union City,GA,30291,US,33.57022858,-84.54298401,2022-12-18 06:25:22
Sonic,100 Park Ridge Drive,,Villa Rica,GA,30180,US,33.73034286,-84.93470001,2022-12-18 06:25:08
Sonic,1806 Citrus Blvd,,Leesburg,FL,34748,US,28.8364563,-81.8904953,2022-12-18 06:25:10
Sonic,32202 Hempstead Highway Bldg B,Bldg B,Hockley,TX,77447,US,30.01181221,-95.80073547,2022-12-16 15:27:50
Sonic,1509 East 11th Street,,Siler City,NC,27344,US,35.73384857,-79.44342041,2022-12-18 06:25:17
Sonic,6689 Covington Hwy,,Lithonia,GA,30058,US,33.71694183,-84.14446259,2022-12-18 07:39:42
Sonic,1016 South Abilene Street,,Aurora,CO,80012,US,39.69892502,-104.82617188,2022-12-18 07:39:42
Sonic,11658 E. Colfax Avenue,,Aurora,CO,80010,US,39.73970795,-104.85253143,2022-12-18 07:39:42
Sonic,7739 E Iliff Avenue,,Denver,CO,80231,US,39.67528152,-104.89757538,2022-12-18 07:39:42
Sonic,18501 E Hampden,,Aurora,CO,80013,US,39.65345001,-104.7716217,2022-12-18 06:25:20
Sonic,4403 S. Tamarac Parkway Bldg 2,Bldg 2,Denver,CO,80237,US,39.63711929,-104.89455414,2022-12-18 07:39:42
Sonic,4305 Chambers Road,,Denver,CO,80239,US,39.77419662,-104.81073761,2022-12-18 07:39:42
Sonic,3555 Quebec Street,,Denver,CO,80207,US,39.76664352,-104.90396118,2022-12-18 07:39:42
Sonic,4671 North Tower Road,,Denver,CO,80249,US,39.78111649,-104.77251434,2022-12-18 07:39:42
Sonic,701 North Riverside Drive,,Clarksville,TN,37040,US,36.53778839,-87.36677551,2022-12-18 06:25:21
Sonic,1805 Madison St.,,Clarksville,TN,37043,US,36.5142746,-87.31137085,2022-12-18 06:25:19
Sonic,50 Dover Crossing,,Clarksville,TN,37042,US,36.55194473,-87.39802551,2022-12-18 06:25:21
Sonic,2219 Madison Street,,Clarksville,TN,37043,US,36.50980759,-87.27622986,2022-12-18 06:25:19
Sonic,1761 Wilma Rudolph Boulevard,,Clarksville,TN,37042,US,36.55198669,-87.32611847,2022-12-18 06:25:21
Sonic,1970 Fort Campbell Blvd,,Clarksville,TN,37042,US,36.59261703,-87.41753387,2022-12-18 06:25:21
Sonic,3829 Trenton Road,,Clarksville,TN,37040,US,36.62650299,-87.31697083,2022-12-18 06:25:21
Sonic,14625 Ft. Campbell Blvd.,,Oak Grove,KY,42262,US,36.6687851,-87.44524384,2022-12-18 06:25:21
Sonic,312 Columbia Avenue,,Lexington,SC,29072,US,33.98740005,-81.24248505,2022-12-18 06:25:20
Sonic,2501 Augusta Highway,,Lexington,SC,29072,US,33.97777939,-81.31143188,2022-12-18 06:25:21
Sonic,1857 Southlake Drive,,Lexington,SC,29073,US,33.90924072,-81.22369385,2022-12-18 06:25:21
Sonic,3955 Platt Springs Road,,West Columbia,SC,29170,US,33.93959427,-81.14627075,2022-12-18 06:25:21
Sonic,287 Harbison Boulevard,,Columbia,SC,29212,US,34.07353592,-81.15782166,2022-12-18 06:25:20
Sonic,2424 Augusta Road,,West Columbia,SC,29169,US,33.98276901,-81.10044098,2022-12-18 06:25:21
Sonic,3036 BROAD RIVER ROAD,,COLUMBIA,SC,29210,US,34.04956055,-81.10475922,2022-12-18 06:25:20
Sonic,1150 Dutch Fork Road,,Irmo,SC,29063,US,34.12594986,-81.22274017,2022-12-18 06:25:20
Sonic,190 Athens Highway,,Loganville,GA,30052,US,33.84952927,-83.9193573,2022-12-18 06:54:29
Sonic,2222 E. Broadway,,Tucson,AZ,85719,US,32.22109604,-110.93857574,2022-12-18 06:25:15
Sonic,3800 North First Avenue,,Tucson,AZ,85719,US,32.27597427,-110.96055603,2022-12-18 06:25:15
Sonic,1001 W. Grant Road,,Tucson,AZ,85705,US,32.24984741,-110.98803711,2022-12-18 06:25:15
Sonic,3255 W. Orange Grove Road,,Tucson,AZ,85741,US,32.32252121,-111.03591156,2022-12-18 06:25:15
Sonic,198 W. VALENCIA,,TUCSON,AZ,85706,US,32.1345253,-110.97164154,2022-12-18 06:25:15
Sonic,8000 EAST GOLF LINKS,,TUCSON,AZ,85730,US,32.19135666,-110.82217407,2022-12-18 06:25:15
Sonic,7940 N Thorneydale Road,,Tucson,AZ,85741,US,32.35042191,-111.04619598,2022-12-18 06:25:17
Sonic,9439 E Broadway Blvd,,Tucson,AZ,85710,US,32.22134399,-110.7905426,2022-12-18 06:25:15
Sonic,1420 Mchenry Avenue,,Modesto,CA,95350,US,37.66439438,-120.99326324,2022-12-18 07:39:42
Sonic,1308 West Girard Avenue,,Philadelphia,PA,19123,US,39.97067261,-75.15785217,2022-12-18 06:25:14
Sonic,112 Black Horse Pike,,Audubon,NJ,08106,US,39.8913269,-75.08914948,2022-12-18 06:25:14
Sonic,2610 EAST MACDADE BOULEVARD,,HOLMES,PA,19043,US,39.89917374,-75.30503845,2022-12-18 06:25:14
Sonic,1101 Route 130 South,,Cinnaminson,NJ,08077,US,39.99787903,-74.99203491,2022-12-18 06:25:14
Sonic,2405 EASTON ROAD,,WILLOW GROVE,PA,19090,US,40.16742706,-75.12512207,2022-12-18 06:25:14
Sonic,2901 SWEDE ROAD,,NORRISTOWN,PA,19401,US,40.14572906,-75.31864166,2022-12-18 06:25:14
Sonic,1498 Route 38 East,,Hainesport,NJ,08036,US,39.98148727,-74.81056213,2022-12-18 06:25:14
Sonic,37 WEST RIDGE PIKE,,Royersford,PA,19468,US,40.21667862,-75.50344086,2022-12-18 06:25:08
Sonic,6031 Route 30,,Greensburg,PA,15601,US,40.30660629,-79.57608032,2022-12-18 07:39:42
Sonic,1010 Village Center Drive,,Tarentum,PA,15084,US,40.56837082,-79.80298615,2022-12-18 07:39:42
Sonic,1027 Washington Pike,,Bridgeville,PA,15017,US,40.36543274,-80.10966492,2022-12-18 07:39:42
Sonic,705 Walmart Drive,,Uniontown,PA,15401,US,39.91365051,-79.75379181,2022-12-18 07:39:42
Sonic,2611 Washington Road,,North Strabane Township,PA,15317,US,40.25629425,-80.15214539,2022-12-18 07:39:42
Sonic,361 Suncrest Towne Centre,,Morgantown,WV,26505,US,39.65402985,-79.94169617,2022-12-18 07:39:42
Sonic,1505 Murfreesboro Road,,Franklin,TN,37068,US,35.91394806,-86.82062531,2022-12-16 15:27:51
Sonic,4101 Mallory Lane,,Franklin,TN,37067,US,35.93185043,-86.82487488,2022-12-16 15:27:51
Sonic,1718 Carouthers Parkway,,Brentwood,TN,37027,US,35.9632988,-86.79978943,2022-12-16 15:27:54
Sonic,3021 Captain Freeman Parkway,,Franklin,TN,37064,US,35.8651886,-86.84362793,2022-12-16 15:27:51
Sonic,1618 Franklin Rd,,Brentwood,TN,37027,US,35.97404861,-86.83187103,2022-12-18 06:25:21
Sonic,401 Hillsboro Road,,Franklin,TN,37064,US,35.92847443,-86.87548828,2022-12-16 15:27:51
Sonic,7230 Nolensville Road,,Nolensville,TN,37135,US,35.96076965,-86.67293549,2022-12-16 15:27:53
Sonic,1103 Battlewood Dr,,Franklin,TN,37069,US,35.99744797,-86.8850174,2022-12-16 15:27:50
Sonic,6126 Sienna Ranch Road,,Missouri City,TX,77459,US,29.54195213,-95.54919434,2022-12-16 15:27:53
Sonic,5805 Highway 6 South,,Missouri City,TX,77459,US,29.56969833,-95.56712341,2022-12-16 15:27:53
Sonic,15917-c S Post Oak,,Houston,TX,77053,US,29.59407043,-95.4671402,2022-12-16 15:27:51
Sonic,123 Dulles Avenue,,Stafford,TX,77477,US,29.62612343,-95.58226013,2022-12-16 15:27:47
Sonic,13535 Post Oak Road,,Houston,TX,77045,US,29.62810898,-95.46438599,2022-12-16 15:27:51
Sonic,12260 Southwest Freeway,,Stafford,TX,77477,US,29.64392662,-95.5774231,2022-12-16 15:27:47
Sonic,16710 West Grand Parkway S.,,Sugar Land,TX,77479,US,29.57485008,-95.68234253,2022-12-18 06:25:20
Sonic,1110 Eldridge,,Sugar Land,TX,77478,US,29.6364994,-95.61824036,2022-12-16 15:27:47
Sonic,11511 S Highway 6,,Sugar Land,TX,77478,US,29.65052986,-95.64971924,2022-12-16 15:27:47
Sonic,23700 Southwest Freeway,,Rosenberg,TX,77471,US,29.54524994,-95.74727631,2022-12-18 06:25:20
Sonic,3763 Sullivan Street,,Madison,AL,35758,US,34.67966461,-86.75108337,2022-12-16 15:27:38
Sonic,11396 County Line Road,,Madison,AL,35758,US,34.70749283,-86.78743744,2022-12-16 15:27:38
Sonic,7871 Highway 72 West,,Madison,AL,35758,US,34.75276184,-86.7438736,2022-12-18 06:25:20
Sonic,907 Jordan Lane Nw,,Huntsville,AL,35816,US,34.7339859,-86.62802124,2022-12-18 06:25:17
Sonic,3222 Bob Wallace Ave.,,Huntsville,AL,35805,US,34.71205521,-86.61017609,2022-12-18 06:25:17
Sonic,2120 Sparkman Dr Nw,,Huntsville,AL,35810,US,34.76327896,-86.59276581,2022-12-18 06:25:17
Sonic,7230 Bailey Cove Road,,Huntsville,AL,35802,US,34.66985321,-86.53981018,2022-12-18 06:25:17
Sonic,11606 Memorial Parkway Sw,,Huntsville,AL,35803,US,34.61618805,-86.56808472,2022-12-18 06:25:17
Sonic,4233 Egan Road,,Savage,MN,55378,US,44.74586868,-93.3328476,2022-12-18 06:54:29
Sonic,2101 American Boulevard West,,Bloomington,MN,55423,US,44.85815811,-93.30602264,2022-12-18 06:54:29
Sonic,4910 Central Avenue,,Columbia Heights,MN,55421,US,45.05778122,-93.24826813,2022-12-18 06:54:29
Sonic,1960 Suburban Avenue,,Saint Paul,MN,55119,US,44.94944763,-93.01759338,2022-12-18 06:54:29
Sonic,229 Carson Street,,Elk River,MN,55330,US,45.30339432,-93.556427,2022-12-18 07:39:42
Sonic,906 North Highway 71,,Anderson,MO,64831,US,43.14703751,-95.1448288,2022-12-18 07:39:42
Sonic,201 West Nw Highway,,Grapevine,TX,76051,US,32.94066238,-97.0795517,2022-12-16 15:27:49
Sonic,2240 Hall - Johnson Road,,Grapevine,TX,76051,US,32.89378738,-97.10243988,2022-12-16 15:27:50
Sonic,3050 Highway 360,,EULESS,TX,76039,US,32.88096237,-97.0775528,2022-12-16 15:27:50
Sonic,3000 Grapevine Mills Pkwy #fc7,,Grapevine,TX,76051,US,32.96547318,-97.04386139,2022-12-16 15:27:49
Sonic,4700 Colleyville Boulevard,,Colleyville,TX,76034,US,32.87865829,-97.15911865,2022-12-16 15:27:50
Sonic,301 N. Main,,Euless,TX,76039,US,32.840271,-97.08303833,2022-12-16 15:27:50
Sonic,201 North Denton Tap Road,,Coppell,TX,75019,US,32.97322464,-96.99436951,2022-12-16 15:27:49
Sonic,180 Davis Boulevard,,Southlake,TX,76092,US,32.93568039,-97.18637085,2022-12-16 15:27:50
Sonic,7 South Center Street,,Winder,GA,30680,US,33.99168396,-83.72529602,2022-12-18 06:25:12
Sonic,6637 Highway 53 East,,Dawsonville,GA,30534,US,34.36172867,-84.03390503,2022-12-18 07:39:42
Sonic,590 S. Barrington Road,,Streamwood,IL,60107,US,42.0206604,-88.14524841,2022-12-18 06:25:10
Sonic,7224 Highway 45 North,,Nettleton,MS,38858,US,42.34580994,-88.00469208,2022-12-18 06:25:10
Sonic,7065 EASTCHASE PARKWAY,,MONTGOMERY,AL,36117,US,32.36063766,-86.16772461,2022-12-18 06:25:18
Sonic,5801 Atlanta Highway,,Montgomery,AL,36117,US,32.3826561,-86.19875336,2022-12-18 06:25:18
Sonic,2025 Carter Hill Road,,Montgomery,AL,36106,US,32.35874176,-86.28270721,2022-12-18 06:25:18
Sonic,1901 Coliseum Blvd,,Montgomery,AL,36110,US,32.41797256,-86.2691803,2022-12-18 06:25:18
Sonic,77 Dudley Drive,,Millbrook,AL,36054,US,32.51501846,-86.37717438,2022-12-18 06:25:16
Sonic,1829 E. Main Street,,Prattville,AL,36067,US,32.4609642,-86.41956329,2022-12-18 06:25:16
Sonic,1703 South College Street,,Auburn,AL,36832,US,32.5724144,-85.49907684,2022-12-18 06:25:17
Sonic,1140 Us Highway 231 S,,Troy,AL,36081,US,31.78309059,-85.95388794,2022-12-18 06:25:17
Sonic,2463 Sheridan Boulevard,,Edgewater,CO,80214,US,39.75179291,-105.05366516,2022-12-18 06:25:21
Sonic,1300 Ssouth Sheridian Blvd,,Denver,CO,80232,US,39.69286346,-105.05271912,2022-12-18 06:25:19
Sonic,6375 Sheridan Boulevard,,Arvada,CO,80003,US,39.81180191,-105.05405426,2022-12-18 06:25:10
Sonic,2611 South Broadway,,Denver,CO,80210,US,39.66914749,-104.98792267,2022-12-18 07:39:42
Sonic,8711 Washington Street,,Thornton,CO,80229,US,39.8547554,-104.97866058,2022-12-16 15:27:51
Sonic,8733 Pulaski Highway,,Baltimore,MD,21237,US,39.33675003,-76.48123169,2022-12-18 06:25:17
Sonic,1631 East Joppa Road,,Towson,MD,21286,US,39.39668655,-76.56449127,2022-12-18 06:25:15
Sonic,2027 York Road,,Timonium,MD,21093,US,39.43716049,-76.62413788,2022-12-18 06:25:14
Sonic,1090 South Randall Road,,Algonquin,IL,60102,US,42.15927887,-88.336586,2022-12-18 06:25:10
Sonic,4275 Atlanta Hwy,,Athens,GA,30606,US,33.94006729,-83.48329926,2022-12-18 06:54:29
Sonic,4340 Lexington Road,,Athens,GA,30605,US,33.93292236,-83.31273651,2022-12-18 06:25:12
Sonic,118 STEVEN B. TANGER BLVD.,,COMMERCE,GA,30529,US,34.25818253,-83.46600342,2022-12-18 07:39:42
Sonic,931 Folly Road,,James Island,SC,29412,US,32.7326889,-79.96987152,2022-12-18 06:25:21
Sonic,801 East Dixie Drive,,West Carrollton,OH,45449,US,39.67679977,-84.23995972,2022-12-18 06:25:08
Sonic,360 E. Centerton Blvd.,,Centerton,AR,72719,US,36.35878372,-94.28063965,2022-12-18 06:25:20
Sonic,208 S Walton Blvd,,Bentonville,AR,72712,US,36.37098312,-94.22200012,2022-12-18 06:25:20
Sonic,2502 S.e. 14th Street,,Bentonville,AR,72712,US,36.3561058,-94.1831131,2022-12-18 06:25:20
Sonic,4414 W Walnut,,Rogers,AR,72756,US,36.33454514,-94.17925262,2022-12-16 15:27:42
Sonic,#2 Sugar Creek Center,,Bella Vista,AR,72714,US,36.44044113,-94.2377243,2022-12-18 06:25:20
Sonic,923 W. Walnut,,Rogers,AR,72756,US,36.33394241,-94.12831116,2022-12-16 15:27:42
Sonic,303 W Hudson,,Rogers,AR,72756,US,36.35545731,-94.11766052,2022-12-16 15:27:42
Sonic,200 East New Hope Road,,Rogers,AR,72758,US,36.31102753,-94.11631775,2022-12-16 15:27:49
Sonic,881 S Greenriver Road,,Evansville,IN,47715,US,37.96422195,-87.49331665,2022-12-18 06:25:10
Sonic,830 N Burkhardt,,Evansville,IN,47715,US,37.98423004,-87.47457886,2022-12-18 06:25:10
Sonic,2200 Covert Avenue,,Evansville,IN,47714,US,37.95552826,-87.52416992,2022-12-18 06:25:12
Sonic,3433 North Green River Road,,Evansville,IN,47715,US,38.00941849,-87.491539,2022-12-18 06:25:10
Sonic,7966 Maken Drive,,Newburgh,IN,47630,US,37.97609329,-87.39500427,2022-12-18 06:25:10
Sonic,4920 West Lloyd Expressway,,Evansville,IN,47712,US,37.97616959,-87.63525391,2022-12-18 06:25:12
Sonic,2150 U.s. Highway 60 East,,Henderson,KY,42420,US,37.8600235,-87.56581116,2022-12-18 06:25:17
Sonic,3107 Frederica Street,,Owensboro,KY,42301,US,37.7428093,-87.11600494,2022-12-18 06:25:16
Sonic,4405 East Johnson Avenue,,Jonesboro,AR,72401,US,35.86254501,-90.6448288,2022-12-18 06:54:29
Sonic,8100 Highway 49 North,,Brookland,AR,72417,US,35.90775681,-90.58699036,2022-12-18 06:54:29
Sonic,1215 E. Johnson Avenue,,Jonesboro,AR,72401,US,35.84481049,-90.69023895,2022-12-18 06:25:21
Sonic,3330 E. Nettleton,,Jonesboro,AR,72401,US,35.82878494,-90.66513062,2022-12-18 06:54:29
Sonic,2604 Stadium Boulevard (Red Wolf Blvd & Race St),,Jonesboro,AR,72401,US,35.81369019,-90.66864014,2022-12-18 06:25:20
Sonic,724 Gee Street,,Jonesboro,AR,72401,US,35.83618546,-90.72536469,2022-12-18 06:25:21
Sonic,715 Parker Road,,Jonesboro,AR,72401,US,35.81041336,-90.72390747,2022-12-18 06:25:20
Sonic,10314 Highway 63 North,,Bono,AR,72416,US,35.89778137,-90.80065155,2022-12-18 06:25:17
Sonic,5955 N Academy Blvd.,,Colorado Springs,CO,80918,US,38.91774368,-104.78616333,2022-12-18 06:25:12
Sonic,4457 Austin Bluff Parkway,,Colorado Springs,CO,80918,US,38.89582443,-104.74833679,2022-12-18 06:25:12
Sonic,1465 Jamboree Drive,,Colorado Springs,CO,80920,US,38.94766998,-104.79979706,2022-12-18 06:25:12
Sonic,5250 New Car Drive,,Colorado Springs,CO,80918,US,38.93917847,-104.72989655,2022-12-18 06:25:22
Sonic,317 E Fillmore Street,,Colorado Springs,CO,80907,US,38.87386322,-104.8171463,2022-12-18 06:25:12
Sonic,878 W Garden Of The Gods,,Colorado Springs,CO,80907,US,38.89715958,-104.84316254,2022-12-18 06:25:12
Sonic,6065 Constitution Avenue,,Colorado Springs,CO,80915,US,38.87024689,-104.71515656,2022-12-18 06:25:22
Sonic,606 North Chelton,,Colorado Springs,CO,80909,US,38.84151459,-104.76690674,2022-12-18 06:25:18
Sonic,945 Jefferson Road,,Rochester,NY,14623,US,43.08664322,-77.61425781,2022-12-18 07:39:42
Sonic,999 East Ridge Road,,Rochester,NY,14621,US,43.19677353,-77.59133911,2022-12-18 07:39:42
Sonic,3601 Union Road,,Cheektowaga,NY,14225,US,42.91228104,-78.75360107,2022-12-18 07:39:42
Sonic,1876 Elmwood Avenue,,Buffalo,NY,14207,US,42.9486351,-78.8784256,2022-12-18 07:39:42
Sonic,3808 Brewerton Road,,North Syracuse,NY,13212,US,43.11955643,-76.14302826,2022-12-18 07:39:42
Sonic,3170 Erie Boulevard East,,Dewitt,NY,13214,US,43.05321884,-76.07558441,2022-12-18 07:39:42
Sonic,121 Western Boulevard,,Watertown,NY,13601,US,43.97777176,-75.94516754,2022-12-18 06:54:29
Sonic,1103 Upper Front Street,,Chenango,NY,13905,US,42.14673233,-75.9021225,2022-12-18 07:39:42
Sonic,471 Western Boulevard,,Jacksonville,NC,28546,US,34.7751503,-77.39098358,2022-12-18 06:25:19
Sonic,903 LEJEUNE BOULEVARD,,JACKSONVILLE,NC,28540,US,34.74861526,-77.41400909,2022-12-18 06:25:19
Sonic,261 Freedom Way,,Jacksonville,NC,28544,US,34.71686935,-77.32208252,2022-12-18 06:25:19
Sonic,5043 Highway 70,,Morehead City,NC,28557,US,34.73559189,-76.79730988,2022-12-18 06:25:19
Sonic,4206 Market Street,,Wilmington,NC,28403,US,34.24173355,-77.89315033,2022-12-18 06:25:19
Sonic,1632 Lemon Street,,Anaheim,CA,92801,US,33.85863113,-117.91927338,2022-12-18 06:25:10
Sonic,441 North Placentia Avenue,,Fullerton,CA,92831,US,33.87479782,-117.8793335,2022-12-18 06:25:10
Sonic,40 RIO RANCHO ROAD,,POMONA,CA,91766,US,34.03025436,-117.75939941,2022-12-18 06:25:10
Sonic,17811 Beach Boulevard,Ste. 101,Huntington Beach,CA,92647,US,33.70388412,-117.98955536,2022-12-18 06:25:10
Sonic,3531 South Fairview Street,,Santa Ana,CA,92704,US,33.69958496,-117.90730286,2022-12-18 06:25:10
Sonic,3095 Harbor Boulevard,,Costa Mesa,CA,92626,US,33.6823082,-117.91984558,2022-12-18 06:25:10
Sonic,"1202 Magnolia Avenue, Bldg C",,Corona,CA,92881,US,33.86449432,-117.54383087,2022-12-18 06:25:12
Sonic,3518 South Timberline Road,,Fort Collins,CO,80525,US,40.53836823,-105.03768158,2022-12-18 06:25:18
Sonic,1301 W. Elizabeth,,Fort Collins,CO,80521,US,40.57435989,-105.09899139,2022-12-18 06:25:11
Sonic,1150 Main Street,,Windsor,CO,80550,US,40.48005676,-104.91819,2022-12-18 06:25:11
Sonic,5920 West 10th Street,,Greeley,CO,80634,US,40.42073441,-104.77590942,2022-12-18 06:25:11
Sonic,3300 23rd Avenue,,Evans,CO,80620,US,40.38269806,-104.71492767,2022-12-18 07:39:42
Sonic,11110 Midlothian Turnpike,,Richmond,VA,23235,US,37.50682449,-77.6024704,2022-12-18 06:25:20
Sonic,813 WEST CARY STREET,,RICHMOND,VA,23220,US,37.54463577,-77.45237732,2022-12-18 06:25:20
Sonic,13900 Raised Antler Circle,,Midlothian,VA,23112,US,37.40356827,-77.66236115,2022-12-18 06:25:20
Sonic,12201 BERMUDA CROSSROAD LANE,,CHESTER,VA,23831,US,37.3601265,-77.41596985,2022-12-18 06:25:20
Sonic,6555 Mechanicsville Turnpike,,Mechanicsville,VA,23111,US,37.61240387,-77.33488464,2022-12-18 06:25:19
Sonic,109 Jones Franklin Road,,Raleigh,NC,27606,US,35.78420258,-78.7212677,2022-12-18 06:25:18
Sonic,4648 Atlantic Avenue,,Raleigh,NC,27604,US,35.84764862,-78.60127258,2022-12-18 06:25:18
Sonic,700 Cayman Avenue,,Holly Springs,NC,27540,US,35.661129,-78.83534241,2022-12-18 06:25:18
Sonic,1131 North Brightleaf Blvd,,Smithfield,NC,27577,US,35.51889038,-78.31671906,2022-12-18 06:25:18
Sonic,1240 North Arendell Avenue,,Zebulon,NC,27597,US,35.83782578,-78.32292175,2022-12-18 06:25:18
Sonic,304 SOUTH MAIN STREET,,ROLESVILLE,NC,27571,US,35.91978073,-78.46378326,2022-12-18 06:25:18
Sonic,1925 South Main Street,,Wake Forest,NC,27587,US,35.94971848,-78.53003693,2022-12-18 06:25:18
Sonic,12508 Capital Blvd,,Wake Forest,NC,27587,US,35.98702621,-78.53340912,2022-12-18 06:25:18
Sonic,441 E. Renfro Street,,Burleson,TX,76028,US,32.54454041,-97.31261444,2022-12-16 15:27:53
Sonic,109 Elk Drive,,Burleson,TX,76028,US,32.52529526,-97.34545135,2022-12-16 15:27:52
Sonic,725 Ne Alsbury Boulevard,,Burleson,TX,76028,US,32.56302261,-97.32549286,2022-12-16 15:27:52
Sonic,105 North Crowley Road,,Crowley,TX,76036,US,32.57929993,-97.35372162,2022-12-16 15:27:52
Sonic,3313 South I-35 West,,Burleson,TX,76028,US,32.46412659,-97.26464844,2022-12-18 06:25:19
Sonic,315 N. Broadway,,Joshua,TX,76058,US,32.46707153,-97.38506317,2022-12-16 15:27:53
Sonic,117 Sycamore School Road,,Fort Worth,TX,76134,US,32.63484955,-97.32317352,2022-12-16 15:27:52
Sonic,175 N. Valley Parkway (N Valley Pkwy &  W Main St),,Lewisville,TX,75067,US,33.04313278,-97.02005005,2022-12-16 15:27:53
Sonic,380 E Round Grove Road,,Lewisville,TX,75067,US,33.00415802,-96.98144531,2022-12-16 15:27:49
Sonic,1413 West F.m. 407,,Lewisville,TX,75067,US,33.07181931,-97.03106689,2022-12-16 15:27:53
Sonic,1412 W Hebron Parkway,,Carrollton,TX,75006,US,33.02092361,-96.92884064,2022-12-16 15:27:51
Sonic,2541 Flower Mound Road,,Flower Mound,TX,75028,US,33.01308441,-97.06854248,2022-12-16 15:27:54
Sonic,2925 Crosstimbers,,Flower Mound,TX,75028,US,33.03633881,-97.07518005,2022-12-16 15:27:53
Sonic,6210 Morriss Road,,Flower Mound,TX,75028,US,33.07002258,-97.06131744,2022-12-16 15:27:53
Sonic,799 Team Blvd,,Smyrna,TN,37167,US,35.98069382,-86.56256866,2022-12-16 15:27:53
Sonic,1889 Almaville Road,,Smyrna,TN,37167,US,35.93148804,-86.53330231,2022-12-16 15:27:53
Sonic,791 Nissan Drive,,Smyrna,TN,37167,US,35.97421646,-86.49194336,2022-12-16 15:27:53
Sonic,5210 Murfreesboro Road,,La Vergne,TN,37086,US,36.01836777,-86.5717926,2022-12-16 15:27:53
Sonic,1129 Fortress Blvd,,Murfreesboro,TN,37128,US,35.86518478,-86.46475983,2022-12-16 15:27:53
Sonic,650 Cheney Highway,,Titusville,FL,32780,US,28.55790138,-80.80838776,2022-12-18 06:25:12
Sonic,457 Charles Dimmock Parkway,,Colonial Heights,VA,23834,US,37.2533493,-77.38401031,2022-12-18 06:25:19
Sonic,1100 Blalock,,Houston,TX,77055,US,29.78682709,-95.52127838,2022-12-16 15:27:51
Sonic,8404 Westheimer Road,,Houston,TX,77063,US,29.73791122,-95.51455688,2022-12-16 15:27:47
Sonic,5902 Hillcroft St,,Houston,TX,77036,US,29.7183075,-95.50111389,2022-12-16 15:27:47
Sonic,1201 W. Sam Houston Parkway No,,Houston,TX,77043,US,29.79131508,-95.5643158,2022-12-16 15:27:51
Sonic,5195 W 34th St,,Houston,TX,77092,US,29.81910515,-95.4658432,2022-12-16 15:27:51
Sonic,4395 W. Sam Houston Parkway N,,Houston,TX,77043,US,29.83114052,-95.56480408,2022-12-16 15:27:51
Sonic,1101 Dairy Ashford Street,,Houston,TX,77079,US,29.77993965,-95.60702515,2022-12-16 15:27:51
Sonic,3000 N Durham Drive,,Houston,TX,77018,US,29.81411552,-95.41062164,2022-12-16 15:27:51
Sonic,9500 North Federal Blvd,,Federal Heights,CO,80260,US,39.8692894,-105.02445221,2022-12-18 06:25:20
Sonic,10051 Wadsworth Parkway,,Westminster,CO,80021,US,39.87872314,-105.09770966,2022-12-18 06:25:10
Sonic,3605 East 104th Avenue,,Thornton,CO,80233,US,39.88551712,-104.9433136,2022-12-18 06:25:22
Sonic,950 East 120th Avenue,,Northglenn,CO,80233,US,39.91347504,-104.97518921,2022-12-18 06:25:20
Sonic,25502 Jeronimo Road,,Mission Viejo,CA,92691,US,33.62238312,-117.68515015,2022-12-18 06:25:12
Sonic,15471 West Bell Road,,Surprise,AZ,85374,US,33.63820267,-112.3927536,2022-12-16 15:27:44
Sonic,17181 West Greenway,,Surprise,AZ,85388,US,33.62379837,-112.42856598,2022-12-18 06:25:21
Sonic,13924 N LITCHFIELD ROAD,,SURPRISE,AZ,85379,US,33.61034393,-112.35972595,2022-12-16 15:27:44
Sonic,13751 WEST GLENDALE AVENUE,,GLENDALE,AZ,85307,US,33.53643417,-112.35559082,2022-12-16 15:27:44
Sonic,10969 NORTH 83RD AVENUE,,PEORIA,AZ,85345,US,33.58430481,-112.23698425,2022-12-16 15:27:44
Sonic,26046 116th Avenue Southeast,,Kent,WA,98030,US,47.36758041,-122.18603516,2022-12-18 06:25:08
Sonic,5114 6th Avenue,,Tacoma,WA,98406,US,47.25497055,-122.50653839,2022-12-18 06:25:08
Sonic,19855 South Prairie Road East,,Bonney Lake,WA,98391,US,47.16806793,-122.16386414,2022-12-18 06:25:08
Sonic,9810 Pacific Avenue,,Tacoma,WA,98444,US,47.16820908,-122.43496704,2022-12-18 06:25:08
Sonic,3802 116th Street Ne,,Marysville,WA,98271,US,48.09974289,-122.17993927,2022-12-18 06:25:16
Sonic,13609 Meridian E,,Puyallup,WA,98373,US,47.13213348,-122.2924881,2022-12-18 06:25:08
Sonic,7746 Martin Way East,,Lacey,WA,98516,US,47.05472183,-122.77622223,2022-12-18 06:25:08
Sonic,1303 Cooper Point Road Sw,,Olympia,WA,98502,US,47.03590775,-122.94091034,2022-12-18 06:25:14
Sonic,2560 Dodge St,,Dubuque,IA,52003,US,42.49077225,-90.69973755,2022-12-18 06:54:29
Sonic,4740 ELMORE AVE,,DAVENPORT,IA,52807,US,41.56959915,-90.52675629,2022-12-18 06:25:08
Sonic,1751 16th Avenue,,Silvis,IL,61282,US,41.49461365,-90.40491486,2022-12-18 06:25:08
Sonic,222 N Wapello,,Ottumwa,IA,52501,US,41.02275467,-92.41313171,2022-12-18 06:54:29
Sonic,225 Legacy Drive,,Burlington,IA,52601,US,40.81240082,-91.14089966,2022-12-18 06:25:08
Sonic,1451 N. Ankeny Blvd,,Ankeny,IA,50023,US,41.74327469,-93.5995636,2022-12-18 06:54:29
Sonic,5350 Merle Hay Road,,Johnston,IA,50131,US,41.6578064,-93.69834137,2022-12-18 06:54:29
Sonic,1030 North 18th Street,,Centerville,IA,52544,US,40.74400711,-92.86844635,2022-12-18 06:54:29
Sonic,4352 Lebanon Road,,Hermitage,TN,37076,US,36.20747757,-86.61256409,2022-12-16 15:27:46
Sonic,3910 Gallatin Pike,,Nashville,TN,37216,US,36.21653748,-86.72855377,2022-12-16 15:27:47
Sonic,1410 Robinson Road,,Old Hickory,TN,37138,US,36.25697708,-86.65641785,2022-12-16 15:27:46
Sonic,2312 Dickerson Pike,,Nashville,TN,37207,US,36.20810318,-86.76817322,2022-12-16 15:27:47
Sonic,713 South Mt. Juliet Road (providence),,Mount Juliet,TN,37122,US,36.16021347,-86.51485443,2022-12-16 15:27:46
Sonic,901 NORTH A.W. GRIMES,,ROUND ROCK,TX,78664,US,30.51949501,-97.65491486,2022-12-18 06:25:20
Sonic,3880 Gattis School Road,,Round Rock,TX,78664,US,30.49750519,-97.61131287,2022-12-18 06:25:20
Sonic,405 Louis Henna Blvd,,Round Rock,TX,78664,US,30.48107147,-97.66392517,2022-12-16 15:27:44
Sonic,1201 University Boulevard,,Round Rock,TX,78665,US,30.56714439,-97.66326904,2022-12-18 06:25:20
Sonic,2014 Pecan Street,,Pflugerville,TX,78660,US,30.4464817,-97.6469574,2022-12-16 15:27:52
Sonic,1101 Fm 685,,Pflugerville,TX,78660,US,30.44537544,-97.60766602,2022-12-18 06:25:20
Sonic,7820 Forest Point Boulevard,,Charlotte,NC,28217,US,35.13716507,-80.90474701,2022-12-18 06:25:19
Sonic,3039 Highway 160,,Tega Cay,SC,29708,US,35.0652771,-80.99144745,2022-12-18 06:25:19
Sonic,1648 Celanese Road,,Rock Hill,SC,29732,US,34.97703171,-80.99908447,2022-12-18 06:25:19
Sonic,2525 S. New Hope Road,,Gastonia,NC,28056,US,35.24084854,-81.12242889,2022-12-18 06:25:21
Sonic,14315 E. Independence Blvd.,,Indian Trail,NC,28079,US,35.07544708,-80.65071869,2022-12-18 06:25:19
Sonic,1560 E. Alexander Love Hwy,,York,SC,29745,US,34.98786545,-81.20171356,2022-12-18 06:25:20
Sonic,4617 Gus Thomasson Road,,Mesquite,TX,75150,US,32.8250618,-96.64888,2022-12-18 06:25:20
Sonic,1800 Oates,,Mesquite,TX,75150,US,32.83744049,-96.62892914,2022-12-16 15:27:46
Sonic,3025 North Galloway,,Mesquite,TX,75150,US,32.80741882,-96.61173248,2022-12-16 15:27:52
Sonic,6202 Broadway Blvd.,,Garland,TX,75043,US,32.83932114,-96.59500122,2022-12-16 15:27:46
Sonic,2945 Buckner Blvd,,Dallas,TX,75228,US,32.80921555,-96.6844635,2022-12-18 06:25:12
Sonic,1851 Military Parkway,,Mesquite,TX,75149,US,32.76861954,-96.62667847,2022-12-16 15:27:53
Sonic,11921 East Nw Highway,,Dallas,TX,75218,US,32.86448288,-96.67469025,2022-12-16 15:27:53
Sonic,3327 Broadway Boulevard,,Garland,TX,75043,US,32.87498856,-96.61768341,2022-12-16 15:27:46
Sonic,1005 South Riverfront,,Dallas,TX,75207,US,32.76550674,-96.80347443,2022-12-18 06:25:12
Sonic,4801 Ross Avenue,,Dallas,TX,75204,US,32.80592728,-96.77713776,2022-12-18 06:25:12
Sonic,2412 S. Zangs,,Dallas,TX,75224,US,32.71884918,-96.82976532,2022-12-18 06:25:12
Sonic,2516 Fort Worth Avenue,,Dallas,TX,75211,US,32.75851059,-96.86302948,2022-12-18 06:25:12
Sonic,3023 Inwood Road,,Dallas,TX,75235,US,32.82582474,-96.83176422,2022-12-18 06:25:12
Sonic,9119 Garland Road,,Dallas,TX,75218,US,32.82958984,-96.70794678,2022-12-18 06:25:12
Sonic,8126 Lake June Road,,Dallas,TX,75217,US,32.73382568,-96.68170929,2022-12-18 06:25:12
Sonic,9400 Golf Course Road Nw,,Albuquerque,NM,87114,US,35.18795395,-106.68395996,2022-12-18 06:25:17
Sonic,2321 New Mexico Hwy 528,,Rio Rancho,NM,87124,US,35.21936798,-106.66277313,2022-12-18 06:25:20
Sonic,1800 Southern Boulevard Se,,Rio Rancho,NM,87124,US,35.24113083,-106.69963837,2022-12-18 06:25:17
Sonic,"6310 4th Street, Nw",,Albuquerque,NM,87107,US,35.14926529,-106.63877869,2022-12-18 06:25:20
Sonic,220 Alameda Northwest Blvd,,Albuquerque,NM,87114,US,35.12187958,-106.72439575,2022-12-18 06:25:17
Sonic,5315 Quail Road Nw,,Albuquerque,NM,87120,US,35.11576462,-106.70335388,2022-12-16 15:27:49
Sonic,425 Montano Rd Ne,,Albuquerque,NM,87107,US,35.1366272,-106.62556458,2022-12-18 06:25:20
Sonic,2119 Vista Oeste Nw,,Albuquerque,NM,87120,US,35.10959244,-106.73033142,2022-12-18 06:25:17
Sonic,4305 North Sterling,,Peoria,IL,61615,US,40.7401619,-89.63224792,2022-12-18 06:54:29
Sonic,3601 Court Street,,Pekin,IL,61554,US,40.54170609,-89.59427643,2022-12-18 06:54:29
Sonic,302 Greenbriar Drive,,Normal,IL,61761,US,40.51439285,-88.95154572,2022-12-18 06:54:29
Sonic,2000 N Dirksen Parkway,,Springfield,IL,62702,US,39.82972717,-89.60391998,2022-12-18 06:54:29
Sonic,3001 West Iles,,Springfield,IL,62704,US,39.77064896,-89.71007538,2022-12-18 06:54:29
Sonic,1312 Wabash Avenue,,Springfield,IL,62704,US,39.76397705,-89.67566681,2022-12-18 06:54:29
Sonic,601 North Mattis Avenue,,Champaign,IL,61821,US,40.12137222,-88.27749634,2022-12-18 06:25:10
Sonic,4851 E Prosperity Place,,Decatur,IL,62521,US,39.81829834,-88.88000488,2022-12-18 06:54:29
Sonic,101 Calvin Street,,Savoy,IL,61874,US,40.05836105,-88.25139618,2022-12-18 06:25:08
Sonic,4260 W. Flamingo Road,,Las Vegas,NV,89103,US,36.11602402,-115.19737244,2022-12-18 06:25:21
Sonic,6455 West Sahara Avenue,,Las Vegas,NV,89102,US,36.14353561,-115.23303223,2022-12-18 06:25:21
Sonic,7245 South Durango Drive,,Las Vegas,NV,89113,US,36.05657959,-115.2797699,2022-12-18 06:25:11
Sonic,2301 East Sahara Avenue,,Las Vegas,NV,89104,US,36.14480972,-115.11685944,2022-12-18 06:25:10
Sonic,6301 W. Lake Mead Blvd.,,Las Vegas,NV,89108,US,36.19545364,-115.23073578,2022-12-18 06:25:21
Sonic,2082 E Warm Springs,,Las Vegas,NV,89119,US,36.05788422,-115.12348938,2022-12-18 06:25:10
Sonic,6135 S Pecos,,Las Vegas,NV,89120,US,36.07833481,-115.10150146,2022-12-18 06:25:10
Sonic,433 State Highway 110 N.,,Whitehouse,TX,75791,US,32.23324585,-95.2281189,2022-12-16 15:27:47
Sonic,5611 S. Broadway,,Tyler,TX,75703,US,32.28821182,-95.30407715,2022-12-16 15:27:47
Sonic,5980 Old Jacksonville Highway,,Tyler,TX,75703,US,32.28220367,-95.33170319,2022-12-16 15:27:47
Sonic,3710 Troup Hwy.,,Tyler,TX,75703,US,32.30934525,-95.27242279,2022-12-16 15:27:48
Sonic,290 Doctor M Roper Parkway North,,Bullard,TX,75757,US,32.14721298,-95.31322479,2022-12-18 06:25:20
Sonic,20095 Highway 155 South,,Flint,TX,75762,US,32.18917084,-95.43513489,2022-12-18 06:25:16
Sonic,102 N. Northwest Loop 323,,Tyler,TX,75702,US,32.35615921,-95.34329987,2022-12-18 06:25:16
Sonic,2501 GENTRY PARK,,TYLER,TX,75702,US,32.36852264,-95.32834625,2022-12-16 15:27:53
Sonic,1586 Highway 56,,Creedmoor,NC,27522,US,36.14115906,-78.71912384,2022-12-18 06:25:18
Sonic,811 W Tipton,,Seymour,IN,47274,US,38.95514297,-85.89654541,2022-12-18 06:25:08
Sonic,1803 West Morton Avenue,,Jacksonville,IL,62650,US,39.7225647,-90.26292419,2022-12-18 06:54:29
Sonic,1615 N 8th Street,,Vandalia,IL,62471,US,38.9778862,-89.1006546,2022-12-18 06:25:08
Sonic,15120 Brighton Road,,Brighton,CO,80601,US,39.97096252,-104.82808685,2022-12-18 07:39:42
Sonic,2162 Nw 39th Avenue,,Gainesville,FL,32605,US,29.68893051,-82.35421753,2022-12-18 06:25:18
Sonic,15125 Us Hwy 441,,Eustis,FL,32726,US,29.7943058,-82.49471283,2022-12-18 06:25:18
Sonic,825 Temple Avenue,,Starke,FL,32091,US,29.95289803,-82.10891724,2022-12-18 06:25:17
Sonic,2401 Sw 19th Avenue Road,,Ocala,FL,34474,US,29.16375542,-82.16539001,2022-12-18 06:25:17
Sonic,3450 Southeast Maricamp Road,,Ocala,FL,34471,US,29.1580143,-82.08852386,2022-12-18 06:25:17
Sonic,11351 N. Williams Street,,Dunnellon,FL,34431,US,29.05869102,-82.4544754,2022-12-18 06:25:18
Sonic,1333 Sw Main Blvd.,,Lake City,FL,32025,US,30.17167091,-82.63975525,2022-12-18 06:25:17
Sonic,414 North Highway 19,,Palatka,FL,32177,US,29.65312958,-81.67211151,2022-12-18 06:25:17
Sonic,502 Century Road,,Rapid City,SD,57701,US,44.08852005,-103.18824768,2022-12-18 06:54:29
Sonic,815 Jackson Boulevard,,Rapid City,SD,57702,US,44.07828903,-103.25049591,2022-12-18 06:54:29
Sonic,2316 Mount Rushmore Road,,Rapid City,SD,57701,US,44.0628891,-103.23201752,2022-12-18 06:54:29
Sonic,2309 South Douglas Highway,,Gillette,WY,82718,US,44.2730217,-105.49282074,2022-12-18 06:54:29
Sonic,2308 West Stone Drive,,Kingsport,TN,37660,US,36.55604553,-82.59867859,2022-12-18 06:54:29
Sonic,3845 Fort Henry Drive,,Kingsport,TN,37663,US,36.491436,-82.50558472,2022-12-18 06:25:10
Sonic,1124 E. Stone Drive,,Kingsport,TN,37660,US,36.55212021,-82.52825165,2022-12-18 06:54:29
Sonic,2619 N. Roan Street,,Johnson City,TN,37604,US,36.35377121,-82.38245392,2022-12-18 06:25:21
Sonic,3300-a W. Market Street,,Johnson City,TN,37604,US,36.31212997,-82.41225433,2022-12-18 06:25:21
Sonic,1214 East Main Street,,Rogersville,TN,37857,US,36.41437912,-82.9899292,2022-12-18 06:25:10
Sonic,1003 West Elk Avenue,,Elizabethton,TN,37643,US,36.34869003,-82.24226379,2022-12-18 06:25:21
Sonic,2115 E Andrew Johnson Hwy,,Greeneville,TN,37743,US,36.17857742,-82.78575134,2022-12-18 06:25:20
Sonic,7820 Fm 1960 Bypass W,,Humble,TX,77338,US,30.00383949,-95.30754852,2022-12-16 15:27:50
Sonic,7102 Will Clayton Parkway,,Humble,TX,77338,US,29.98241425,-95.2811203,2022-12-16 15:27:49
Sonic,1524 First Street,,Humble,TX,77338,US,29.99876595,-95.25051117,2022-12-16 15:27:49
Sonic,3806 Atascocita Road,,Humble,TX,77396,US,29.97949791,-95.21628571,2022-12-16 15:27:49
Sonic,4810 Wilson Road,,Humble,TX,77396,US,29.93675041,-95.2501297,2022-12-16 15:27:49
Sonic,330 Northpark Drive,,Kingwood,TX,77339,US,30.06826019,-95.24291992,2022-12-16 15:27:52
Sonic,2010 Aldine Bender Road,,Houston,TX,77032,US,29.93067551,-95.35495758,2022-12-16 15:27:50
Sonic,710 Fm 1960 East,,Houston,TX,77073,US,30.02310753,-95.41952515,2022-12-16 15:27:50
Sonic,559 East Main Street,,Hendersonville,TN,37075,US,36.32099533,-86.57459259,2022-12-16 15:27:46
Sonic,279 New Shackle Island Road (New Shackle Island Rd  & Iris Dr),,Hendersonville,TN,37075,US,36.31937408,-86.62460327,2022-12-16 15:27:46
Sonic,136 Long Hollow Pike,,Goodlettsville,TN,37072,US,36.32318115,-86.70976257,2022-12-16 15:27:49
Sonic,1565 NORTH GALLATIN PIKE,,MADISON,TN,37115,US,36.29122925,-86.70274353,2022-12-16 15:27:46
Sonic,172 N Belvedere Drive,,Gallatin,TN,37066,US,36.3762207,-86.4793396,2022-12-18 06:25:21
Sonic,417 Hwy 76,,White House,TN,37188,US,36.46803665,-86.66159058,2022-12-16 15:27:49
Sonic,505 Hartsville Pike,,Gallatin,TN,37066,US,36.39091492,-86.43551636,2022-12-18 06:25:21
Sonic,6300 Lakeworth Road,,Greenacres,FL,33463,US,26.61861801,-80.14347076,2022-12-18 07:39:42
Sonic,201 North Congress Ave,,Lake Park,FL,33403,US,26.79700851,-80.08576202,2022-12-18 07:39:42
Sonic,320 Winchester Park Boulevard,,Boynton Beach,FL,33436,US,26.52845383,-80.09297943,2022-12-18 07:39:42
Sonic,6200 West Sample Road,,Coral Springs,FL,33067,US,26.27334976,-80.20578766,2022-12-18 07:39:42
Sonic,8188 West Commercial Blvd.,,Lauderhill,FL,33351,US,26.19329643,-80.25811768,2022-12-18 06:54:29
Sonic,3177 Nw Federal Hwy,,Jensen Beach,FL,34957,US,27.24372292,-80.2710495,2022-12-18 07:39:42
Sonic,2551 South Jenkins Road,,Fort Pierce,FL,34947,US,27.41871834,-80.38328552,2022-12-18 07:39:42
Sonic,2660 Nw 199th Street,,Miami Gardens,FL,33056,US,25.95510101,-80.24474335,2022-12-18 06:54:29
Sonic,1921 Emmorton Road,,Bel Air,MD,21015,US,39.50389099,-76.32679749,2022-12-18 06:25:15
Sonic,4302 E. Chandler Blvd.,,Phoenix,AZ,85048,US,33.30581284,-111.99067688,2022-12-18 06:25:21
Sonic,2050 S. Arizona Avenue,,Chandler,AZ,85286,US,33.27542496,-111.84230804,2022-12-18 06:25:17
Sonic,444 West Ray Road,,Chandler,AZ,85225,US,33.32115936,-111.84714508,2022-12-18 06:25:21
Sonic,689 N. Arizona Avenue,,Gilbert,AZ,85233,US,33.36223984,-111.84114075,2022-12-16 15:27:48
Sonic,777 Central Valley Highway,,Shafter,CA,93263,US,35.5004921,-119.27218628,2022-12-18 06:54:29
Sonic,8875 Rosedale Highway,,Bakersfield,CA,93312,US,35.38298416,-119.10050964,2022-12-18 06:54:29
Sonic,1227 Olive Drive,,Bakersfield,CA,93308,US,35.41199112,-119.04756927,2022-12-18 06:25:20
Sonic,11900 Hialeah Gardens Blvd,,Hialeah Gardens,FL,33018,US,25.88197136,-80.35329437,2022-12-18 06:54:29
Sonic,7060 Geo Washington Mem Hwy,,Gloucester,VA,23061,US,37.39345169,-76.52922058,2022-12-18 07:39:42
Sonic,36888 Van Dyke Road,,Sterling Heights,MI,48312,US,42.56433105,-83.0287323,2022-12-18 06:25:13
Sonic,3394 Louisville Road,,Bowling Green,KY,42101,US,37.01005936,-86.39089966,2022-12-18 06:25:16
Sonic,1605 Avenue Of Champions,,Bowling Green,KY,42101,US,36.98509216,-86.45885468,2022-12-18 06:25:16
Sonic,1901 Russellville Road,,Bowling Green,KY,42101,US,36.98039246,-86.46918488,2022-12-18 06:25:16
Sonic,2375 Gary Farms Boulevard,,Bowling Green,KY,42104,US,36.95404816,-86.43199921,2022-12-18 06:25:16
Sonic,3016 Nashville Road,,Bowling Green,KY,42101,US,36.95120239,-86.47512817,2022-12-18 06:25:16
Sonic,4825 Scottsville Road,,Bowling Green,KY,42104,US,36.92933655,-86.41352844,2022-12-18 06:25:16
Sonic,615 S Main Street,,Morgantown,KY,42261,US,37.21701813,-86.69519043,2022-12-18 06:25:16
Sonic,901 Mammoth Cave Street,,Cave City,KY,42127,US,37.13492584,-85.97397614,2022-12-18 06:25:17
Sonic,5085 East Tropicana Blvd.,,Las Vegas,NV,89122,US,36.09989166,-115.06193542,2022-12-18 06:25:10
Sonic,300 South Boulder Highway,,Henderson,NV,89015,US,36.03652573,-114.97740936,2022-12-18 06:25:10
Sonic,1906 Charlotte Avenue,,Nashville,TN,37203,US,36.15775299,-86.80247498,2022-12-18 06:25:21
Sonic,3115 Clarksville Pike,,Nashville,TN,37209,US,36.19276047,-86.83062744,2022-12-16 15:27:48
Sonic,6308 Charlotte Pike,,Nashville,TN,37209,US,36.1455574,-86.87219238,2022-12-16 15:27:50
Sonic,19133 Stone Oak Parkway,,San Antonio,TX,78258,US,29.62427711,-98.49526215,2022-12-16 15:27:49
Sonic,26116 Overlook Parkway Bldg #1,,San Antonio,TX,78260,US,29.68507195,-98.47421265,2022-12-18 06:25:20
Sonic,18535 Us Highway 281 N,,San Antonio,TX,78258,US,29.63413429,-98.45739746,2022-12-16 15:27:49
Sonic,3035 Tpc Pkwy,,San Antonio,TX,78259,US,29.65967941,-98.43798828,2022-12-18 06:25:20
Sonic,18419 Rim Drive,,San Antonio,TX,78257,US,29.61637306,-98.6051178,2022-12-16 15:27:48
Sonic,2226 Pelham Parkway,,Pelham,AL,35124,US,33.33440781,-86.7924881,2022-12-18 06:25:16
Sonic,3545 Pelham Parkway,,Pelham,AL,35124,US,33.26516724,-86.81005096,2022-12-18 06:25:16
Sonic,313 Valley Avenue,,Birmingham,AL,35209,US,33.4708519,-86.82320404,2022-12-18 06:25:19
Sonic,6625 Aaron Aronov Drive,,Fairfield,AL,35064,US,33.4702034,-86.9209137,2022-12-18 06:25:15
Sonic,732 Academy Drive,,Bessemer,AL,35022,US,33.36094666,-86.99925232,2022-12-18 06:25:15
Sonic,3040 Allison Bonnett Mem Dr,,Hueytown,AL,35023,US,33.45116043,-86.98075867,2022-12-18 06:25:15
Sonic,64 Chelsea Pointe Drive,,Chelsea,AL,35043,US,33.35054398,-86.62149048,2022-12-18 06:25:16
Sonic,1353 Montclair Road,,Birmingham,AL,35210,US,33.52227783,-86.7286911,2022-12-18 06:25:19
Sonic,7701 Parkway Drive,,Leeds,AL,35094,US,33.54553986,-86.54695129,2022-12-18 06:25:19
Sonic,9829 Parkway East,,Birmingham,AL,35215,US,33.60600662,-86.6893158,2022-12-18 06:25:19
Sonic,1501 Highway 9 By-pass West,,Lancaster,SC,29720,US,34.73155212,-80.80680084,2022-12-18 06:25:19
Sonic,221 West Douglas Road,,Mishawaka,IN,46545,US,41.70917511,-86.18226624,2022-12-18 06:54:29
Sonic,3906 Portage Road,,South Bend,IN,46628,US,41.72953033,-86.28974152,2022-12-18 06:54:29
Sonic,349 Romence Road,,Portage,MI,49024,US,42.2150383,-85.59249878,2022-12-18 06:54:29
Sonic,110 Dunes Plaza,,Michigan City,IN,46360,US,41.67996979,-86.89717102,2022-12-18 06:54:29
Sonic,896 NORTH SUPERIOR DRIVE,,CROWN POINT,IN,46307,US,41.4269371,-87.33618164,2022-12-18 06:25:12
Sonic,5521 Clyde Park Avenue Sw,,Wyoming,MI,49509,US,42.86363983,-85.68451691,2022-12-18 06:54:29
Sonic,1769 Laskin Road,,Virginia Beach,VA,23454,US,36.84960175,-76.02565765,2022-12-18 06:25:21
Sonic,1137 Nimmo Parkway,,Virginia Beach,VA,23456,US,36.76141739,-76.00770569,2022-12-18 06:25:19
Sonic,1014 Independence Blvd,,Virginia Beach,VA,23455,US,36.87288284,-76.13369751,2022-12-18 06:25:21
Sonic,4889 Virginia Beach Blvd,,Virginia Beach,VA,23462,US,36.84324265,-76.1455307,2022-12-18 06:25:21
Sonic,11110 Scarsdale Blvd.,,Houston,TX,77089,US,29.58806419,-95.20871735,2022-12-16 15:27:53
Sonic,806 S. Friendswood Drive,,Friendswood,TX,77546,US,29.52392769,-95.19525146,2022-12-16 15:27:48
Sonic,9931 Almeda-genoa Rd,,Houston,TX,77075,US,29.62793732,-95.23992157,2022-12-16 15:27:48
Sonic,13908 Galveston Road,,Webster,TX,77598,US,29.57880402,-95.15727997,2022-12-16 15:27:48
Sonic,12046 Us Highway 49,,Gulfport,MS,39503,US,30.45819283,-89.10003662,2022-12-16 15:27:37
Sonic,15025 Creosote Road,,Gulfport,MS,39503,US,30.42723274,-89.08744049,2022-12-16 15:27:37
Sonic,11150 Loraine Road,,Gulfport,MS,39503,US,30.44637489,-89.03015137,2022-12-16 15:27:37
Sonic,2505 17th Street,,Gulfport,MS,39501,US,30.37097931,-89.09335327,2022-12-16 15:27:37
Sonic,112 Jeff Davis Avenue,,Long Beach,MS,39560,US,30.3496151,-89.1513443,2022-12-16 15:27:37
Sonic,532 Courthouse Road,,Gulfport,MS,39507,US,30.38958168,-89.04367065,2022-12-16 15:27:37
Sonic,2415 Pass Road,,Biloxi,MS,39531,US,30.401371,-88.97722626,2022-12-18 06:25:21
Sonic,927 Cedar Lake Road,,Biloxi,MS,39532,US,30.44444084,-88.9344635,2022-12-18 06:25:21
Sonic,1805 East Bethany Road,,Allen,TX,75002,US,33.08623123,-96.62243652,2022-12-16 15:27:42
Sonic,707 E. MAIN,,ALLEN,TX,75002,US,33.100811,-96.65592194,2022-12-16 15:27:48
Sonic,1536 E Stacy Road,,Allen,TX,75002,US,33.12904739,-96.63076782,2022-12-16 15:27:42
Sonic,3838 W. Parker Road,,St. Paul,TX,75098,US,33.05220032,-96.56741333,2022-12-16 15:27:42
Sonic,109 W. Fm 544,,Murphy,TX,75094,US,33.01200867,-96.61161041,2022-12-16 15:27:49
Sonic,1310 W Mcdermott,,Allen,TX,75013,US,33.10127258,-96.69961548,2022-12-16 15:27:49
Sonic,6104 Chase Oaks Boulevard,,Plano,TX,75023,US,33.05847168,-96.69850159,2022-12-16 15:27:49
Sonic,2950 Eldorado Parkway,,Mckinney,TX,75070,US,33.16827393,-96.66368866,2022-12-16 15:27:48
Sonic,8600 Ambrosse Lane,,Louisville,KY,40299,US,38.19607544,-85.60311127,2022-12-18 06:25:08
Sonic,3641 Springhurst Blvd,,Louisville,KY,40241,US,38.30010223,-85.55912781,2022-12-18 06:25:08
Sonic,11810 Standiford Plaza Drive,,Louisville,KY,40229,US,38.09126282,-85.6680069,2022-12-18 06:25:08
Sonic,8719 Highway 42,,Florence,KY,41042,US,38.43257523,-85.52179718,2022-12-18 06:25:08
Sonic,408 Hwy 44 East,,Shepherdsville,KY,40165,US,37.99066162,-85.71026611,2022-12-18 06:25:08
Sonic,1089 W Mcclain Ave,,Scottsburg,IN,47170,US,38.68519974,-85.78272247,2022-12-18 06:25:08
Sonic,1299 N Dixie Blvd,,Radcliff,KY,40160,US,37.85357285,-85.95158386,2022-12-18 06:25:08
Sonic,721 NORTH 3RD STREET,,BARDSTOWN,KY,40004,US,37.8213768,-85.46233368,2022-12-18 06:25:08
Sonic,2162 North 2nd Street,,Millville,NJ,08332,US,39.42338943,-75.04124451,2022-12-18 06:54:29
Sonic,18757 U.s. Highway 13,,Bridgeville,DE,19933,US,38.72104645,-75.58916473,2022-12-18 07:39:42
Sonic,103 East Pulaski Highway,,Elkton,MD,21921,US,39.60062408,-75.82485199,2022-12-18 06:25:16
Sonic,3749 W. Caldwell Avenue,,Visalia,CA,93277,US,36.29616928,-119.3320694,2022-12-18 06:25:18
Sonic,1400 Hillman Street,,Tulare,CA,93274,US,36.22683716,-119.33036804,2022-12-18 06:25:18
Sonic,512 N. BEN MADDOX WAY,,VISALIA,CA,93292,US,36.33424377,-119.27822113,2022-12-18 06:25:18
Sonic,246 South 12th Avenue,,Hanford,CA,93230,US,36.32155609,-119.67359924,2022-12-18 06:25:08
Sonic,448 West El Monte Way,,Dinuba,CA,93618,US,36.54544067,-119.39972687,2022-12-18 06:25:13
Sonic,191 Sierra Street,,Kingsburg,CA,93631,US,36.51842117,-119.56642914,2022-12-18 06:25:08
Sonic,827 Academy Avenue,,Sanger,CA,93657,US,36.70421982,-119.55576324,2022-12-18 06:25:13
Sonic,1900 Cecil Avenue,,Delano,CA,93215,US,35.77549744,-119.22930908,2022-12-18 06:25:19
Sonic,701 Troy Schenectady Road,,Latham,NY,12110,US,42.75640869,-73.77560425,2022-12-18 06:25:08
Sonic,351 Southern Boulevard,,Albany,NY,12209,US,42.6312561,-73.77549744,2022-12-18 07:39:42
Sonic,120 Hoosick St,,Troy,NY,12180,US,42.73887634,-73.67610168,2022-12-18 06:25:08
Sonic,291 DANBURY RD,,NEW MILFORD,CT,06776,US,41.53839874,-73.42137909,2022-12-18 07:39:42
Sonic,14 Liner Road,,New Windsor,NY,12553,US,41.49568939,-74.07419586,2022-12-18 06:54:29
Sonic,2890 Wilmington Pike,,Kettering,OH,45419,US,39.70568085,-84.14165497,2022-12-18 06:25:08
Sonic,3970 Colonel Glenn Highway,,Beavercreek,OH,45324,US,39.77532196,-84.07797241,2022-12-18 06:25:08
Sonic,1956 Harner Drive,,Xenia,OH,45385,US,39.68777084,-83.96445465,2022-12-18 06:25:11
Sonic,7888 Brandt Pike,,Huber Heights,OH,45424,US,39.86634064,-84.10057831,2022-12-18 06:25:08
Sonic,3701 Mall View Road,,Bakersfield,CA,93306,US,35.39386749,-118.95170593,2022-12-18 06:25:21
Sonic,8040 NILES STREET,,BAKERSFIELD,CA,93306,US,35.37670135,-118.91562653,2022-12-18 06:25:21
Sonic,1401 23rd Street,,Bakersfield,CA,93301,US,35.37971878,-119.01796722,2022-12-18 06:54:29
Sonic,1033 North Colony Road,,Wallingford,CT,06492,US,41.49353409,-72.81014252,2022-12-18 07:39:42
Sonic,1535 Celebration Avenue,,Meridian,ID,83642,US,43.59116364,-116.36642456,2022-12-18 06:25:11
Sonic,2160 E. Fairview Avenue,,Meridian,ID,83642,US,43.62002563,-116.36711884,2022-12-18 06:25:15
Sonic,4936 Linder Road,,Meridian,ID,83646,US,43.64943314,-116.41320801,2022-12-18 06:25:15
Sonic,16063 Idaho Center Boulevard,,Nampa,ID,83687,US,43.60666275,-116.5139389,2022-12-18 06:25:15
Sonic,10480 West Ustick Road,,Boise,ID,83704,US,43.63439941,-116.31281281,2022-12-18 06:25:11
Sonic,8777 W. Overland Road,,Boise,ID,83709,US,43.58989716,-116.29131317,2022-12-18 06:25:11
Sonic,1109 12th Avenue Road,,Nampa,ID,83686,US,43.55768204,-116.57359314,2022-12-18 06:25:15
Sonic,16274 N. Market Place Blvd.,,Nampa,ID,83687,US,43.60889053,-116.5911026,2022-12-18 06:25:15
Sonic,263 West Shaw Avenue,,Clovis,CA,93612,US,36.80911636,-119.71502686,2022-12-18 06:25:08
Sonic,1855 Herndon Avenue,,Clovis,CA,93612,US,36.83808899,-119.68119812,2022-12-18 06:25:08
Sonic,1255 N. Willow Avenue,,Clovis,CA,93612,US,36.85307312,-119.72894287,2022-12-18 06:25:08
Sonic,4687 North Blackstone Avenue,,Fresno,CA,93726,US,36.80287933,-119.79125214,2022-12-18 06:25:08
Sonic,3489 West Shaw Avenue,,Fresno,CA,93711,US,36.807827,-119.85525513,2022-12-18 06:25:08
Sonic,2105 N. SCHNOOR AVENUE,,MADERA,CA,93637,US,36.97913361,-120.08595276,2022-12-18 06:25:08
Sonic,11780 Amargosa Road,,Victorville,CA,92392,US,34.46521378,-117.35120392,2022-12-18 06:25:17
Sonic,19398 Bear Valley Road,,Apple Valley,CA,92308,US,34.47156906,-117.23816681,2022-12-18 06:25:11
Sonic,1060 West Renaissance Parkway,,Rialto,CA,92376,US,34.13414001,-117.39072418,2022-12-18 06:25:17
Sonic,11370 4th Street,,Rancho Cucamonga,CA,91730,US,34.07761383,-117.55660248,2022-12-18 06:25:17
Sonic,9505 Magnolia Avenue,,Riverside,CA,92503,US,33.92049789,-117.44694519,2022-12-18 06:25:17
Sonic,2633 Richmond Road,,Lexington,KY,40509,US,38.01054382,-84.45474243,2022-12-18 06:25:08
Sonic,1505 Bypass Road,,Winchester,KY,40391,US,37.99542236,-84.21588135,2022-12-18 06:25:08
Sonic,1026 S. Broadway,,Lexington,KY,40504,US,38.03782654,-84.51613617,2022-12-18 06:25:08
Sonic,120 Bellerive Blvd,,Nicholasville,KY,40356,US,37.98450089,-84.59085083,2022-12-18 06:25:08
Sonic,100 Village Parkway,,Nicholasville,KY,40356,US,37.89805984,-84.56478119,2022-12-18 06:25:08
Sonic,100 Reinhold Street,,Paris,KY,40361,US,38.19199371,-84.27768707,2022-12-18 06:25:08
Sonic,1036 Lexington Road,,Georgetown,KY,40324,US,38.18911743,-84.56183624,2022-12-18 06:25:08
Sonic,613 Big Hill Ave,,Richmond,KY,40475,US,37.73722839,-84.27861786,2022-12-18 06:25:08
Sonic,2110 Fort Harrison Road,,Terre Haute,IN,47804,US,39.50699997,-87.38566589,2022-12-18 06:25:10
Sonic,2149 S. State Road 46,,Terre Haute,IN,47802,US,39.44015503,-87.33350372,2022-12-18 06:25:10
Sonic,"16538 Keystone Blvd, Lot 2b",Lot 2b,Parker,CO,80134,US,39.53288269,-104.79571533,2022-12-18 06:25:19
Sonic,210 Founders Parkway,,Castle Rock,CO,80104,US,39.41255951,-104.86484528,2022-12-18 06:25:19
Sonic,11237 East Arapahoe Place,,Centennial,CO,80112,US,39.59447479,-104.85852814,2022-12-18 06:25:19
Sonic,18535 E Smoky Hill Road,,Aurora,CO,80015,US,39.61869812,-104.77175903,2022-12-18 06:25:20
Sonic,130 S Elizabeth,,Elizabeth,CO,80107,US,39.36023331,-104.60837555,2022-12-18 06:25:20
Sonic,151 Bella Vista Road,,Vacaville,CA,95687,US,38.34908676,-121.98683929,2022-12-18 07:39:42
Sonic,3061 West Hunt Highway,,Queen Creek,AZ,85142,US,33.18948364,-111.5993042,2022-12-18 06:25:17
Sonic,4075 South Higley,,Gilbert,AZ,85297,US,33.27653503,-111.72003174,2022-12-18 06:25:17
Sonic,2847 S. Ellsworth Road,,Mesa,AZ,85212,US,33.36311722,-111.63513947,2022-12-16 15:27:46
Sonic,1654 E. Williams Field Road,,Gilbert,AZ,85296,US,33.30727005,-111.75408173,2022-12-18 06:25:17
Sonic,6935 East Baseline Road,,Mesa,AZ,85208,US,33.37872314,-111.68458557,2022-12-16 15:27:53
Sonic,10060 East Southern Avenue,,Mesa,AZ,85209,US,33.39389038,-111.61309052,2022-12-16 15:27:46
Sonic,1260 S. Val Vista,,Mesa,AZ,85204,US,33.39233398,-111.75443268,2022-12-16 15:27:48
Sonic,5725 E Charleston Blvd,,Las Vegas,NV,89122,US,36.15891647,-115.04930878,2022-12-18 06:25:10
Sonic,377 N. Nellis Boulevard,,Las Vegas,NV,89110,US,36.17009354,-115.06269836,2022-12-16 15:27:51
Sonic,396 Canebrake Road,,Savannah,GA,31419,US,32.0032692,-81.28042603,2022-12-18 06:25:10
Sonic,1020 King George Blvd,,Savannah,GA,31419,US,31.98519707,-81.21987152,2022-12-18 06:25:15
Sonic,4301 Ogeechee Road,,Savannah,GA,31405,US,32.04841614,-81.16356659,2022-12-18 06:25:15
Sonic,303 E Montgomery Crossroads,,Savannah,GA,31406,US,31.9956665,-81.11431122,2022-12-18 06:25:15
Sonic,185 Pooler Parkway,,Pooler,GA,31322,US,32.14012909,-81.24571228,2022-12-18 06:25:10
Sonic,4691 E Highway 80,,Savannah,GA,31410,US,32.04301453,-81.00823212,2022-12-18 06:25:21
Sonic,584 S Columbia Avenue,,Rincon,GA,31326,US,32.26999664,-81.22483063,2022-12-18 06:25:10
Sonic,725 W Oglethorpe Hwy,,Hinesville,GA,31313,US,31.82903099,-81.59835815,2022-12-18 06:25:08
Sonic,2076 East Main Street,,Spartanburg,SC,29307,US,34.97245026,-81.88504791,2022-12-18 06:25:20
Sonic,1529 Floyd Baker Boulevard,,Gaffney,SC,29341,US,35.09041595,-81.66279602,2022-12-18 06:25:20
Sonic,1243 WEST ROOSEVELT BOULEVARD,,MONROE,NC,28110,US,34.99431229,-80.54180145,2022-12-18 06:25:19
Sonic,3250 Falls Parkway,,Branson,MO,65616,US,36.6256485,-93.28290558,2022-12-18 06:25:18
Sonic,125 Mall Road,,Hollister,MO,65673,US,36.61355972,-93.2303009,2022-12-18 06:25:18
Sonic,17921 State Highway 13,,Branson West,MO,65737,US,36.70002365,-93.37602234,2022-12-18 06:25:17
Sonic,15700 Us Hwy 160,,Forsyth,MO,65653,US,36.69362259,-93.12171936,2022-12-18 06:25:18
Sonic,1108 W. Jackson,,Ozark,MO,65721,US,37.02494431,-93.21465302,2022-12-18 06:25:21
Sonic,503 East Main,,Green Forest,AR,72638,US,36.33483124,-93.42931366,2022-12-18 07:39:42
Sonic,605 W. MT VERNON,,NIXA,MO,65714,US,37.04405975,-93.30604553,2022-12-18 06:25:17
Sonic,411 W. Trimble Street,,Berryville,AR,72616,US,36.36942673,-93.57875824,2022-12-18 06:25:18
Sonic,1489 Skibo Road,,Fayetteville,NC,28303,US,35.08232117,-78.95355988,2022-12-18 06:25:19
Sonic,5938 Cliffdale Road,,Fayetteville,NC,28314,US,35.06001282,-78.97303772,2022-12-18 06:25:20
Sonic,5846 Yadkin Road,,Fayetteville,NC,28303,US,35.09309006,-78.98471832,2022-12-18 06:25:20
Sonic,2886 Hope Mills Road,,Fayetteville,NC,28306,US,34.98980331,-78.96707153,2022-12-18 06:25:19
Sonic,1208 N. Bragg Blvd,,Spring Lake,NC,28390,US,35.18219376,-78.9813385,2022-12-18 06:25:18
Sonic,7755 Good Middling Drive,,Fayetteville,NC,28306,US,35.02767181,-79.05547333,2022-12-18 06:25:20
Sonic,11067 U.s. Highway 15-501,,Aberdeen,NC,28315,US,35.15731049,-79.41797638,2022-12-18 06:25:18
Sonic,2600 South Horner Boulevard,,Sanford,NC,27330,US,35.45824051,-79.14469147,2022-12-18 06:25:18
Sonic,2974 Kirk Road,,Aurora,IL,60502,US,41.81606674,-88.28057861,2022-12-18 06:25:12
Sonic,21 Eagle Parkway,,Adairsville,GA,30103,US,34.37733078,-84.93218231,2022-12-18 06:54:29
Sonic,3444 S. Noland Road,,Independence,MO,64052,US,39.05762863,-94.41525269,2022-12-16 15:27:53
Sonic,10802 Highway 40 E.,,Independence,MO,64055,US,39.05221939,-94.45179749,2022-12-16 15:27:52
Sonic,16510 E. 23rd St S,,Independence,MO,64055,US,39.07833099,-94.38169098,2022-12-16 15:27:46
Sonic,11320 E 23rd St,,Independence,MO,64052,US,39.08054352,-94.44303131,2022-12-16 15:27:48
Sonic,4001 South Jackson Drive,,Independence,MO,64057,US,39.04472351,-94.35095215,2022-12-16 15:27:46
Sonic,11707 E HWY 24,,SUGAR CREEK,MO,64054,US,39.10180283,-94.43704224,2022-12-16 15:27:48
Sonic,6525 RAYTOWN ROAD,,RAYTOWN,MO,64133,US,39.00419617,-94.46305847,2022-12-18 06:25:17
Sonic,3740 Ne Ralph Powell Road,,Lee's Summit,MO,64064,US,38.98144913,-94.36103058,2022-12-18 06:25:14
Sonic,855 EAST MAIN STREET,,MOUNT JOY,PA,17552,US,40.10997009,-76.48222351,2022-12-18 06:25:10
Sonic,2223 LINCOLN HIGHWAY EAST,,LANCASTER,PA,17602,US,40.02806854,-76.22186279,2022-12-18 06:25:12
Sonic,4247 OREGON PIKE,,EPHRATA,PA,17522,US,40.13310242,-76.21533966,2022-12-18 06:25:08
Sonic,16031 South Farrell Rd,,Lockport,IL,60441,US,41.59508133,-88.02518463,2022-12-18 06:25:12
Sonic,721 East Rochambeau Drive,,Williamsburg,VA,23188,US,37.34690475,-76.73849487,2022-12-18 06:54:29
Sonic,537 W Dixie Avenue,,Elizabethtown,KY,42701,US,37.70306396,-85.86936188,2022-12-18 06:25:08
Sonic,1479 Elizabethtown Road,,Leitchfield,KY,42754,US,37.4850502,-86.27285004,2022-12-18 06:25:16
Sonic,1199 Main Street,,Munfordville,KY,42765,US,37.28637314,-85.90135956,2022-12-18 06:25:17
Sonic,7561 Shaffer Parkway,,Littleton,CO,80127,US,39.57929993,-105.13781738,2022-12-18 06:25:10
Sonic,12820 West Alameda Pkwy,,Lakewood,CO,80228,US,39.70039368,-105.14092255,2022-12-18 06:25:10
Sonic,5324 Old Highway 11,,Hattiesburg,MS,39402,US,31.31598282,-89.41156769,2022-12-18 06:25:15
Sonic,3700 W Fourth Street,,Hattiesburg,MS,39402,US,31.33440399,-89.34444427,2022-12-18 06:25:15
Sonic,6872 Us Highway 49,,Hattiesburg,MS,39402,US,31.36605644,-89.35398102,2022-12-18 06:25:15
Sonic,5895 Highway 49,,Hattiesburg,MS,39401,US,31.30819893,-89.31904602,2022-12-18 06:25:15
Sonic,504 Highway 42 East,,Petal,MS,39465,US,31.34998131,-89.22840118,2022-12-18 06:25:15
Sonic,5814 Us Highway 11,,Purvis,MS,39475,US,31.1434269,-89.40483856,2022-12-18 06:25:15
Sonic,3262 Highway 49 S.,,Collins,MS,39428,US,31.6348381,-89.55852509,2022-12-16 15:27:50
Sonic,208 Highway 11 N.,,Ellisville,MS,39437,US,31.60686302,-89.19638062,2022-12-18 06:25:18
Sonic,500 Boundary St Sw,,Newton,NC,28658,US,35.69567108,-81.2265625,2022-12-18 06:25:20
Sonic,501 Harper Avenue,,Lenoir,NC,28645,US,35.91588593,-81.53463745,2022-12-18 06:25:20
Sonic,2204 S. Sterling Street,,Morganton,NC,28655,US,35.72343445,-81.65857697,2022-12-18 06:25:20
Sonic,1850 U.s. Highway 421 West,,Wilkesboro,NC,28697,US,36.15065384,-81.20067596,2022-12-18 06:25:17
Sonic,101 Earl Road,,Shelby,NC,28150,US,35.27954865,-81.54100037,2022-12-18 06:25:20
Sonic,100 Woodford Avenue,,Berea,KY,40403,US,37.58496857,-84.28435516,2022-12-18 06:54:29
Sonic,863 HIGHWAY 27 NORTH,,STANFORD,KY,40484,US,37.54681015,-84.64793396,2022-12-18 06:25:17
Sonic,999 E Main Street,,Jackson,OH,45640,US,38.89694977,-82.55848694,2022-12-18 07:39:42
Sonic,928 12th Street,,Portsmouth,OH,45662,US,38.73970032,-82.99306488,2022-12-18 07:39:42
