company_name,address_line_1,address_line_2,city,state_alpha,postal_code,country_code,latitude,longitude,when_verified
Subway,411 Lemoyne Dr.,,Dauphin Island,AL,36528,US,30.25720024,-88.11289978,2022-12-16 15:27:53
Subway,1545 Gulfshore Pky,,Gulf Shores,AL,36542,US,30.26650047,-87.69000244,2022-12-18 06:25:17
Subway,170 Ft Morgan Rd,,Gulf Shores,AL,36542,US,30.26679993,-87.68669891,2022-12-18 06:25:17
Subway,25755 Perdido Beach Blvd.,,Orange Beach,AL,36561,US,30.27029991,-87.58879852,2022-12-18 06:25:13
Subway,25814 Canal Rd,Ste 10,Orange Beach,AL,36561,US,30.29089928,-87.58439636,2022-12-18 06:25:13
Subway,13280 North Wintzell Ave,,Bayou La Batre,AL,36509,US,30.41519928,-88.24629974,2022-12-16 15:27:53
Subway,2116 South McKenzie Street,,Foley,AL,36535,US,30.38470078,-87.68370056,2022-12-18 06:25:13
Subway,713 S McKenzie St.,,Foley,AL,36535,US,30.40029907,-87.68440247,2022-12-18 06:25:13
Subway,1159 N. McKenzie Street,,Foley,AL,36535,US,30.41959953,-87.68379974,2022-12-18 06:25:17
Subway,711 Quietwater Beach Road,,Pensacola Beach,FL,32561,US,30.33429909,-87.14060211,2022-12-18 06:25:13
Subway,3767 Gulf Breeze Pkwy,,Gulf Breeze,FL,32563,US,30.38750076,-87.06559753,2022-12-18 06:25:13
Subway,3075 Gulf Breeze Pky,,Gulf Breeze,FL,32563,US,30.38509941,-87.09609985,2022-12-18 06:25:13
Subway,5342 Gulf Breeze Pkwy,,Gulf Breeze,FL,32563,US,30.40019989,-87.00019836,2022-12-18 06:25:13
Subway,8664 Navarre Parkway,,Navarre,FL,32566,US,30.40270042,-86.86070251,2022-12-18 06:25:13
Subway,Bldg #630,,Pensacola,FL,32508,US,30.35029984,-87.27010345,2022-12-18 06:25:13
Subway,3502 Barrancas Ave,,Pensacola,FL,32507,US,30.39319992,-87.25800323,2022-12-18 06:25:13
Subway,1020 N 9th Ave,Unit C,Pensacola,FL,32501,US,30.42370033,-87.20700073,2022-12-18 06:25:13
Subway,5555 Highway 98,Building 3600,Pensacola,FL,32507,US,30.39539909,-87.29190063,2022-12-06 05:51:11
Subway,549 Richard Jackson Blvd,"Ste H-7, H-8A",Panama City Beach,FL,32407,US,30.18499947,-85.81809998,2022-12-18 06:25:20
Subway,8744 Thomas Drive,,Panama City Beach,FL,32407,US,30.16869926,-85.79029846,2022-12-18 06:25:20
Subway,15495 Panama City Beach Pkwy,,Panama City Beach,FL,32413,US,30.21920013,-85.86579895,2022-12-18 06:25:20
Subway,17304 Panama Beach Pky Hwy 98,,Panama City,FL,32413,US,30.23159981,-85.89099884,2022-12-18 06:25:20
Subway,2521 Thomas Dr,Unit C,Panama City,FL,32408,US,30.15850067,-85.75340271,2022-12-16 15:27:54
Subway,7714 Front Beach Rd,,Panama City Beach,FL,32407,US,30.18720055,-85.77010345,2022-12-18 06:25:20
Subway,3700 23rd St W,Ste B,Panama City,FL,32405,US,30.19020081,-85.70860291,2022-12-16 15:27:54
Subway,8140 W. Hwy 388,,Panama City Beach,FL,32413,US,30.29829979,-85.84889984,2022-12-18 06:25:20
Subway,3723  E County Hwy 30A,Unit 8,Santa Rosa Beach,FL,32459,US,30.31340027,-86.11470032,2022-12-18 06:25:15
Subway,287 W 15th St,,Panama City,FL,32401,US,30.17490005,-85.66539764,2022-12-16 15:27:54
Subway,507 S Hwy 71,,Wewahitchka,FL,32465,US,30.10930061,-85.20110321,2022-12-16 15:27:48
Subway,47 Ave E,,Apalachicola,FL,32320,US,29.7276001,-84.98519897,2022-12-16 15:27:51
Subway,163 E Gulf Beach Drive,,St George Island,FL,32328,US,29.66449928,-84.86049652,2022-12-16 15:27:51
Subway,10994 NW St. Rt 20,,Bristol,FL,32321,US,30.43190002,-84.97720337,2022-12-16 15:27:48
Subway,20521 West Central Ave,,Blountstown,FL,32424,US,30.44280052,-85.04759979,2022-12-16 15:27:48
Subway,468 Illinois Ave. Bldg. 970,,Tyndall AFB,FL,32403,US,30.07180023,-85.58989716,2022-12-16 15:27:54
Subway,241 S. Tyndall Pkwy.,,Panama City,FL,32404,US,30.14229965,-85.59079742,2022-12-16 15:27:54
Subway,5500 N Star Ave,,Panama City,FL,32404,US,30.24799919,-85.55619812,2022-12-16 15:27:51
Subway,3604 East 15th Street,,Panama City,FL,32404,US,30.17490005,-85.60600281,2022-12-16 15:27:54
Subway,3073 Crawfordville Hwy,,Crawfordville,FL,32327,US,30.1753006,-84.37460327,2022-12-16 15:27:48
Subway,20895 Hwy 43,,Mount Vernon,AL,36560,US,31.12369919,-88.00959778,2022-12-13 15:34:06
Subway,807 Celeste Road,,Saraland,AL,36571,US,30.82900047,-88.09089661,2022-12-13 15:34:04
Subway,620 Hwy 43 S,Unit C,Saraland,AL,36571,US,30.80830002,-88.0714035,2022-12-13 15:34:04
Subway,701 McMeans Ave,,Bay Minette,AL,36507,US,30.88540077,-87.79029846,2022-12-13 15:34:04
Subway,1380 Industrial Pkwy,,Saraland,AL,36571,US,30.80290031,-88.1088028,2022-12-13 15:34:04
Subway,102 McMeans Ave,,Bay Minette,AL,36507,US,30.87940025,-87.78269958,2022-12-13 15:34:04
Subway,19500 N 3rd St,Unit E,Citronelle,AL,36522,US,31.09760094,-88.23750305,2022-12-13 15:34:04
Subway,2600 Beltline Hwy.,,Prichard,AL,36612,US,30.74200058,-88.11049652,2022-12-13 15:34:04
Subway,3891 Scott's Plaza Drive,,Jay,FL,32565,US,30.95070076,-87.15170288,2022-12-18 06:25:17
Subway,2139 Douglas Ave,,Brewton,AL,36426,US,31.13920021,-87.06939697,2022-12-13 15:34:08
Subway,733 Flomaton Blvd,,Flomaton,AL,36441,US,31.00550079,-87.26439667,2022-12-18 06:25:17
Subway,7160 Wasp St,Bldg 3044,Milton,FL,32570,US,30.71430016,-87.01999664,2022-12-18 06:25:13
Subway,13288 Hwy 113,Barnetts Crossing,Brewton,AL,36426,US,31.2045002,-87.31079865,2022-12-13 15:34:08
Subway,5462 N Stewart St,,Milton,FL,32570,US,30.63290024,-87.04290009,2022-12-18 06:25:13
Subway,5644 Woodbine Rd,,Pace,FL,32571,US,30.64150047,-87.18029785,2022-12-18 06:25:13
Subway,6165 Hwy 90,,Milton,FL,32583,US,30.60479927,-87.06580353,2022-12-18 06:25:13
Subway,4965 Hwy 90,,Pace,FL,32571,US,30.60140038,-87.11730194,2022-12-18 06:25:13
Subway,603 Maple Avenue,,Geneva,AL,36340,US,31.04850006,-85.895401,2022-12-18 06:25:19
Subway,611 E Main St,,Samson,AL,36477,US,31.1128006,-86.03730011,2022-12-18 06:25:19
Subway,801 W Main St,Ste 2 & 3,Hartford,AL,36344,US,31.09790039,-85.7059021,2022-12-18 06:25:19
Subway,1078 Third St,,Florala,AL,36442,US,30.99979973,-86.32980347,2022-12-18 06:25:19
Subway,2951 N Highway 81,,Ponce de Leon,FL,32455,US,30.71199989,-85.93399811,2022-11-30 16:34:30
Subway,1207 US Hwy 331 South,Ste A,Defuniak Springs,FL,32435,US,30.70429993,-86.12220001,2022-12-18 06:25:19
Subway,1226 Freeport Road,,De Funiak Springs,FL,32435,US,30.70420074,-86.12470245,2022-12-18 06:25:19
Subway,606 Bolweevil Circle,,Enterprise,AL,36330,US,31.31749916,-85.82969666,2022-12-18 06:25:19
Subway,1818 S Waukesha St,,Bonifay,FL,32425,US,30.77199936,-85.68399811,2022-12-18 06:25:19
Subway,5 N Point Pky,Ste F,Enterprise,AL,36330,US,31.33650017,-85.85610199,2022-12-18 06:25:19
Subway,301 E 3rd Street,Ste B,Donalsonville,GA,39845,US,31.04019928,-84.87840271,2022-12-18 06:25:19
Subway,5409 10 St,,Malone,FL,32445,US,30.95750046,-85.16249847,2022-12-18 06:25:19
Subway,1932 Old Highway 84,PO Box 882,Ashford,AL,36312,US,31.18320084,-85.24330139,2022-12-18 06:25:19
Subway,4469 Lafayette St,,Marianna,FL,32446,US,30.77400017,-85.22299957,2022-12-18 06:25:19
Subway,2255 Hwy 71,,Marianna,FL,32448,US,30.72789955,-85.18789673,2022-12-18 06:25:19
Subway,411 W Washington St,,Chattahoochee,FL,32324,US,30.70470047,-84.84739685,2022-12-18 06:25:19
Subway,1800 Dothan Rd,,Bainbridge,GA,39817,US,30.9192009,-84.59970093,2022-12-18 06:25:19
Subway,8390 S US 231,,Dothan,AL,36301,US,31.10619926,-85.40619659,2022-12-18 06:25:19
Subway,12246 Columbia  St,,Blakely,GA,39823,US,31.37420082,-84.93810272,2022-12-18 06:25:19
Subway,2115 East Main Street,Suite 2,Dothan,AL,36301,US,31.21990013,-85.36139679,2022-12-18 06:25:19
Subway,306 W Pushmataho,,Butler,AL,36904,US,32.08919907,-88.22450256,2022-12-13 15:34:06
Subway,33202 Hwy 43,,Thomasville,AL,36784,US,31.94610023,-87.74030304,2022-12-13 15:34:06
Subway,234 South Jackson Street,Suite A,Grove Hill,AL,36451,US,31.70540047,-87.77629852,2022-12-13 15:34:06
Subway,2810 College Ave,,Jackson,AL,36545,US,31.53919983,-87.88549805,2022-12-13 15:34:06
Subway,969 Highway 80 West,,Demopolis,AL,36732,US,32.49290085,-87.84940338,2022-12-13 15:34:06
Subway,100 N St Stevens Ave,,Chatom,AL,36518,US,31.46430016,-88.25350189,2022-12-13 15:34:06
Subway,2406 Highway 19 South,,Meridian,MS,39301,US,32.33029938,-88.57009888,2022-12-13 15:34:06
Subway,I-20/59 Exit 165,75 Will Garrett,Toomsuba,MS,39364,US,32.41500092,-88.50530243,2022-12-13 15:34:06
Subway,Tiger Stadium Drive,Young Hall Cafeteria,Livingston,AL,35470,US,32.58929825,-88.18689728,2022-12-13 15:34:06
Subway,2 Camden Bypass,,Camden,AL,36726,US,31.99410057,-87.2779007,2022-12-13 15:34:06
Subway,501 Willow St,,Greenville,AL,36037,US,31.84560013,-86.64949799,2022-12-18 06:25:09
Subway,1010 Fortdale,,Greenville,AL,36037,US,31.85309982,-86.64060211,2022-12-18 06:25:09
Subway,725 W State Highway 106,,Georgiana,AL,36033,US,31.64959908,-86.77249908,2022-12-08 05:05:40
Subway,1909 West Dallas Ave,Suite #1,Selma,AL,36701,US,32.39770126,-87.06490326,2022-12-13 15:34:10
Subway,74 Oak Street,,Hayneville,AL,36040,US,32.18450165,-86.57710266,2022-12-18 06:25:09
Subway,1338 Highland Ave,,Selma,AL,36701,US,32.43130112,-87.01909637,2022-12-18 06:25:09
Subway,2530 US HWY 80 West,,Selma,AL,36701,US,32.4341011,-87.06230164,2022-12-13 15:34:10
Subway,1127 Tyson Road,,Hope Hull,AL,36043,US,32.19440079,-86.41960144,2022-12-18 06:25:09
Subway,1844 Highway 21 Bypass,,Monroeville,AL,36460,US,31.51840019,-87.31800079,2022-12-13 15:34:06
Subway,511 South Brundidge Sreet,,Troy,AL,36081,US,31.80260086,-85.96649933,2022-12-18 06:25:09
Subway,1003 Highway 231 South D,,Troy,AL,36081,US,31.78479958,-85.96350098,2022-12-18 06:25:09
Subway,1420 US 231 South,,Troy,AL,36081,US,31.78079987,-85.9394989,2022-12-18 06:25:09
Subway,17662 Montgomery Hwy,,Highland Home,AL,36041,US,31.94560051,-86.31430054,2022-12-18 06:25:09
Subway,112 East Conecuh Street,,Union Springs,AL,36089,US,32.14599991,-85.71569824,2022-12-18 06:25:09
Subway,421 S. A Graham Blvd,Unit 1 & 2,Brundidge,AL,36010,US,31.72039986,-85.82910156,2022-12-18 06:25:19
Subway,9577 Vaughn Road,Bay No. 5,Pike Road,AL,36064,US,32.34680176,-86.09210205,2022-12-18 06:25:09
Subway,4456 Troy Highway,,Montgomery,AL,36116,US,32.31269836,-86.22460175,2022-12-18 06:25:09
Subway,12654 Hwy 80 E,,Montgomery,AL,36117,US,32.36660004,-86.05180359,2022-12-18 06:25:09
Subway,7670 Vaughn Road,,Montgomery,AL,36116,US,32.33819962,-86.18479919,2022-12-18 06:25:09
Subway,1074 N Eufaula Ave,,Eufaula,AL,36027,US,31.91139984,-85.1493988,2022-12-18 06:25:19
Subway,US Hwy 431 S,1352 S Eufaula Ave,Eufaula,AL,36027,US,31.87669945,-85.15080261,2022-12-18 06:25:19
Subway,684 Nicholson St,,Richland,GA,31825,US,32.08750153,-84.67340088,2022-12-18 06:25:20
Subway,625 Blakely St,,Cuthbert,GA,39840,US,31.76930046,-84.78980255,2022-12-18 06:25:19
Subway,850 Highway 165,,Fort Mitchell,AL,36856,US,32.30479813,-85.01069641,2022-12-18 06:25:18
Subway,106 A Broad St,,Cusseta,GA,31805,US,32.3003006,-84.78050232,2022-12-01 10:18:31
Subway,Building 2502,,Fort Benning,GA,31905,US,32.35829926,-84.97540283,2022-12-18 06:25:18
Subway,4022 Victory Dr,Unit B,Columbus,GA,31903,US,32.4095993,-84.9414978,2022-12-13 15:34:06
Subway,106 Martin Luther King Jr Pky,,Phenix City,AL,36869,US,32.44820023,-85.01609802,2022-12-18 06:25:18
Subway,1030 Country Road 208,,Eutaw,AL,35462,US,32.91360092,-87.86730194,2022-12-16 15:27:37
Subway,300 2nd Street NW,,Aliceville,AL,35442,US,33.12870026,-88.15390015,2022-12-16 15:27:37
Subway,13460 Hwy 11 South,,Fosters,AL,35463,US,33.09489822,-87.68530273,2022-12-16 15:27:37
Subway,39641 Highway 69,,Moundville,AL,35474,US,32.98880005,-87.62490082,2022-12-16 15:27:37
Subway,523 Hudson Drive,,Gordo,AL,35466,US,33.31570053,-87.89959717,2022-12-16 15:27:37
Subway,9730 A Hwy 69 S,,Tuscaloosa,AL,35405,US,33.11849976,-87.55290222,2022-12-16 15:27:37
Subway,5550 McFarland Blvd,Ste 100,Northport,AL,35476,US,33.23730087,-87.61070251,2022-12-16 15:27:37
Subway,703 Alabama Highway 28 W.,,Livingston,AL,35470,US,32.62310028,-88.20490265,2022-12-13 15:34:06
Subway,3112-A Greensboro Avenue,,Tuscaloosa,AL,35401,US,33.18199921,-87.55480194,2022-12-16 15:27:37
Subway,10462 Hwy 5,Suite D,Brent,AL,35034,US,32.96030045,-87.16950226,2022-12-16 15:27:37
Subway,844 Main St,,Montevallo,AL,35115,US,33.10110092,-86.86170197,2022-12-13 15:34:06
Subway,24555 Hwy 31,,Jemison,AL,35085,US,32.95740128,-86.74340057,2022-12-13 15:34:06
Subway,8111 Hwy 31 N,,Calera,AL,35040,US,33.10480118,-86.75270081,2022-12-13 15:34:06
Subway,6470 Hwy 82,,Maplesville,AL,36750,US,32.77249908,-86.88210297,2022-12-18 06:25:09
Subway,720 Hwy 87,,Calera,AL,35040,US,33.17430115,-86.77500153,2022-12-13 15:34:06
Subway,4601 Hwy 31,,Calera,AL,35040,US,33.1554985,-86.75080109,2022-12-13 15:34:06
Subway,12820 County Rd 42,,Jemison,AL,35085,US,32.98080063,-86.68569946,2022-12-13 15:34:06
Subway,21336 Hwy 11 N,,McCalla,AL,35111,US,33.24629974,-87.13749695,2022-12-16 15:27:37
Subway,22183 HWY 216,,McCalla,AL,35111,US,33.27890015,-87.09870148,2022-12-16 15:27:37
Subway,875 Market Place,Suite 5,Alexander City,AL,35010-3377,US,32.91999817,-85.95899963,2022-12-18 06:25:09
Subway,17957 Hwy 280 W Ste C,,Dadeville,AL,36853,US,32.83739853,-85.76360321,2022-12-18 06:25:09
Subway,1201 North Main Ave,,Sylacauga,AL,35150,US,33.18370056,-86.24749756,2022-12-13 15:34:08
Subway,41161 US Hwy 280,Space #2,Sylacauga,AL,35150,US,33.17679977,-86.28790283,2022-12-13 15:34:08
Subway,525 Kowaliga Road,,Eclectic,AL,36024,US,32.64149857,-86.04560089,2022-12-18 06:25:09
Subway,20 Hwy 48,,Lineville,AL,36266,US,33.31389999,-85.74430084,2022-12-18 06:25:18
Subway,33590 US Hwy 280,,Childersburg,AL,35044,US,33.26639938,-86.35279846,2022-12-13 15:34:08
Subway,60 Titus Road,,Titus,AL,36080,US,32.66389847,-86.25469971,2022-12-18 06:25:09
Subway,608 East Battle Street,,Talladega,AL,35160,US,33.43690109,-86.0911026,2022-12-18 06:25:18
Subway,9995 Holtville Rd,,Wetumpka,AL,36092,US,32.63539886,-86.31860352,2022-12-18 06:25:09
Subway,1470 LaFayette Pkwy,Suite 240,LaGrange,GA,30241,US,33.04169846,-84.98310089,2022-12-18 06:25:20
Subway,803 New Franklin Road,,LaGrange,GA,30240,US,33.0605011,-85.03089905,2022-12-18 06:25:20
Subway,1861 Roanoake Rd,,LaGrange,GA,30240,US,33.03219986,-85.07260132,2022-12-18 06:25:20
Subway,1790 East Main St,,Hogansville,GA,30230,US,33.16040039,-84.87319946,2022-12-18 06:25:20
Subway,205 East Bank Plaza,,West Point,GA,31833,US,32.87850189,-85.1780014,2022-12-18 06:25:20
Subway,751 Gardenview Drive,Unit 751,Pine Mountain,GA,31822,US,32.85219955,-84.84529877,2022-12-18 06:25:20
Subway,3000 20th Ave,,Valley,AL,36854,US,32.84379959,-85.18049622,2022-12-18 06:25:18
Subway,1048 N Talbutton Highway,,Greenville,GA,30222,US,33.03659821,-84.71330261,2022-12-18 06:25:20
Subway,132 South College Street,,Hamilton,GA,31811,US,32.75690079,-84.87460327,2022-12-18 06:25:20
Subway,2002 Franklin Parkway,Ste C,Franklin,GA,30217,US,33.27899933,-85.1026001,2022-12-18 06:25:20
Subway,1500 Military St S,Suite 3,Hamilton,AL,35570,US,34.12279892,-87.99150085,2022-12-16 15:27:45
Subway,1376 Walnut Street,,Sulligent,AL,35586,US,33.90060043,-88.13529968,2022-12-16 15:27:37
Subway,2250 Hwy 43,Suite 115,Winfield,AL,35594,US,33.93780136,-87.83540344,2022-12-16 15:27:37
Subway,110 Columbus Ave,,Vernon,AL,35592,US,33.75709915,-88.10870361,2022-12-16 15:27:37
Subway,"2227 Temple Ave, N",,Fayette,AL,35555,US,33.71730042,-87.81770325,2022-12-16 15:27:37
Subway,1300  11th Ave,,Haleyville,AL,35565,US,34.21910095,-87.62149811,2022-12-16 15:27:45
Subway,911 Highway 278 East,,Amory,MS,38821,US,33.98020172,-88.4763031,2022-12-13 15:34:04
Subway,1609 S Adams,Suite L,Fulton,MS,38843,US,34.24900055,-88.4036026,2022-12-13 15:34:10
Subway,80 Gin Site Road,,Caledonia,MS,39740,US,33.67839813,-88.3239975,2022-12-16 15:27:37
Subway,720 Main Ave NE,,Hanceville,AL,35077,US,34.07120132,-86.77649689,2022-12-16 15:27:53
Subway,626 Olive St SW,,Cullman,AL,35055,US,34.1495018,-86.84169769,2022-12-16 15:27:53
Subway,1705 Cherokee Ave,,Cullman,AL,35055,US,34.15750122,-86.83730316,2022-12-16 15:27:53
Subway,1102 4th St. SW,,Cullman,AL,35055,US,34.17210007,-86.84909821,2022-12-16 15:27:53
Subway,4354 St Hwy 160,,Hayden,AL,35079,US,33.88470078,-86.7664032,2022-12-16 15:27:53
Subway,5982 Hwy 157,,Cullman,AL,35058,US,34.20750046,-86.87490082,2022-12-16 15:27:53
Subway,290 C Cane Creek Rd,,Warrior,AL,35180,US,33.8103981,-86.82219696,2022-12-13 15:34:07
Subway,2375 Hwy 78 East,,Dora,AL,35062,US,33.75790024,-87.06539917,2022-12-16 15:27:37
Subway,690 Hwy 78,,Sumiton,AL,35148,US,33.74489975,-87.04219818,2022-12-16 15:27:37
Subway,1002 Hwy 78 W,,Jasper,AL,35501,US,33.84899902,-87.28710175,2022-12-16 15:27:37
Subway,813 Rainbow Dr,,Gadsden,AL,35901,US,34.0021019,-86.00450134,2022-12-18 06:25:18
Subway,340 East Meighan Blvd.,,Gadsden,AL,35903,US,34.01240158,-85.98750305,2022-12-18 06:25:18
Subway,3504 Rainbow,Ste A,Rainbow City,AL,35906-8545,US,33.95389938,-86.04119873,2022-12-18 06:25:18
Subway,321 Chastain Blvd,,Glencoe,AL,35905,US,33.96110153,-85.93759918,2022-12-18 06:25:18
Subway,608 5th Ave NE,,Attalla,AL,35954,US,34.01910019,-86.07589722,2022-12-18 06:25:18
Subway,975 Gilbert Ferry Rd,,Attalla,AL,35954,US,33.99599838,-86.09279633,2022-12-18 06:25:18
Subway,2401 Highway 77,,Southside,AL,35907,US,33.91790009,-86.02189636,2022-12-18 06:25:18
Subway,5686 Hwy 278 E,,Hokes Bluff,AL,35903,US,33.98680115,-85.86740112,2022-12-18 06:25:18
Subway,Steel Station Rd & Azalea St,,Steele,AL,35987,US,33.93370056,-86.19129944,2022-12-18 06:25:18
Subway,751 Hwy 431 Suite B,,Boaz,AL,35957,US,34.19739914,-86.15059662,2022-12-18 06:25:18
Subway,1400 N Piedmont Ave,,Rockmart,GA,30153,US,34.01010132,-85.04399872,2022-12-18 06:25:18
Subway,457 Nathan Dean Boulevard,Suite 112,Dallas,GA,30132,US,33.91059875,-84.8219986,2022-12-16 15:27:54
Subway,33 E. Paulding Dr.,B-9,Dallas,GA,30157,US,33.957901,-84.78710175,2022-12-16 15:27:54
Subway,2985 Villa Rica Hwy,,Dallas,GA,30157,US,33.86790085,-84.83979797,2022-12-16 15:27:55
Subway,8876 Dallas-Acworth Hwy,Ste #134,Dallas,GA,30132,US,34.01029968,-84.75330353,2022-12-16 15:27:54
Subway,305 N Main St,,Cedartown,GA,30125,US,34.01739883,-85.25370026,2022-12-18 06:25:18
Subway,7951 Villa Rica Highway,Suite 115,Dallas,GA,30157,US,33.8103981,-84.88829803,2022-12-16 15:27:55
Subway,807 West Avenue,Suite A,Cartersville,GA,30120,US,34.15940094,-84.80960083,2022-12-16 15:27:54
Subway,Blvd Benemerito de Las America,y Fco E Kino #104 Col. Cent,Sonoyta,SON,83571,MX,31.86750031,-112.84480286,2022-12-06 05:51:08
Subway,Av. Oaxaca B y Calle 26,Col. Cuauthemoc,San Luis Rio Colorado,SON,83400,MX,32.44789886,-114.76049805,2022-12-16 15:27:53
Subway,Callejon Juarez y Calle 2a,#199,San Luis Rio Colorado,SON,83400,MX,32.48040009,-114.7826004,2022-12-16 15:27:53
Subway,1613 Main St,,San Luis,AZ,85349,US,32.48939896,-114.78649902,2022-12-16 15:27:53
Subway,9250 South Avenue,40E,Tacna,AZ,85352,US,32.69079971,-113.9536972,2022-12-16 15:27:53
Subway,11274 S Fortuna Rd,Ste L,Yuma,AZ,85367-7849,US,32.66650009,-114.44419861,2022-12-16 15:27:53
Subway,Quilter St,Building 965,Yuma,AZ,85369,US,32.6568985,-114.59410095,2022-12-16 15:27:53
Subway,276 W 32nd Street,Suite 2,Yuma,AZ,85364,US,32.66939926,-114.62249756,2022-12-16 15:27:53
Subway,2850 Pacific Ave S,Suite B,Yuma,AZ,85365-3513,US,32.67599869,-114.60070038,2022-12-16 15:27:53
Subway,Carretera Internacional,# 1000 - A,Santa Ana,SON,84600,MX,30.52949905,-111.11599731,2022-12-16 15:27:54
Subway,1060 Yavapai Drive,# 2-B,Rio Rico,AZ,85648,US,31.46430016,-110.99739838,2022-12-16 15:27:54
Subway,Blvd. Luis Donaldo Colosio,No. 2693 L9 Col. Kennedy,Nogales,SON,84063,MX,31.29269981,-110.94550323,2022-12-16 15:27:54
Subway,"Blvd. Benito Juarez, S/N",,Puerto Penasco,SON,83550,MX,30.62619972,-110.96910095,2022-12-16 15:27:54
Subway,Blvd El Greco No. 45,"Interior D-09, Col. El Greco",Nogales,SON,84066,MX,31.29030037,-110.93969727,2022-12-16 15:27:54
Subway,Av Obregon #98 esquina con,"Calle Ochoa,Col Fundo Legal",Nogales,SON,84000,MX,31.32640076,-110.94589996,2022-12-16 15:27:54
Subway,499 West Mariposa Rd,,Nogales,AZ,85621,US,31.36470032,-110.94029999,2022-12-16 15:27:54
Subway,18745 S I-19 Frontage Rd,Suite #A-107,Green Valley,AZ,85614,US,31.90970039,-110.98390198,2022-12-16 15:27:54
Subway,Bldg 52030,Arizona Street,Ft. Huachuca,AZ,85613,US,31.56780052,-110.34899902,2022-12-16 15:27:54
Subway,329 W Fry Blvd,,Sierra Vista,AZ,85635-1733,US,31.55439949,-110.30310059,2022-12-16 15:27:54
Subway,Calle 6 y Aves 5 y 6,Col. Centro,Agua Prieta,SON,84200,MX,31.3288002,-109.55780029,2022-12-13 15:34:06
Subway,90 East Third Street,Space E,Douglas,AZ,85607,US,31.33729935,-109.55940247,2022-12-13 15:34:06
Subway,1050 E 10th St,,Douglas,AZ,85607,US,31.34480095,-109.54589844,2022-12-13 15:34:06
Subway,443 N. Hwy 90,,Sierra Vista,AZ,85635,US,31.55809975,-110.25730133,2022-12-16 15:27:54
Subway,2931 E Gila Ridge Rd,,Yuma,AZ,85365,US,32.6867981,-114.58309937,2022-12-16 15:27:53
Subway,3006 S. Butterfield Trail,,Gila Bend,AZ,85337,US,32.92979813,-112.67310333,2022-12-13 15:34:00
Subway,942 East Pima Rd,,Gila Bend,AZ,85337-0358,US,32.94940186,-112.70510101,2022-12-16 15:27:53
Subway,21116 John Wayne Pkwy,Suite B6,Maricopa,AZ,85139,US,33.07170105,-112.04679871,2022-12-06 05:51:08
Subway,1000 W Gila Bend Hwy,,Casa Grande,AZ,85122,US,32.88000107,-111.77500153,2022-12-06 05:51:08
Subway,1355 E Florence Blvd,Suite 101,Casa Grande,AZ,85122,US,32.87749863,-111.72850037,2022-12-06 05:51:08
Subway,5240 S Sunland Gin Rd,,Eloy,AZ,85131,US,32.82580185,-111.67099762,2022-12-06 05:51:08
Subway,2820 North Pinal Ave,Suite 5,Casa Grande,AZ,85122,US,32.93830109,-111.75640106,2022-12-06 05:51:08
Subway,6777 N Sandario Rd,Inside Minit Market,Tucson,AZ,85743-8774,US,32.32740021,-111.21839905,2022-12-16 15:27:55
Subway,4889 W Ajo Hwy,Suite 125,Tucson,AZ,85757,US,32.17129898,-111.0714035,2022-12-16 15:27:54
Subway,9110 N. Silverbell Road,Suite 150,Marana,AZ,85743,US,32.37269974,-111.13610077,2022-12-16 15:27:55
Subway,619 S Sunshine Blvd,,Eloy,AZ,85131,US,32.73880005,-111.55039978,2022-12-06 05:51:08
Subway,2955 W Valencia Rd,Ste 101,Tucson,AZ,85746,US,32.1332016,-111.03099823,2022-12-16 15:27:54
Subway,5892 W Arizona Pavilions Drive,Suite 100,Tucson,AZ,85743,US,32.35499954,-111.09190369,2022-12-16 15:27:55
Subway,1710 W Valencia Rd.,Suite 120,Tucson,AZ,85746,US,32.13370132,-110.99819946,2022-12-16 15:27:54
Subway,15980 S Rancho Sahuarita,Suite 104/Retail Pad 3,Sahuarita,AZ,85629,US,31.95980072,-110.98390198,2022-12-16 15:27:54
Subway,18680 S Nogales Hwy,,GreenValley,AZ,85614,US,31.91180038,-110.98190308,2022-12-16 15:27:54
Subway,6445 S 12th Ave,Suite 101,Tucson,AZ,85706,US,32.13470078,-110.97750092,2022-12-16 15:27:54
Subway,6610 S Tucson Blvd.,,Tucson,AZ,85756,US,32.13159943,-110.93499756,2022-12-16 15:27:54
Subway,2245 E. Irvington Rd.,Suite 120,Tucson,AZ,85714,US,32.16379929,-110.938797,2022-12-16 15:27:54
Subway,3792 S 16th Ave,Ajo and 16th Ave.,Tucson,AZ,85713-6079,US,32.17789841,-110.98120117,2022-12-16 15:27:54
Subway,995 W 4th St,,Benson,AZ,85602,US,31.97069931,-110.31500244,2022-12-16 15:27:54
Subway,643 Highway 90,,Benson,AZ,85602,US,31.96229935,-110.3451004,2022-12-16 15:27:54
Subway,1501 N Fort Grant Rd,,Willcox,AZ,85643-1099,US,32.26919937,-109.8483963,2022-12-13 15:34:06
Subway,13370 E Mary Ann Cleveland Way,Suite 126,Vail,AZ,85641,US,32.05130005,-110.70770264,2022-12-16 15:27:54
Subway,9255 South Rita Road,,Tucson,AZ,85747,US,32.08399963,-110.80329895,2022-12-16 15:27:54
Subway,9040 E Valencia Rd,Suite 136,Tucson,AZ,85747-4900,US,32.11880112,-110.79910278,2022-12-16 15:27:54
Subway,1150 West 8th St,,Yuma,AZ,85364-2832,US,32.71310043,-114.6339035,2022-12-16 15:27:53
Subway,1623 South 4th Ave,,Yuma,AZ,85364,US,32.69810104,-114.62460327,2022-12-16 15:27:53
Subway,1522 South Avenue B,Unit A,Yuma,AZ,85364,US,32.69990158,-114.65039825,2022-12-16 15:27:53
Subway,1010 N 339th Ave,,Tonopah,AZ,85354-7434,US,33.45959854,-112.78369904,2022-12-16 15:27:53
Subway,41112 W Indian School Rd,,Tonopah,AZ,85354-0203,US,33.49520111,-112.93910217,2022-12-16 15:27:53
Subway,410 E Hwy MC 85 Suite B,,Buckeye,AZ,85326,US,33.37260056,-112.5739975,2022-12-13 15:34:00
Subway,1610 S. Miller Rd.,,Buckeye,AZ,85326,US,33.43130112,-112.59190369,2022-12-18 06:25:22
Subway,1510 S Watson Rd,Suite B106,Buckeye,AZ,85326,US,33.43320084,-112.55780029,2022-12-18 06:25:22
Subway,17650 W Elliot Road,Suite A-110,Goodyear,AZ,85338,US,33.3526001,-112.42900085,2022-12-13 15:34:00
Subway,960 South Sarival Avenue,Suite 112,Goodyear,AZ,85338,US,33.43560028,-112.40950012,2022-12-18 06:25:22
Subway,525 N Estrella Pkwy,Suite 103,Goodyear,AZ,85338,US,33.45220184,-112.39170074,2022-12-18 06:25:22
Subway,9666 E Riggs Rd,Ste 146,Sun Lakes,AZ,85248-7487,US,33.2195015,-111.87480164,2022-12-18 06:25:14
Subway,4200 S Arizona Ave,Suite 4,Chandler,AZ,85248,US,33.24549866,-111.84190369,2022-12-18 06:25:14
Subway,2945 East Riggs Road,Suite 13,Chandler,AZ,85249,US,33.21780014,-111.78990173,2022-12-18 06:25:14
Subway,3125 S Alma School Rd.,Suite 5,Chandler,AZ,85248-3759,US,33.26139832,-111.85720062,2022-12-18 06:25:14
Subway,3961 E Chandler Blvd,Ste 103-A,Phoenix,AZ,85048,US,33.30390167,-111.99780273,2022-12-18 06:25:21
Subway,2975 E Ocotillo Road,Suite 7,Chandler,AZ,85249,US,33.24829865,-111.78949738,2022-12-18 06:25:14
Subway,55 S Main St,,Florence,AZ,85132,US,33.03099823,-111.38710022,2022-12-13 15:34:09
Subway,3235 N. Hunt Hwy,"Shops D, Suite 105",Florence,AZ,85132,US,33.06150055,-111.48410034,2022-12-06 05:51:08
Subway,1501 E Ash St,,Globe,AZ,85501,US,33.39580154,-110.77330017,2022-12-16 15:27:55
Subway,879 N Arizona Blvd,,Coolidge,AZ,85128,US,32.9858017,-111.52359772,2022-12-06 05:51:08
Subway,2205 US Highway 60,,Globe,AZ,85501,US,33.41939926,-110.81259918,2022-12-16 15:27:55
Subway,270 E Hunt Hwy,Suite 78,Queen Creek,AZ,85242,US,33.16249847,-111.56359863,2022-12-18 06:25:14
Subway,1781 W Hunt Hwy,,Queen Creek,AZ,85142,US,33.17649841,-111.58439636,2022-12-18 06:25:14
Subway,35 West Combs Road,Suite 101,San Tan Valley,AZ,85140,US,33.2193985,-111.56390381,2022-12-18 06:25:14
Subway,15250 N Oracle Rd,Suite 190,Catalina,AZ,85739,US,32.4822998,-110.92060089,2022-12-16 15:27:55
Subway,2051 W Hwy 70,,Thatcher,AZ,85552,US,32.83670044,-109.7338028,2022-12-16 15:27:55
Subway,755 South 20th Ave,,Safford,AZ,85546,US,32.83250046,-109.73110199,2022-12-16 15:27:55
Subway,750 8th Ave,Inside Minit Market,Safford,AZ,85546-2832,US,32.83169937,-109.71649933,2022-12-16 15:27:55
Subway,2507 West Business 10,,San Simon,AZ,85632,US,32.26610184,-109.22509766,2022-12-13 15:34:06
Subway,6878 E Sunrise Drive,Suite 150,Tucson,AZ,85750-0889,US,32.30780029,-110.84559631,2022-12-16 15:27:55
Subway,11901 North 1st Ave,Suite B 104,Oro Valley,AZ,85737,US,32.42210007,-110.96230316,2022-12-16 15:27:55
Subway,157 W Riverside Drive,,Parker,AZ,85344,US,34.15420151,-114.28019714,2022-12-16 15:27:53
Subway,1201 West Main Street,,Quartzsite,AZ,85359,US,33.66109848,-114.23549652,2022-12-16 15:27:53
Subway,760 S. Quartzsite Blvd.,,Quartzsite,AZ,85346,US,33.65719986,-114.24130249,2022-12-16 15:27:53
Subway,48286 Vicksburg Road,,Salome,AZ,85346,US,33.63359833,-113.76860046,2022-12-16 15:27:53
Subway,3269 Maricopa Ave,Suite 112,Lake Havasu City,AZ,86406,US,34.45800018,-114.2786026,2022-12-16 15:27:53
Subway,18221 Tom Wells Road,,Ehrenberg,AZ,85334,US,33.62419891,-114.4375,2022-12-16 15:27:53
Subway,20 Acoma Blvd,Unit 100,Lake Havasu City,AZ,86403,US,34.47650146,-114.32279968,2022-12-16 15:27:53
Subway,1799 Kiowa Avenue,Suite 113,Lake Havasu City,AZ,86403,US,34.50299835,-114.34870148,2022-12-16 15:27:53
Subway,650 W. Donlon Street,,Blythe,CA,92225,US,33.60649872,-114.60299683,2022-12-16 15:27:53
Subway,5695 Hwy 95 N,,Lake Havasu City,AZ,86404,US,34.57220078,-114.36750031,2022-12-16 15:27:53
Subway,412 E Wickenburg Way,,Wickenburg,AZ,85390-1539,US,33.97219849,-112.72409821,2022-12-18 06:25:22
Subway,31120 W Hwy 60,,Wittman,AZ,85361,US,33.76539993,-112.51360321,2022-12-18 06:25:22
Subway,17019 W Greenway Road,Suite 113,Surprise,AZ,85379,US,33.62319946,-112.42569733,2022-12-18 06:25:22
Subway,15508 W Bell Rd,Ste 103,Surprise,AZ,85374,US,33.64030075,-112.3946991,2022-12-18 06:25:22
Subway,28471 North Vistancia Blvd,Suite 101,Peoria,AZ,85383,US,33.74089813,-112.32219696,2022-12-18 06:25:22
Subway,14455 W Grand Ave,Suite 100,Surprise,AZ,85374-7194,US,33.6534996,-112.37149811,2022-12-18 06:25:22
Subway,15423 West Waddell Road,Suite 105,Surprise,AZ,85379,US,33.60950089,-112.3914032,2022-12-18 06:25:22
Subway,19423 N. RH Johnson Blvd.,Suite 107,Sun City West,AZ,85375,US,33.6568985,-112.35089874,2022-12-18 06:25:22
Subway,3906 W. New River Rd,,New River,AZ,85087,US,33.91450119,-112.14430237,2022-12-18 06:25:22
Subway,3655 West Anthem Way,Suite C 105,Anthem,AZ,85086,US,33.86489868,-112.13870239,2022-12-18 06:25:22
Subway,4435 West Anthem Way,,Phoenix,AZ,85086,US,33.86869812,-112.15450287,2022-12-18 06:25:22
Subway,34522 N. Scottsdale Rd.,Suite 130,Scottsdale,AZ,85266,US,33.79880142,-111.93080139,2022-12-18 06:25:21
Subway,3120 W Carefree Hwy,Suite B-9,Phoenix,AZ,85086,US,33.79990005,-112.12609863,2022-12-18 06:25:22
Subway,29834 N Cave Creek Rd,Suite 100,Cave Creek,AZ,85331,US,33.75740051,-111.99130249,2022-12-18 06:25:21
Subway,2330 W Happy Valley Rd.,Suite 1025,Phoenix,AZ,85085,US,33.71300125,-112.11170197,2022-12-18 06:25:22
Subway,23359 N. Pima Road,C-145,Scottsdale,AZ,85255,US,33.69749832,-111.88990021,2022-12-18 06:25:21
Subway,128 East Hwy 260,Suite 116,Payson,AZ,85541-4925,US,34.24200058,-111.32209778,2022-12-16 15:27:55
Subway,300 N Beeline Hwy,,Payson,AZ,85541,US,34.24399948,-111.32460022,2022-12-16 15:27:55
Subway,2935 State Hwy 260,Suite A1,Overgaard,AZ,85933,US,34.41350174,-110.57109833,2022-12-16 15:27:55
Subway,13771 Fountain Hills Blvd,Suite 113,Fountain Hills,AZ,85268-3733,US,33.61050034,-111.72789764,2022-12-18 06:25:21
Subway,16841 E Shea Blvd,Suite 1-103,Fountain Hills,AZ,85268,US,33.5727005,-111.71559906,2022-12-18 06:25:21
Subway,95 S Idaho Rd,Suite 110,Apache Junction,AZ,85119,US,33.41429901,-111.54519653,2022-12-18 06:25:21
Subway,5301 S Superstition Mtn Dr,A-108,Gold Canyon,AZ,85218,US,33.36700058,-111.4756012,2022-12-16 15:27:52
Subway,2555 W Apache Trail,,Apache Junction,AZ,85120,US,33.4151001,-111.57360077,2022-12-18 06:25:21
Subway,20 E White Mountain Blvd,"Suite 4, Building A",Lakeside,AZ,85929-6807,US,34.14260101,-109.95410156,2022-12-16 15:27:55
Subway,4431 S. White Mountain Rd,Shop B Suite #1,Show Low,AZ,85901,US,34.20500183,-110.02010345,2022-12-16 15:27:55
Subway,161 East Duece of Clubs,Suite A10,Show Low,AZ,85901-4839,US,34.25059891,-110.04019928,2022-12-16 15:27:55
Subway,745 North Main St,Suite A,Taylor,AZ,85939,US,34.47600174,-110.08560181,2022-12-16 15:27:55
Subway,830 E Main St,Ste 100,Springerville,AZ,85938,US,34.13249969,-109.27519989,2022-12-16 15:27:55
Subway,1175 W Cleveland Street,,St. Johns,AZ,85936,US,34.50650024,-109.38189697,2022-12-16 15:27:55
Subway,4703 Main St.,,Joseph City,AZ,86032,US,34.95439911,-110.31099701,2022-12-16 15:27:55
Subway,2505 Hualapai Mountain Rd,Suite C,Kingman,AZ,86401,US,35.1916008,-114.01959991,2022-12-16 15:27:53
Subway,953 W Beale St,,Kingman,AZ,86401-5403,US,35.19290161,-114.07029724,2022-12-16 15:27:53
Subway,6035 E. Minerva Lane,,Kingman,AZ,86401,US,35.1996994,-113.90440369,2022-12-16 15:27:53
Subway,1949 East Beverly Ave,Suite 102,Kingman,AZ,86401-0716,US,35.21929932,-114.03440094,2022-12-16 15:27:53
Subway,3880 Stockton Hill Rd,Suite 102,Kingman,AZ,86409,US,35.23550034,-114.03739929,2022-12-16 15:27:53
Subway,5373 Highway 68,,Golden Valley,AZ,86413,US,35.22180176,-114.21179962,2022-12-16 15:27:53
Subway,14875 Hwy 95,,Lake Havasu City,AZ,86404,US,34.72439957,-114.31580353,2022-12-16 15:27:53
Subway,1047 Highway 95,Suite B4,Bullhead City,AZ,86429,US,35.15029907,-114.56829834,2022-12-16 15:27:53
Subway,5210 S. Highway 95,,Fort Mohave,AZ,86426,US,35.00429916,-114.59790039,2022-12-16 15:27:53
Subway,Exit 123 Interstate 40,,Seligman,AZ,86337-0068,US,35.30920029,-112.85679626,2022-12-16 15:27:48
Subway,1021 North State Highway 89,Suite 102,Chino Valley,AZ,86323,US,34.76060104,-112.45240021,2022-12-13 15:34:04
Subway,3196 Willow Creek Rd,Suite 106,Prescott,AZ,86301,US,34.6012001,-112.45839691,2022-12-16 15:27:53
Subway,1280 Gail Gardner Way,{inside Wal-Mart,Prescott,AZ,86305,US,34.56560135,-112.48609924,2022-12-16 15:27:53
Subway,1333 Iron Springs Rd,Suite A,Prescott,AZ,86305,US,34.56299973,-112.48829651,2022-12-16 15:27:53
Subway,120 E. Sheldon Street,Suite E106,Prescott,AZ,86301,US,34.54539871,-112.46769714,2022-12-16 15:27:53
Subway,1781 E State Rte 69,Suite 25,Prescott,AZ,86301-5666,US,34.54800034,-112.43659973,2022-12-16 15:27:53
Subway,4596 N Robert Rd,,Prescott Valley,AZ,86314-6323,US,34.6094017,-112.32129669,2022-12-13 15:34:04
Subway,3450 N. Glassford Hill Road,,Prescott Valley,AZ,86314,US,34.58890152,-112.33930206,2022-12-13 15:34:04
Subway,7584 East State Route 69,Suite D,Prescott Valley,AZ,86314-2278,US,34.58499908,-112.33300018,2022-12-13 15:34:04
Subway,182 Coffee Pot Dr,Suite A,Sedona,AZ,86336-4531,US,34.86470032,-111.79370117,2022-12-16 15:27:55
Subway,2104 Kachina Blvd,,Flagstaff,AZ,86005,US,35.08969879,-111.68740082,2022-12-16 15:27:55
Subway,12500 West I-40 Exit 185,Country Host Restaurants Inc,Bellemont,AZ,86015-6133,US,35.23849869,-111.82209778,2022-12-13 15:34:03
Subway,"1100 AZ-260,","Suite D-14,",Cottonwood,AZ,86326,US,34.71879959,-112.00469971,2022-12-13 15:34:03
Subway,6501 Hwy 179,,Sedona,AZ,86351,US,34.77780151,-111.76290131,2022-12-16 15:27:55
Subway,1055 N. Grand Canyon Blvd.,"I-40, Exit 163",Williams,AZ,86046,US,35.26259995,-112.19419861,2022-12-13 15:34:04
Subway,2750 S Woodlands Village Blvd,,Flagstaff,AZ,86001,US,35.17610168,-111.66459656,2022-12-16 15:27:55
Subway,1304 S. Plaza Way,,Flagstaff,AZ,86001,US,35.18759918,-111.66339874,2022-12-13 15:34:03
Subway,306 E. Pine Knoll Dr.,BLDG 63,Flagstaff,AZ,86011,US,35.1894989,-111.65519714,2022-12-13 15:34:03
Subway,2018 E. Butler Ave,,Flagstaff,AZ,86004,US,35.19250107,-111.625,2022-12-16 15:27:55
Subway,1503 North Park Dr,,Winslow,AZ,86047-2517,US,35.03549957,-110.69789886,2022-12-16 15:27:55
Subway,7810 North Hwy 89,Suite 210,Flagstaff,AZ,86004,US,35.25279999,-111.5582962,2022-12-16 15:27:55
Subway,1500 E. Cedar Ave Suite 48,Safeway Plaza,Flagstaff,AZ,86004,US,35.2195015,-111.62059784,2022-12-16 15:27:55
Subway,I 40 Exit 325,,Chambers,AZ,86502,US,35.12820053,-109.54149628,2022-12-18 06:25:20
Subway,19949 US-93,,White Hills,AZ,86445,US,35.70479965,-114.47789764,2022-12-16 15:27:48
Subway,1620 Nevada Highway,,Boulder City,NV,89005,US,35.97100067,-114.85040283,2022-12-18 06:25:12
Subway,591 College Drive,Suite A,Henderson,NV,89015,US,36.01300049,-114.96399689,2022-12-16 15:27:55
Subway,118 S Boulder Hwy,,Henderson,NV,89015,US,36.03900146,-114.9803009,2022-12-18 06:25:12
Subway,75 E Horizon Ridge Pkwy,Suite 150,Henderson,NV,89002,US,36.00859833,-114.99210358,2022-12-16 15:27:55
Subway,625 N. State St.,,Hildale,UT,84784,US,37.00059891,-112.99970245,2022-12-18 06:25:12
Subway,295 E 300 S,,Kanab,UT,84741,US,37.0428009,-112.52300262,2022-12-18 06:25:12
Subway,141 W Brigham Rd,,St George,UT,84770,US,37.06000137,-113.5861969,2022-12-18 06:25:12
Subway,4031 E. Fleet Street,,Littlefield,AZ,86432,US,36.89799881,-113.91329956,2022-12-18 06:25:12
Subway,50 S Main St,,Tuba City,AZ,86045,US,36.12009811,-111.22949982,2022-12-16 15:27:48
Subway,Navajo Reservation  Rte #41,,Pinon,AZ,86510,US,36.09799957,-110.21669769,2022-12-18 06:25:20
Subway,Hwy 163 and Hwy 160,,Kayenta,AZ,86033,US,36.70940018,-110.25170135,2022-12-18 06:25:20
Subway,813 State Highway 89A,Ste A9,Page,AZ,86040-3832,US,36.89530182,-111.4897995,2022-12-18 06:25:20
Subway,1956 Navajo Rte 7,,Chinle,AZ,86503,US,36.15950012,-109.57769775,2022-12-18 06:25:20
Subway,1575 DState Hwy 264 Tse Bonito,,Gallup,NM,87301,US,35.65930176,-109.0428009,2022-12-18 06:25:20
Subway,3380 W 66th,,Gallup,NM,87301,US,35.50619888,-108.83409882,2022-12-18 06:25:20
Subway,830 US Hwy 491,,Gallup,NM,87301,US,35.53409958,-108.75879669,2022-12-18 06:25:20
Subway,929 S Pine,,Vivian,LA,71082,US,32.86040115,-93.98660278,2022-12-18 06:25:22
Subway,205 East Main Street,,Atlanta,TX,75551,US,33.11380005,-94.16349792,2022-12-18 06:25:20
Subway,22406 N. HWY 59,,Queen City,TX,75572,US,33.26210022,-94.15149689,2022-12-18 06:25:20
Subway,201 South Walcott Street,,Jefferson,TX,75657,US,32.7602005,-94.3553009,2022-12-18 06:25:20
Subway,207 Burt Blvd.,,Benton,LA,71006,US,32.67900085,-93.74359894,2022-12-18 06:25:22
Subway,5795 N Market St,Ste 1,Shreveport,LA,71107,US,32.59980011,-93.83930206,2022-12-16 15:27:46
Subway,4103 West 7th Street,,Texarkana,TX,75501,US,33.41899872,-94.09210205,2022-12-18 06:25:20
Subway,3639 9th Street,,Texarkana,AR,71854,US,33.43180084,-94.00119781,2022-12-18 06:25:20
Subway,710 S Arkansas,,Springhill,LA,71075,US,32.99689865,-93.46369934,2022-12-18 06:25:22
Subway,404 Walton Dr,Ste 900,Texarkana,TX,75501,US,33.44649887,-94.10639954,2022-12-18 06:25:20
Subway,923 West Main,,Homer,LA,71040,US,32.80020142,-93.07350159,2022-12-16 15:27:55
Subway,201 N Fredrick St,,Magnolia,AR,71753,US,33.26779938,-93.22579956,2022-12-18 06:25:22
Subway,705 Timberlane,,El Dorado,AR,71730,US,33.20119858,-92.69010162,2022-12-16 15:27:55
Subway,100 E University,Bruce Center,Magnolia,AR,71753,US,33.29290009,-93.23249817,2022-12-18 06:25:22
Subway,2424 N. West Ave,,El Dorado,AR,71730,US,33.23479843,-92.66549683,2022-12-16 15:27:51
Subway,2450 East Main Street,,El Dorado,AR,71730,US,33.21469879,-92.6312027,2022-12-16 15:27:55
Subway,315 Homer Rd,,Minden,LA,71055,US,32.62189865,-93.27420044,2022-12-16 15:27:55
Subway,600 Factory Outlet Dr,Ste 10,Arcadia,LA,71001,US,32.55929947,-92.9138031,2022-12-16 15:27:55
Subway,213 Fairview Rd,,Crossett,AR,71635,US,33.13819885,-91.95349884,2022-12-18 06:25:21
Subway,10400 Crossett Hwy,,Bastrop,LA,71220,US,32.80250168,-91.90209961,2022-12-13 15:34:08
Subway,823 E Madison,,Bastrop,LA,71220,US,32.77980042,-91.90339661,2022-12-13 15:34:08
Subway,526 S Main,,Hamburg,AR,71646,US,33.21870041,-91.7983017,2022-12-18 06:25:21
Subway,1333 Hwy 2,,Sterlington,LA,71280,US,32.68180084,-92.04720306,2022-12-13 15:34:08
Subway,114 S Main Street,,Farmerville,LA,71241,US,32.77280045,-92.40519714,2022-12-13 15:34:08
Subway,4200 Sterlington Road,,Monroe,LA,71203,US,32.57120132,-92.08249664,2022-12-13 15:34:08
Subway,560 Lincoln Road,,Monroe,LA,71203,US,32.54600143,-92.01399994,2022-12-13 15:34:08
Subway,700 University Avenue,Wigwam Foodcourt,Monroe,LA,71209,US,32.52780151,-92.07530212,2022-12-13 15:34:08
Subway,1400 Lamy Lane,,Monroe,LA,71201,US,32.52949905,-92.09359741,2022-12-13 15:34:08
Subway,103 S Constitution,,Oak Grove,LA,71263,US,32.8608017,-91.39019775,2022-12-18 06:25:21
Subway,1652 Hwy 1 S,,Greenville,MS,38701,US,33.37390137,-91.03929901,2022-12-18 06:25:21
Subway,1643 Hwy 82 E,,Greenville,MS,38701,US,33.39929962,-91.03209686,2022-12-18 06:25:21
Subway,1216 State Hwy 65-82 S,,Lake Village,AR,71653,US,33.32130051,-91.29250336,2022-12-18 06:25:21
Subway,14880 US Highway 49,,Belzoni,MS,39038,US,33.16439819,-90.49859619,2022-12-18 06:25:21
Subway,681 East 15th St,,Yazoo City,MS,39194-2703,US,32.86460114,-90.39530182,2022-12-18 06:25:21
Subway,308 Hwy 82,,Indianola,MS,38751,US,33.45780182,-90.64559937,2022-12-18 06:25:21
Subway,120 Highway 65 South,,Tallulah,LA,71282,US,32.40769958,-91.18699646,2022-12-18 06:25:21
Subway,1215 Mission 66,,Vicksburg,MS,39183,US,32.34820175,-90.86270142,2022-12-18 06:25:21
Subway,4209 Clay Street,,Vicksburg,MS,39183,US,32.3445015,-90.83429718,2022-12-18 06:25:21
Subway,304 Court Sq,,Lexington,MS,39095,US,33.11249924,-90.05200195,2022-12-18 06:25:16
Subway,33624 Highway 12,,Durant,MS,39063,US,33.08639908,-89.85720062,2022-12-18 06:25:16
Subway,116 Veterans Memorial Drive,,Kosciusko,MS,39090-3217,US,33.05920029,-89.56990051,2022-12-18 06:25:16
Subway,3360 N Liberty St,,Canton,MS,39046,US,32.61539841,-90.03469849,2022-12-18 06:25:16
Subway,244 Feather Lane,,Canton,MS,39046,US,32.59600067,-90.07279968,2022-12-18 06:25:16
Subway,498 Highway 16 West,Suite A,Carthage,MS,39051,US,32.73279953,-89.53639984,2022-12-18 06:25:16
Subway,1227 Gluckstadt Road,,Madison,MS,39110,US,32.51660156,-90.09719849,2022-12-18 06:25:16
Subway,324 Hwy 82,,Winona,MS,38967,US,33.48740005,-89.75700378,2022-12-18 06:25:16
Subway,51 S Park Shopping Center,,Nashville,AR,71852,US,33.92990112,-93.85079956,2022-12-18 06:25:20
Subway,858 E Collin Raye Dr,,De Queen,AR,71832,US,34.04539871,-94.32479858,2022-12-18 06:25:20
Subway,"1160 S Constitution, Hwy 71",,Ashdown,AR,71822,US,33.67430115,-94.13140106,2022-12-18 06:25:20
Subway,111 N. Madden St,,Foreman,AR,71836,US,33.72050095,-94.39209747,2022-12-18 06:25:20
Subway,417 N Hervey St,,Hope,AR,71801,US,33.67060089,-93.59790039,2022-12-18 06:25:22
Subway,2 Caddo Crossing Dr,Suite B,Glenwood,AR,71943,US,34.32279968,-93.54979706,2022-12-18 06:25:22
Subway,I30 & Hwy 24,,Prescott,AR,71857,US,33.81140137,-93.42700195,2022-12-18 06:25:22
Subway,5602 Richmond Road Ste. 102,,Texarkana,TX,75503,US,33.47200012,-94.09670258,2022-12-18 06:25:20
Subway,5115 Summerhill Rd,,Texarkana,TX,75503,US,33.46689987,-94.06770325,2022-12-18 06:25:20
Subway,2802 Pine St,,Arkadelphia,AR,71923,US,34.12039948,-93.08460236,2022-12-18 06:25:22
Subway,146 Valley St,,Arkadelphia,AR,71923,US,34.18259811,-93.06929779,2022-12-16 15:27:48
Subway,1601 Hwy 270 West,,Malvern,AR,72104,US,34.3844986,-92.83049774,2022-12-16 15:27:48
Subway,119 Garden Oaks Center,,Camden,AR,71701,US,33.58420181,-92.8506012,2022-12-16 15:27:46
Subway,4019 Central Avenue,,Hot Springs,AR,71913,US,34.45429993,-93.0617981,2022-12-16 15:27:48
Subway,2350 Malvern Ave,,Hot Springs,AR,71901,US,34.47200012,-93.02179718,2022-12-16 15:27:48
Subway,2550 Airport Road,,Hot Springs,AR,71913,US,34.44950104,-93.17620087,2022-12-16 15:27:48
Subway,3302 Central Ave,,Hot Springs,AR,71913,US,34.47539902,-93.06159973,2022-12-16 15:27:48
Subway,700 N Lincoln Street,,Star City,AR,71667,US,33.95190048,-91.84320068,2022-12-18 06:25:21
Subway,5401 S. Olive,,Pine Bluff,AR,71603,US,34.17079926,-92.00640106,2022-12-16 15:27:55
Subway,3705 Camden Rd,,Pine Bluff,AR,71603,US,34.1969986,-92.05400085,2022-12-16 15:27:55
Subway,4800 Highway 65 South,,Pine Bluff,AR,71601,US,34.19490051,-91.92189789,2022-12-18 06:25:22
Subway,1620 Main St,,Pine Bluff,AR,71601,US,34.21289825,-92.00330353,2022-12-16 15:27:55
Subway,8001 Sheridan Rd,,White Hall,AR,71602,US,34.25839996,-92.09750366,2022-12-16 15:27:55
Subway,7401 Dollarway Rd.,Suite 109,White Hall,AR,71602,US,34.26620102,-92.08470154,2022-12-16 15:27:55
Subway,1229 N Edgar,,Fordyce,AR,71742,US,33.82450104,-92.42680359,2022-12-16 15:27:51
Subway,427 Hwy 425 North,,Monticello,AR,71655,US,33.6391983,-91.80139923,2022-12-18 06:25:21
Subway,404 S Main St,,Warren,AR,71671,US,33.60400009,-92.06590271,2022-12-18 06:25:22
Subway,302 S Davis Ave,,Cleveland,MS,38732,US,33.74119949,-90.71559906,2022-12-18 06:25:21
Subway,1705 S Whitehead Dr,,De Witt,AR,72042,US,34.27809906,-91.33940125,2022-12-18 06:25:21
Subway,620 S State Street,Unit #4,Clarksdale,MS,38614,US,34.1882019,-90.5786972,2022-12-18 06:25:21
Subway,397 State Hwy 65 S,,Dumas,AR,71639,US,33.90129852,-91.49140167,2022-12-18 06:25:21
Subway,222 North Oak Hwy 49,,Ruleville,MS,38771,US,33.72600174,-90.54669952,2022-12-18 06:25:21
Subway,205 Hwy 65 S,,McGehee,AR,71654,US,33.60839844,-91.38310242,2022-12-18 06:25:21
Subway,770 N Sebastion St,,West Helena,AR,72390,US,34.55469894,-90.65599823,2022-12-18 06:25:21
Subway,2001 Commerce Street,,Grenada,MS,38901,US,33.76100159,-89.80930328,2022-12-18 06:25:16
Subway,407 Hwy 6 East,,Batesville,MS,38606,US,34.31129837,-89.94180298,2022-12-18 06:25:21
Subway,337 S. Main St,,Water Valley,MS,38965,US,34.14419937,-89.6352005,2022-12-18 06:25:21
Subway,725 Hwy 35N,,Batesville,MS,38606,US,34.35129929,-89.91449738,2022-12-18 06:25:21
Subway,502 E Lee Street,,Sardis,MS,38666,US,34.43740082,-89.90090179,2022-12-18 06:25:21
Subway,115 Hwy 7 South,,Greenwood,MS,38930,US,33.51720047,-90.15239716,2022-12-18 06:25:16
Subway,805 W Park Ave,Suite 4,Greenwood,MS,38930,US,33.52719879,-90.20200348,2022-12-18 06:25:16
Subway,2530 W Jackson Ave,,Oxford,MS,38655,US,34.36019897,-89.5644989,2022-12-18 06:25:22
Subway,109 Highway 71,,Waldron,AR,72958,US,34.90319824,-94.1065979,2022-12-16 15:27:41
Subway,1401 State Highway 10 E,,Booneville,AR,72927,US,35.14220047,-93.89920044,2022-12-16 15:27:41
Subway,607 S Hwy 71,,Mansfield,AR,72944,US,35.06309891,-94.24510193,2022-12-16 15:27:41
Subway,903 E. Main,,Charleston,AR,72933,US,35.29700089,-94.03079987,2022-12-16 15:27:41
Subway,1272 W Center St,,Greenwood,AR,72936,US,35.2179985,-94.27249908,2022-12-16 15:27:41
Subway,1212 East Walnut St,Suite 1,Paris,AR,72855,US,35.29230118,-93.72599792,2022-12-16 15:27:40
Subway,12300 Hwy 71 S,Suite D,Fort Smith,AR,72916,US,35.26729965,-94.37039948,2022-12-16 15:27:41
Subway,8612 Rogers Ave,,Fort Smith,AR,72903,US,35.3465004,-94.33660126,2022-12-16 15:27:41
Subway,8901 Jenny Lind Rd,#5B,Fort Smith,AR,72903,US,35.2983017,-94.40950012,2022-12-16 15:27:41
Subway,7920 Hwy 71,,Fort Smith,AR,72901,US,35.31079865,-94.39730072,2022-12-16 15:27:41
Subway,1050 N Fourche Ave,,Perryville,AR,72126,US,35.01369858,-92.79840088,2022-12-16 15:27:40
Subway,614 Union St,,Dardanelle,AR,72834,US,35.22129822,-93.16480255,2022-12-16 15:27:40
Subway,1304 N Church St.,,"Atkins, AR",AR,72823,US,35.25500107,-92.93720245,2022-12-16 15:27:40
Subway,1812 North Business 9,,Morrilton,AR,72110,US,35.16999817,-92.71949768,2022-12-16 15:27:38
Subway,215 Service Rd 331 N,,Russellville,AR,72802,US,35.28139877,-93.09329987,2022-12-16 15:27:40
Subway,405 S Arkansas Ave,,Russellville,AR,72801,US,35.27420044,-93.13349915,2022-12-16 15:27:40
Subway,2410 E Parkway Dr,Ste A,Russellville,AR,72802,US,35.28279877,-93.10590363,2022-12-16 15:27:40
Subway,2716 West Main Street,Ste 2,Russellville,AR,72801,US,35.28680038,-93.16159821,2022-12-16 15:27:40
Subway,300 East 8th,,Danville,AR,72833,US,35.05419922,-93.39029694,2022-12-16 15:27:40
Subway,101 Lakefront Dr,,Russellville,AR,72802,US,35.30379868,-93.13880157,2022-12-16 15:27:40
Subway,100 Northport Drive,Suite A,Cabot,AR,72023,US,34.98289871,-92.04429626,2022-12-16 15:27:38
Subway,1802 S. Pine St.,,Cabot,AR,72023,US,34.94440079,-92.00910187,2022-12-16 15:27:38
Subway,3155 South Second St.,,Cabot,AR,72023,US,34.94789886,-92.06040192,2022-12-16 15:27:38
Subway,2003 W. Center St,,Beebe,AR,72012,US,35.06890106,-91.92019653,2022-12-16 15:27:38
Subway,1709 W Dewitt Henry Dr,,Beebe,AR,72012,US,35.07239914,-91.90339661,2022-12-16 15:27:38
Subway,505 N Loop Rd,,Jacksonville,AR,72076,US,34.8844986,-92.10669708,2022-12-16 15:27:38
Subway,6th St @ Cannon Dr,New Base Exchange,Little Rock AFB,AR,72076,US,34.90029907,-92.14610291,2022-12-16 15:27:38
Subway,908 W Main St,,Jacksonville,AR,72076,US,34.86759949,-92.11930084,2022-12-16 15:27:38
Subway,1122 Main St,,Vilonia,AR,72173,US,35.08420181,-92.20529938,2022-12-16 15:27:38
Subway,14210 Hwy. 107,,Jacksonville,AR,72076,US,34.86600113,-92.1977005,2022-12-16 15:27:38
Subway,1010 N. Main Street,,Palestine,AR,72372,US,34.98609924,-90.90460205,2022-12-16 15:27:53
Subway,2334 N Washington,,Forrest City,AR,72335,US,35.03150177,-90.78839874,2022-12-16 15:27:55
Subway,1305 N Main St,,Brinkley,AR,72021,US,34.9034996,-91.19419861,2022-12-16 15:27:53
Subway,440 N Forrest St,,Marianna,AR,72360,US,34.77569962,-90.77220154,2022-12-18 06:25:22
Subway,110 Highway 64 W,,Mc Crory,AR,72101-8263,US,35.25529861,-91.20040131,2022-12-16 15:27:38
Subway,1906 N Falls Blvd,,Wynne,AR,72396,US,35.24610138,-90.78150177,2022-12-16 15:27:55
Subway,906 Hwy 64E,,Augusta,AR,72006,US,35.29169846,-91.35679626,2022-12-16 15:27:38
Subway,1301 Main St,,Des Arc,AR,72040,US,34.97700119,-91.50330353,2022-12-16 15:27:38
Subway,485 State Highway 149 N,,Heth,AR,72346,US,35.13660049,-90.4897995,2022-12-16 15:27:55
Subway,3404 Highway 63 North,,Hazen,AR,72064,US,34.80810165,-91.56690216,2022-12-16 15:27:53
Subway,450 Stateline Road,Suite C,Southaven,MS,38671,US,34.99219894,-89.99839783,2022-12-16 15:27:37
Subway,4405 Elvis Presley Blvd,,Memphis,TN,38116,US,35.02830124,-90.02600098,2022-12-16 15:27:55
Subway,568 E Goodman Rd,,Southaven,MS,38671,US,34.96310043,-89.979599,2022-12-16 15:27:37
Subway,3001 Goodman Rd,Unit A,Horn Lake,MS,38637,US,34.96220016,-90.04360199,2022-12-16 15:27:37
Subway,3842 E Shelby Drive,,Memphis,TN,38118,US,35.02099991,-89.93569946,2022-12-16 15:27:37
Subway,3440 Elvis Presley,,Memphis,TN,38116,US,35.05490112,-90.02429962,2022-12-16 15:27:55
Subway,3335 Winchester Rd,,Memphis,TN,38118,US,35.05189896,-89.95279694,2022-12-16 15:27:37
Subway,3231 Goodman Rd.,Ste 1,Southaven,MS,38672,US,34.9618988,-89.93260193,2022-12-16 15:27:37
Subway,4935 Pepper Chase,Ste 100,Southaven,MS,38672,US,34.93259811,-89.99960327,2022-12-18 06:25:22
Subway,1785 Nonconnah Blvd,Suite 115,Memphis,TN,38132,US,35.07099915,-90.00370026,2022-12-16 15:27:55
Subway,1206 West Ocean Ave,,Lompoc,CA,93436,US,34.63909912,-120.47200012,2022-12-18 06:25:21
Subway,616 E Ocean Ave,,Lompoc,CA,93436,US,34.6385994,-120.45069885,2022-12-18 06:25:21
Subway,721 A W Central Ave,,Lompoc,CA,93436,US,34.66130066,-120.46589661,2022-12-18 06:25:21
Subway,1137 North H St,Suite C Space D 10,Lompoc,CA,93436,US,34.65639877,-120.45860291,2022-12-18 06:25:21
Subway,building 10400 Community Loop,,Vandenberg afb,CA,93432,US,34.73509979,-120.53820038,2022-12-18 06:25:21
Subway,3734 Constellation Rd,Unit A2,Lompoc,CA,93436,US,34.70059967,-120.46779633,2022-12-18 06:25:21
Subway,253 Guadalupe Street,,Guadalupe,CA,93434,US,34.96080017,-120.57440186,2022-12-18 06:25:21
Subway,270  East Highway 246,Unit 103,Buellton,CA,93427,US,34.60950089,-120.18589783,2022-12-18 06:25:21
Subway,1641 Mission Dr,Suite 102,Solvang,CA,93463,US,34.59619904,-120.14029694,2022-12-18 06:25:21
Subway,4854 E South Bradley Rd,Suite E,Santa Maria,CA,93455,US,34.86629868,-120.417099,2022-12-18 06:25:21
Subway,615 Bell St,,Los Alamos,CA,93440,US,34.74399948,-120.27729797,2022-12-18 06:25:21
Subway,6831 Hollister Ave,Suite J,Goleta,CA,93117,US,34.42959976,-119.86710358,2022-12-18 06:25:21
Subway,5801 Calle Real,Suite C,Goleta,CA,93117,US,34.44079971,-119.82689667,2022-12-18 06:25:21
Subway,133 N Ventura Rd,,Port Hueneme,CA,93041,US,34.14810181,-119.19589996,2022-12-16 15:27:43
Subway,1940 Cliff Drive,Suite B-13,Santa Barbara,CA,93109,US,34.40230179,-119.72219849,2022-12-18 06:25:21
Subway,410 W Pleasant Valley Rd,,Oxnard,CA,93033,US,34.15470123,-119.1812973,2022-12-16 15:27:43
Subway,"2583 Dodson, Bldg 1167",Naval Const. Battalion Center,Port Hueneme,CA,93043,US,34.16640091,-119.1984024,2022-12-16 15:27:43
Subway,3967 State Street,Space 4,Santa Barbara,CA,93105,US,34.43870163,-119.75189972,2022-12-18 06:25:21
Subway,Navy Exchange Building 16,,Point Mugu NAWC,CA,93042,US,34.11970139,-119.09459686,2022-12-18 06:25:21
Subway,600 S Victoria Rd,,Oxnard,CA,93035,US,34.19580078,-119.22059631,2022-12-16 15:27:43
Subway,2811 Saviers Rd.,Building A,Oxnard,CA,93033,US,34.17399979,-119.17819977,2022-12-16 15:27:43
Subway,31204 Palos Verdes Dr,,Rancho Palos Verdes,CA,90275,US,33.74900055,-118.40660095,2022-12-18 06:25:20
Subway,1436 W 25th Street,,San Pedro,CA,90732,US,33.72269821,-118.31040192,2022-12-18 06:25:20
Subway,16 Peninsula Center,,Rolling Hills Estates,CA,90274-2107,US,33.77519989,-118.37719727,2022-12-18 06:25:20
Subway,1306 S Gaffey Street,#101,San Pedro,CA,90731-4064,US,33.73210144,-118.292099,2022-12-18 06:25:20
Subway,915 Northwestern Avenue,Unit 225,San Pedro,CA,90732-2436,US,33.75149918,-118.30840302,2022-12-18 06:25:20
Subway,620 S. Centre St.,,San Pedro,CA,90731,US,33.73849869,-118.28340149,2022-12-18 06:25:20
Subway,955 Catalina Blvd,Suite 105,San Diego,CA,92106,US,32.72230148,-117.24530029,2022-12-04 18:43:15
Subway,2560 Laning Rd,Ste A101,San Diego,CA,92106,US,32.72869873,-117.21779633,2022-12-04 18:43:15
Subway,Carretera Ensenada La Tijuana,Suite #501,Rosarito,BC,22705,MX,32.38629913,-117.07219696,2022-11-19 17:46:21
Subway,NASNI Bld. #322,,San Diego,CA,92135,US,32.71149826,-117.20020294,2022-12-16 15:27:54
Subway,Blvd. Benito Juarez No. 104,Local 5 - Zona Centro,Rosarito,BC,,MX,32.34180069,-117.05680084,2022-11-19 17:46:20
Subway,Paseo Ensenada #149,Secc Jardines Playas DeTijuana,Tijuana,BC,22500,MX,32.53110123,-117.11329651,2022-11-30 18:47:10
Subway,876 Seacoast Dr,,Imperial Beach,CA,91932,US,32.58029938,-117.13179779,2022-11-30 18:47:10
Subway,1330 Orange Ave,Suite 170,Coronado,CA,92118-2949,US,32.68270111,-117.17880249,2022-12-16 15:27:54
Subway,Calle Oriente,#7002 Local C1 Lomas del Mar,Tijuana,BC,22564,MX,32.44419861,-117.03600311,2022-11-26 22:28:59
Subway,Bulevar Benito Juarez,Transpeninsular Hwy Ste 16804,Playas de Rosarito,BC,22710,MX,32.22779846,-116.92099762,2022-11-19 17:46:20
Subway,Calle Alvarado #4820,Local C-22 Fracc. Soler,Tijuana,BC,22105,MX,32.52970123,-117.07460022,2022-11-30 18:47:10
Subway,1555 Palm Avenue,Suite G,San Diego,CA,92154,US,32.58309937,-117.09999847,2022-12-18 06:25:22
Subway,1838 Coronado Ave,,San Diego,CA,92154,US,32.5768013,-117.09390259,2022-12-18 06:25:22
Subway,Carretera Ensenada Tijuana,Suite #4769,Ensenada,BC,22260,MX,31.8701992,-116.67569733,2022-11-19 17:46:20
Subway,Blvd.Teniente Azuela y Bahia,"de la Paz,Zona playitas L.07",Ensenada,BC,22860,MX,31.86660004,-116.65950012,2022-11-19 17:46:20
Subway,Av. Benito Juarez,Suite # 102,San Quinton,BC,22930,MX,31.8621006,-116.6289978,2022-11-19 17:46:19
Subway,Av Reforma y Calle 11 No. 1122,Local 7C - Col. Carlos Pacheco,Ensenada,BC,22830,MX,31.87050056,-116.60849762,2022-11-19 17:46:19
Subway,Av. Reforma #116 Fracc. Bahia,Local #31,Ensenada,BC,22880,MX,31.85820007,-116.60579681,2022-11-19 17:46:19
Subway,Blvd. Lazaro Cardenas #987,Zona Centro,Ensenada,BC,22800,MX,31.83930016,-116.60289764,2022-11-19 17:46:19
Subway,Av Pedro Loyola 612,Loc. 12B Col Pacheco,Ensenada,BC,22830,MX,31.82019997,-116.60119629,2022-11-19 17:46:19
Subway,Carretera Ensenada La Paz,Suite #6531,Ensenada,BC,22785,MX,31.80360031,-116.59619904,2022-11-19 17:46:19
Subway,1494 Carrizo Gorge Rd,,Jacumba,CA,91934,US,32.6310997,-116.1638031,2022-12-16 15:27:53
Subway,Calz Rotario International,Suite # 2998,Mexicali,BC,21397,MX,32.61270142,-115.37560272,2022-12-16 15:27:53
Subway,Blvd. Lazaro Cardenas Y Calle,9na. Fraccionamiento Nuevo Mex,Mexicali,BC,21397,MX,32.60990143,-115.38670349,2022-12-16 15:27:53
Subway,Fracc Residencias,Blvd Benito Juarez 2048-B,Mexicali,BC,21280,MX,32.60630035,-115.4375,2022-12-16 15:27:53
Subway,Blvd. Lazaro Cardenas No. 1972,Col. Plutarco Elias Calles,Mexicali,BC,21237,MX,32.62260056,-115.40640259,2022-12-16 15:27:53
Subway,Calle Novena esq.Mision de San,"Diego L-2,Fracc.Residencial",Mexicali,BC,21379,MX,32.63339996,-115.3859024,2022-12-16 15:27:53
Subway,Carretara San Felipe,Esq Gomez Morin,Mexicalli,BC,00000,MX,32.6108017,-115.43789673,2022-12-16 15:27:53
Subway,Calzada Venustiano Carranza,1419 Fracc. Montecarlo Residen,Mexicali,BC,85500,MX,32.64110184,-115.39849854,2022-12-16 15:27:53
Subway,1195 Los Osos Valley Rd,,Los Osos,CA,93402,US,35.31029892,-120.82879639,2022-12-18 06:25:21
Subway,706 Dolliver St,,Pismo Beach,CA,93449,US,35.14120102,-120.6414032,2022-12-18 06:25:21
Subway,2031 Statham Blvd,Unit 365-0108,Oxnard,CA,93033,US,34.17990112,-119.165802,2022-12-16 15:27:43
Subway,645 South Ventura Road,,Oxnard,CA,93030,US,34.1955986,-119.19490051,2022-12-16 15:27:43
Subway,440 South B St,Retail Bldg C-7,Oxnard,CA,93030,US,34.19850159,-119.17970276,2022-12-16 15:27:43
Subway,1888 Pacific Coast Hwy,,Redondo Beach,CA,90277-3124,US,33.81689835,-118.37709808,2022-12-18 06:25:20
Subway,3902 Pacific Coast Hwy,Unit C,Torrance,CA,90505-5762,US,33.80609894,-118.354599,2022-12-18 06:25:20
Subway,730 S Pacific Coast Hwy,Suite 109,Redondo Beach,CA,90277,US,33.82899857,-118.38510132,2022-11-29 11:12:38
Subway,1941 Pacific Coast Hwy,,Lomita,CA,90717,US,33.7901001,-118.31359863,2022-12-18 06:25:20
Subway,34119 Pacific Coast Highway,Suite I,Dana Point,CA,92629,US,33.46569824,-117.70320129,2022-11-29 11:12:52
Subway,401 S El Camino Real,Suite C,San Clemente,CA,92672,US,33.42589951,-117.61060333,2022-12-16 15:27:54
Subway,415 E Avenida Pico,Suite B,San Clemente,CA,92672,US,33.43709946,-117.62480164,2022-11-29 11:12:53
Subway,638 Camino de los Mares,Store 73,San Clemente,CA,92673,US,33.45869827,-117.65139771,2022-11-29 11:12:52
Subway,33489 Del Obispo Street,,Dana Point,CA,92629,US,33.47650146,-117.68560028,2022-11-29 11:12:52
Subway,32545 Golden Lantern St,Suite A,Dana Point,CA,92629,US,33.49060059,-117.69950104,2022-11-29 11:12:52
Subway,Bldg 41-359,41 Area,Camp Pendleton,CA,92055,US,33.29019928,-117.43890381,2022-12-18 07:39:43
Subway,Building 21-0619,21 Area,Camp Pendelton,CA,92055,US,33.22359848,-117.39589691,2022-12-18 07:39:43
Subway,San Mateo,Building 62-527,Camp Pendleton,CA,92055-5020,US,33.42240143,-117.56269836,2022-12-16 15:27:54
Subway,1024 Mission Ave,,Oceanside,CA,92054,US,33.20000076,-117.37550354,2022-12-18 07:39:43
Subway,13509 Poway Road,Space No. 501,Poway,CA,92064,US,32.95629883,-117.03749847,2022-12-18 07:39:43
Subway,11983 Bernardo Plaza Dr,,San Diego,CA,92128-2537,US,33.02009964,-117.07330322,2022-12-18 07:39:43
Subway,14057 Stowe Drive,Suite 100,Poway,CA,92064,US,32.93809891,-117.02899933,2022-12-18 07:39:43
Subway,11040 Rancho Carmel Dr,Suite 7,San Diego,CA,92128-4289,US,32.97750092,-117.08280182,2022-12-18 07:39:43
Subway,3410 Del Lago Blvd,Ste E,Escondido,CA,92029,US,33.07120132,-117.07109833,2022-12-18 07:39:43
Subway,16621 Dove Canyon Rd,Suite 114,San Diego,CA,92127,US,33.01589966,-117.1108017,2022-12-18 07:39:43
Subway,12030 Scripps Summit Dr,Suite F,San Diego,CA,92131,US,32.93799973,-117.10150146,2022-12-18 07:39:43
Subway,13293 Black Mountain Rd.,Suite B 1,San Diego,CA,92129,US,32.95890045,-117.12509918,2022-12-18 07:39:43
Subway,2084 S. Marina Drive,,Salton City,CA,92275,US,33.27880096,-115.96589661,2022-12-16 15:27:53
Subway,551 West Main Street,,Westmorland,CA,92281,US,33.0379982,-115.62870026,2022-12-16 15:27:53
Subway,Navy Exchange Bldg. 201,Foodcourt,El Centro,CA,92243,US,32.81840134,-115.67430115,2022-12-16 15:27:53
Subway,407 W Main Street,,Brawley,CA,92227,US,32.97940063,-115.54820251,2022-12-16 15:27:53
Subway,250 W Wildcat Dr,,Brawley,CA,92227,US,32.96239853,-115.54650116,2022-12-16 15:27:53
Subway,218 N Imperial Avenue,Ste 200,Imperial,CA,92251,US,32.8492012,-115.56980133,2022-12-16 15:27:53
Subway,3001 N. Imperial Ave,Unit 101,El Centro,CA,92243,US,32.81510162,-115.56950378,2022-12-16 15:27:53
Subway,1617 W. Main Street,,El Centro,CA,92243,US,32.7928009,-115.5727005,2022-12-16 15:27:53
Subway,2420 S  4th St,,El Centro,CA,92243,US,32.77080154,-115.55259705,2022-12-16 15:27:53
Subway,2383 W 24th St,,Yuma,AZ,85364,US,32.68330002,-114.64890289,2022-12-16 15:27:53
Subway,660 Quintana Rd,,Morro Bay,CA,93442,US,35.36859894,-120.84470367,2022-12-18 06:25:21
Subway,1625 South Blosser Road,Unit A,Santa Maria,CA,93458,US,34.93109894,-120.45420074,2022-12-18 06:25:21
Subway,2530 Broadway S,Unit J,Santa Maria,CA,93454,US,34.9137001,-120.43460083,2022-12-18 06:25:21
Subway,609 North Milpas Street,,Santa Barbara,CA,93103,US,34.4272995,-119.68689728,2022-12-18 06:25:21
Subway,1009 Casitas Pass Road,,Carpinteria,CA,93013,US,34.39640045,-119.51170349,2022-12-18 06:25:21
Subway,51 West Main Street,Suite C,Ventura,CA,93001-2507,US,34.28210068,-119.30139923,2022-12-16 15:27:43
Subway,2121 Harbor Blvd,,Ventura,CA,93001,US,34.26699829,-119.27290344,2022-12-16 15:27:43
Subway,501B S Reino Rd,Suite B,Thousand Oaks,CA,91362,US,34.17060089,-118.95639801,2022-12-18 06:25:18
Subway,1025 Broadbeck Dr,Suite H,Newbury Park,CA,91320,US,34.19219971,-118.93740082,2022-12-18 06:25:18
Subway,2887 Agoura Road,Suite 105,Thousand Oaks,CA,91361,US,34.15129852,-118.82350159,2022-12-18 06:25:18
Subway,440 North Moorpark Road,,Thousand Oaks,CA,91360,US,34.18429947,-118.87460327,2022-12-18 06:25:18
Subway,2911 Petit St.,,Camarillo,CA,93012,US,34.21519852,-119.03089905,2022-12-18 06:25:21
Subway,2110 1/2 S Hacienda Hts Blvd.,,Hacienda Heights,CA,91745,US,33.99549866,-117.96820068,2022-12-18 06:25:21
Subway,120 S 7th Ave,,La Puente,CA,91746-3228,US,34.0340004,-117.97530365,2022-12-18 06:25:21
Subway,133 S Hacienda Blvd,,City of Industry,CA,91745,US,34.02149963,-117.95800018,2022-12-18 06:25:21
Subway,11747 Whittier Blvd.,Space 4-D,Whittier,CA,90601,US,33.9822998,-118.05049896,2022-12-18 06:25:20
Subway,5416 Norwalk Blvd,Suite B7,Whittier,CA,90601,US,33.99829865,-118.05549622,2022-12-18 06:25:20
Subway,8330 Painter Avenue,Unit C-2,Whittier,CA,90602,US,33.96170044,-118.03369904,2022-12-18 06:25:20
Subway,12548 Washington Blvd,Suite 108,Whittier,CA,90602,US,33.96770096,-118.04309845,2022-12-18 06:25:20
Subway,11335 Thienes Avenue,Suite B,South El Monte,CA,91733,US,34.04359818,-118.03160095,2022-12-18 06:25:20
Subway,13129 Valley Rd,,La Puente,CA,91746,US,34.05160141,-117.99919891,2022-12-18 06:25:20
Subway,15030 Whittier Blvd,Unit 104,Whittier,CA,90603,US,33.94810104,-118.0059967,2022-12-18 06:25:21
Subway,1168 Calimesa Blvd,,Calimesa,CA,92320,US,33.99549866,-117.05919647,2022-12-18 06:25:13
Subway,890 Oak Valley Parkway,,Beaumont,CA,92223,US,33.94779968,-116.99810028,2022-12-18 06:25:13
Subway,1420 Beaumont Avenue,Suite C-2,Beaumont,CA,92223-4755,US,33.94879913,-116.97709656,2022-12-16 15:27:55
Subway,33676 Yucaipa Blvd Suite 6,,Yucaipa,CA,92399,US,34.03549957,-117.06909943,2022-12-18 06:25:13
Subway,77 Beaumont Avenue,,Beaumont,CA,92223,US,33.92050171,-116.97769928,2022-12-18 06:25:13
Subway,1657 A East 6th Street,,Beaumont,CA,92223,US,33.9292984,-116.94989777,2022-12-16 15:27:55
Subway,1540 E 2nd St,,Beaumont,CA,92223,US,33.9233017,-116.95210266,2022-12-16 15:27:55
Subway,31387 Outer Hwy 10,,Yucaipa,CA,92399,US,34.02590179,-117.11889648,2022-12-18 06:25:13
Subway,933 W. Ramsey Street,,Banning,CA,92220,US,33.92539978,-116.88670349,2022-12-16 15:27:55
Subway,1457 Ford Street,#101,Redlands,CA,92373,US,34.03969955,-117.15579987,2022-12-18 06:25:13
Subway,6470 Desert Queen Avenue,,Twentynine Palms,CA,92277,US,34.13610077,-116.05950165,2022-12-16 15:27:53
Subway,3664 Adobe Rd,,29 Palms,CA,92277,US,34.18619919,-116.05380249,2022-12-16 15:27:53
Subway,61794 29 Palms Hwy,,Joshua Tree,CA,92252,US,34.13539886,-116.31559753,2022-12-13 15:34:05
Subway,42250-C Jackson St.,Suite 105,Indio,CA,92203,US,33.74150085,-116.21530151,2022-12-13 15:34:05
Subway,82162 Hwy 111,,Indio,CA,92201,US,33.71519852,-116.23190308,2022-12-13 15:34:05
Subway,49965 Harrison Ave,Ste A,Coachella,CA,92236,US,33.68629837,-116.18209839,2022-12-13 15:34:05
Subway,40100 Washington St,Suite 101,Bermuda Dunes,CA,92203,US,33.75719833,-116.30180359,2022-12-13 15:34:05
Subway,83097 Avenue 48,# D1A,Coachella,CA,92236,US,33.70000076,-116.21489716,2022-12-13 15:34:05
Subway,44100 Jefferson St,Suite C303,Indio,CA,92201,US,33.72750092,-116.26820374,2022-12-13 15:34:05
Subway,58080 29 Palms Highway,Suite 101,Yucca Valley,CA,92284,US,34.12979889,-116.39689636,2022-12-13 15:34:05
Subway,26135 Carmel Rancho Blvd,Suite D-2B,Carmel,CA,93923,US,36.54339981,-121.90429688,2022-12-16 15:27:54
Subway,190 Country Club Gate,,Pacific Grove,CA,93950-5022,US,36.60810089,-121.92579651,2022-12-16 15:27:54
Subway,640 Del Monte Center,"Building 6, Space 16",Monterey,CA,93940,US,36.58340073,-121.89600372,2022-12-16 15:27:54
Subway,Kit Carson Road Bldg. 660,Stillwell Ave,Monterey,CA,93940,US,36.60229874,-121.91609955,2022-12-16 15:27:54
Subway,195 W Franklin St,,Monterey,CA,93940-2707,US,36.59999847,-121.89499664,2022-12-16 15:27:54
Subway,296 Lighthouse Avenue,Ste C,Monterey,CA,93940,US,36.61059952,-121.89900208,2022-12-16 15:27:54
Subway,2440 Fremont Street,Suite 201,Monterey,CA,93940,US,36.59719849,-121.85160065,2022-12-16 15:27:54
Subway,1534 Fremont Blvd,Suite D,Seaside,CA,93955-4331,US,36.60820007,-121.84580231,2022-12-16 15:27:54
Subway,Bldg. 4235 Gigling Rd,,Seaside,CA,93944,US,36.64580154,-121.80909729,2022-12-16 15:27:54
Subway,266 Reservation Rd,Suite J,Marina,CA,93933-3181,US,36.68460083,-121.79499817,2022-12-18 06:25:12
Subway,238 California Avenue,Bldg. 209,Fort Hunter Liggett,CA,93928,US,36.0102005,-121.2385025,2022-12-16 15:27:54
Subway,1350 Madonna Rd.,,San Luis Obispo,CA,93405,US,35.2580986,-120.68969727,2022-12-18 06:25:21
Subway,158 Higuera St Ste D,,San Luis Obispo,CA,93401,US,35.26919937,-120.67070007,2022-12-18 06:25:21
Subway,"Dexter Building, Room 111A",,San Luis Obispo,CA,93407,US,35.30210114,-120.66449738,2022-12-18 06:25:21
Subway,575 Five Cities Drive,,Pismo Beach,CA,93449,US,35.13619995,-120.62409973,2022-12-18 06:25:21
Subway,3240 Broad Street,#100,San Luis Obispo,CA,93401,US,35.25979996,-120.64849854,2022-12-18 06:25:21
Subway,1427 East Grand Ave,,Arroyo Grande,CA,93420,US,35.12049866,-120.60610199,2022-12-18 06:25:21
Subway,806 Grand Ave,,Arroyo Grande,CA,93420,US,35.11909866,-120.59089661,2022-12-18 06:25:21
Subway,1201 E Main St,Space A,Santa Maria,CA,93454,US,34.95330048,-120.41600037,2022-12-18 06:25:21
Subway,1825 N. Broadway Street,,Santa Maria,CA,93458,US,34.97430038,-120.43569946,2022-12-18 06:25:21
Subway,193 Town Center East,Unit B-22,Santa Maria,CA,93454,US,34.9530983,-120.43479919,2022-12-18 06:25:21
Subway,809 N Broadway,,Santa Maria,CA,93454,US,34.96080017,-120.436203,2022-12-18 06:25:21
Subway,1419 S Broadway,Unit C,Santa Maria,CA,93454,US,34.93700027,-120.43659973,2022-12-18 06:25:21
Subway,536 West Tefft Street,,Nipomo,CA,93444,US,35.03699875,-120.48729706,2022-12-18 06:25:21
Subway,5821 Dennis McCarthy Drive,#27,Lebec,CA,93243,US,34.99300003,-118.9496994,2022-12-18 06:25:19
Subway,5552 Wheeler Ridge Rd,,Arvin,CA,93203-9743,US,34.99309921,-118.94000244,2022-12-18 06:25:19
Subway,5701 Outlets at Tejon Parkway,"Space 690, Building 6",Arvin,CA,93203,US,34.98509979,-118.94190216,2022-12-18 06:25:19
Subway,8632 Highway 166,Suite B,Bakersfield,CA,93313,US,35.05920029,-119.02919769,2022-12-18 06:25:19
Subway,2023 Mettler Frontage Rd West,,Bakersfield,CA,93313,US,35.05879974,-118.96890259,2022-12-18 06:25:19
Subway,161 Frazier Mountain Park Blvd,,Lebec,CA,93243,US,34.81869888,-118.88420105,2022-12-18 06:25:19
Subway,8139 East Bear Mountain Blvd.,,Bakersfield,CA,93307,US,35.20830154,-118.91390228,2022-12-18 06:25:19
Subway,352 Bear Mountain Blvd,Suite A,Arvin,CA,93203,US,35.20949936,-118.82849884,2022-12-18 06:25:19
Subway,1999 Taft Highway,,Bakersfield,CA,93313,US,35.2663002,-119.02400208,2022-12-18 06:25:19
Subway,10318 Main Street,Suite B,Lamont,CA,93241,US,35.27080154,-118.91400146,2022-12-18 06:25:19
Subway,1100 Kincheloe Ave.,Edwards AFB Bldg. 7210,Edwards,CA,93524,US,34.92599869,-117.93499756,2022-12-18 06:25:21
Subway,10 Wolfe Ave,Bldg. 1610,Edwards,CA,93524,US,34.91770172,-117.89859772,2022-12-18 06:25:21
Subway,8116 California City Blvd.,Suite 105,California City,CA,93505,US,35.12519836,-117.98339844,2022-12-18 06:25:20
Subway,16048 Sierra Highway,,Mojave,CA,93501,US,35.05450058,-118.17379761,2022-12-18 06:25:20
Subway,2559 Rosamond Blvd,Suite A,Rosamond,CA,93560,US,34.86539841,-118.1772995,2022-12-18 06:25:21
Subway,1766 East Ave J,,Lancaster,CA,93535,US,34.68859863,-118.09790039,2022-12-16 15:27:53
Subway,5725 Hwy 58,,Boron,CA,93516,US,34.99720001,-117.60579681,2022-12-18 06:25:21
Subway,1821 W Ave I,Unit 103,Lancaster,CA,93535-1453,US,34.70529938,-118.16410065,2022-12-16 15:27:53
Subway,728 West Avenue J,,Lancaster,CA,93534,US,34.68909836,-118.14179993,2022-12-16 15:27:53
Subway,805 East Avenue K,Unit 107,Lancaster,CA,93535,US,34.67549896,-118.11430359,2022-12-16 15:27:53
Subway,1611 E. Main Street,,Barstow,CA,92311,US,34.89139938,-116.99919891,2022-12-13 15:34:08
Subway,921 Barstow Road,,Barstow,CA,92311,US,34.88470078,-117.0223999,2022-12-13 15:34:08
Subway,35858 Ghost Town Rd.,,Yermo,CA,92398,US,34.90409851,-116.88710022,2022-12-13 15:34:08
Subway,2591 Commerce Way,,Barstow,CA,92311,US,34.85469818,-117.08709717,2022-12-16 15:27:53
Subway,2930 Lenwood Rd,,Barstow,CA,92311,US,34.85520172,-117.08950043,2022-12-16 15:27:53
Subway,44230 National Trails Hwy,,Newberry Springs,CA,92365,US,34.8288002,-116.69259644,2022-12-13 15:34:08
Subway,82 Goldstone Road,Building D,Fort Irwin,CA,92310,US,35.27050018,-116.70110321,2022-12-16 15:27:40
Subway,18768 Highway 18,Suite 210,Apple Valley,CA,92307,US,34.53829956,-117.25409698,2022-12-16 15:27:53
Subway,72363 Baker Blvd,,Baker,CA,92309,US,35.26580048,-116.07389832,2022-12-13 15:34:08
Subway,72922 Baker Blvd,,Baker,CA,92309,US,35.27690125,-116.05590057,2022-12-13 15:34:08
Subway,115 W. Primm Blvd.,,Primm,NV,89019,US,35.61149979,-115.39050293,2022-12-13 15:34:04
Subway,10000 Aha Macav Drive,,Laughlin,NV,89029,US,35.01580048,-114.64189911,2022-12-16 15:27:53
Subway,4821 Highway 95,Suite 2,Fort Mojave,AZ,86426,US,35.01699829,-114.59999847,2022-12-16 15:27:53
Subway,2451 Needles Hwy,,Needles,CA,92363,US,34.85089874,-114.62409973,2022-12-16 15:27:53
Subway,2250 Hwy 95,Ste A526,Bullhead City,AZ,86442-9013,US,35.10570145,-114.59799957,2022-12-16 15:27:53
Subway,2065 S Casino Drive,,Laughlin,NV,89029,US,35.15990067,-114.57540131,2022-12-16 15:27:53
Subway,1900 S Casino Dr,,Laughlin,NV,89029,US,35.16339874,-114.57240295,2022-12-16 15:27:53
Subway,2215 Mission St,,Santa Cruz,CA,95060-5221,US,36.96149826,-122.04579926,2022-12-18 06:25:12
Subway,825 Pacific Avenue,,Santa Cruz,CA,95060,US,36.9701004,-122.02529907,2022-12-18 06:25:12
Subway,560 Canal St,Suite A,King City,CA,93930-3446,US,36.20470047,-121.13089752,2022-12-16 15:27:54
Subway,100 S El Camino Real,Suite G5,Greenfield,CA,93927,US,36.31639862,-121.23880005,2022-12-16 15:27:54
Subway,1121 24th St,,Paso Robles,CA,93446,US,35.64039993,-120.68769836,2022-12-18 06:25:21
Subway,2425 Golden Hills Road,Suite 102,Paso Robles,CA,93446,US,35.64440155,-120.65809631,2022-12-18 06:25:21
Subway,106 Niblick Road,,Paso Robles,CA,93446,US,35.61510086,-120.67919922,2022-12-18 06:25:21
Subway,3016 H Dela Rosa St,,Soledad,CA,93960,US,36.41680145,-121.31990051,2022-12-16 15:27:54
Subway,193 W Polk St,,Coalinga,CA,93210,US,36.13579941,-120.3655014,2022-12-16 15:27:38
Subway,2290 El Camino Real,Suite A,Atascadero,CA,93422,US,35.5121994,-120.69480133,2022-12-18 06:25:21
Subway,8789 El Camino Real,,Atascadero,CA,93422,US,35.47230148,-120.65139771,2022-12-18 06:25:21
Subway,27574 Bernard Drive,,Kettleman City,CA,93239,US,35.98849869,-119.96029663,2022-12-16 15:27:38
Subway,255 E Kings,,Avenal,CA,93204,US,36.00279999,-120.13490295,2022-12-16 15:27:38
Subway,44779 S Lassen Ave,,Avenal,CA,93204,US,36.07500076,-120.103302,2022-12-16 15:27:38
Subway,41027 S. Glenn Ave,,Coalinga,CA,93210,US,36.13729858,-120.16529846,2022-12-16 15:27:38
Subway,Reeves Blvd,Bldg 796,Lemoore,CA,93246,US,36.26110077,-119.91120148,2022-12-18 06:25:20
Subway,Navy Exchange,Building #58,Lemoore,CA,93245,US,36.29759979,-119.95050049,2022-12-18 06:25:20
Subway,25206 W Dorris Ave,,Coalinga,CA,93210,US,36.25469971,-120.2507019,2022-12-16 15:27:38
Subway,1790 W Bush St,,Lemoore,CA,93245,US,36.2981987,-119.80660248,2022-12-18 06:25:20
Subway,155 W Hanford-Armona Rd,Suite G,Lemoore,CA,93245,US,36.31209946,-119.78330231,2022-12-18 06:25:20
Subway,460 W. Vandalia Ave,Suite E,Porterville,CA,93257,US,36.05390167,-119.02690125,2022-12-18 06:25:20
Subway,134 North Main St,,Porterville,CA,93257-3714,US,36.06779861,-119.01609802,2022-12-18 06:25:20
Subway,1277 - 1283 W. Henderson Ave,,Porterville,CA,93257,US,36.07979965,-119.04570007,2022-12-18 06:25:20
Subway,246 Hwy 65,,Lindsay,CA,93247-2702,US,36.20280075,-119.10299683,2022-12-18 06:25:20
Subway,1164 N Front Street,,Earlimart,CA,93219,US,35.89419937,-119.27600098,2022-12-18 06:25:20
Subway,683 N Thompson Road,,Tipton,CA,93272,US,36.06510162,-119.31310272,2022-12-18 06:25:20
Subway,"RR 1 Box 973-2, 1748 Hwy 99",,Delano,CA,93215-9622,US,35.8219986,-119.25900269,2022-12-18 06:25:20
Subway,1832 Cecil Avenue,,Delano,CA,93215,US,35.77510071,-119.23049927,2022-12-18 06:25:19
Subway,1617 Glenwood St,Suite A,Delano,CA,93215,US,35.77690125,-119.25170135,2022-12-18 06:25:20
Subway,2700 S. Blackstone St,,Tulare,CA,93274,US,36.18030167,-119.33010101,2022-12-18 06:25:20
Subway,102 North Pearson Road,,Pearsonville,CA,93527,US,35.79869843,-117.87190247,2022-12-18 06:25:20
Subway,1822 N. Richmond Road,Bldg. 98042,China Lake,CA,93555,US,35.65459824,-117.64510345,2022-12-18 06:25:21
Subway,815 N China Lake Blvd,,Ridgecrest,CA,93555,US,35.63579941,-117.67019653,2022-12-18 06:25:21
Subway,6618 Wofford Blvd.,,Wofford Heights,CA,93285,US,35.70769882,-118.45500183,2022-12-18 06:25:20
Subway,901 S China Lake Blvd.,,Ridgecrest,CA,93555,US,35.60739899,-117.6713028,2022-12-18 06:25:21
Subway,201 E. Bowman Road,,Ridgecrest,CA,93555,US,35.60810089,-117.64330292,2022-12-18 06:25:21
Subway,6321 Lake Isabella Blvd,Unit A,Lake Isabella,CA,93240,US,35.62419891,-118.47350311,2022-12-18 06:25:20
Subway,101 North Main Street,,Lone Pine,CA,93545,US,36.60540009,-118.0632019,2022-12-18 06:25:21
Subway,300 S Hwy 160,,Pahrump,NV,89048,US,36.2118988,-115.98899841,2022-12-16 15:27:40
Subway,1520 E Hwy 372,Ste 1,Pahrump,NV,89048,US,36.20709991,-115.98729706,2022-12-16 15:27:40
Subway,900 E. Hwy 95 N,,Beatty,NV,89003,US,36.91460037,-116.75289917,2022-12-16 15:27:40
Subway,11700 W. Charleston Blvd,Space #B-140,Las Vegas,NV,89135,US,36.16009903,-115.35009766,2022-12-13 15:34:10
Subway,3370 S Hualapai,Suite 115D,Las Vegas,NV,89117,US,36.1283989,-115.31459808,2022-12-16 15:27:55
Subway,6525 S Fort Apache Rd,Ste # 110,Las Vegas,NV,89148,US,36.06919861,-115.29840088,2022-12-13 15:34:10
Subway,10217 W Charleston Blvd,Suite C,Las Vegas,NV,89135,US,36.15859985,-115.31759644,2022-12-16 15:27:55
Subway,9360 W Flamingo Rd,Suite 103,Las Vegas,NV,89147,US,36.11600113,-115.2963028,2022-12-16 15:27:55
Subway,7040 S. Durango Drive,,Las Vegas,NV,89113,US,36.06010056,-115.27929688,2022-12-13 15:34:10
Subway,10470 W Cheyenne,Suite 155,Las Vegas,NV,89129,US,36.2193985,-115.32569885,2022-12-16 15:27:55
Subway,183 N. Gibson Road,Suite 100,Henderson,NV,89014,US,36.04019928,-115.0298996,2022-12-16 15:27:55
Subway,175 N Stephanie St,Suite 110,Henderson,NV,89074,US,36.0401001,-115.04740143,2022-12-16 15:27:55
Subway,1301 W. Sunset Rd,,Henderson,NV,89014,US,36.06100082,-115.04100037,2022-12-16 15:27:55
Subway,1300 West Sunset Road,Suite 2825,Henderson,NV,89014,US,36.06729889,-115.04180145,2022-12-16 15:27:55
Subway,689 N Stephanie St,,Henderson,NV,89014,US,36.06620026,-115.04660034,2022-12-16 15:27:55
Subway,2591 Anthem Village Dr,Ste B2,Henderson,NV,89052,US,35.97990036,-115.10050201,2022-12-16 15:27:55
Subway,10604 S Eastern Ave,Suite D,Henderson,NV,89052,US,35.9992981,-115.10430145,2022-12-16 15:27:55
Subway,80 N Cabrillo Hwy,Suite AV1,Half Moon Bay,CA,94019,US,37.4701004,-122.43499756,2022-12-16 15:27:54
Subway,330 Palmetto Ave,,Pacifica,CA,94044,US,37.65179825,-122.4910965,2022-12-16 15:27:54
Subway,1000 King Drive,Suite 101,Daly City,CA,94015,US,37.65050125,-122.46949768,2022-12-16 15:27:54
Subway,37 Skyline Plaza,,Daly City,CA,94015,US,37.68259811,-122.4878006,2022-12-16 15:27:54
Subway,2296 Westborough Blvd,,South San Francisco,CA,94080,US,37.64369965,-122.45259857,2022-12-16 15:27:54
Subway,7800 El Camino Real,,Colma,CA,94014,US,37.68379974,-122.46269989,2022-12-16 15:27:54
Subway,1501B Sloat Blvd,,San Francisco,CA,94132,US,37.73389816,-122.48930359,2022-12-16 15:27:54
Subway,1310 El Camino Real,Suite D,San Bruno,CA,94066,US,37.64020157,-122.42259979,2022-12-16 15:27:54
Subway,1150 El Camino Real,"Suite 170, Space 193",San Bruno,CA,94066,US,37.63579941,-122.41880035,2022-12-16 15:27:54
Subway,1308 W Hillsdale Blvd,,San Mateo,CA,94403,US,37.53319931,-122.32730103,2022-12-16 15:27:54
Subway,1073 Alameda De Las Pulgas,,Belmont,CA,94002,US,37.51050186,-122.29250336,2022-12-16 15:27:54
Subway,1857 El Camino Real,,Burlingame,CA,94010,US,37.59590149,-122.38490295,2022-12-16 15:27:54
Subway,979 Broadway Ave,,Millbrae,CA,94030,US,37.60469818,-122.39730072,2022-12-16 15:27:54
Subway,1308 Broadway,,Burlingame,CA,94010,US,37.58539963,-122.36540222,2022-12-16 15:27:54
Subway,758 Woodside Rd,,Redwood City,CA,94063,US,37.46699905,-122.22470093,2022-12-16 15:27:54
Subway,1723 Soquel Avenue,,Santa Cruz,CA,95062,US,36.98160172,-122.00189972,2022-12-18 06:25:12
Subway,811 Ocean Street,,Santa Cruz,CA,95060,US,36.97980118,-122.021698,2022-12-18 06:25:12
Subway,2740 41st Avenue,Suite B,Soquel,CA,95073,US,36.98690033,-121.96459961,2022-12-18 06:25:12
Subway,231 Mt Hermon Rd,Suite C,Scotts Valley,CA,95066-4007,US,37.04510117,-122.02829742,2022-12-18 06:25:12
Subway,7887 Soquel Drive,Suite G,Aptos,CA,95003,US,36.97829819,-121.90619659,2022-12-18 06:25:12
Subway,1964 Freedom Blvd,,Freedom,CA,95019-2836,US,36.93790054,-121.77619934,2022-12-18 06:25:12
Subway,1063 S Green Valley Rd,,Watsonville,CA,95076-4164,US,36.91830063,-121.78559875,2022-12-18 06:25:12
Subway,1561 Pacheco Blvd W,Suite #4,Los Banos,CA,93635,US,37.05630112,-120.87989807,2022-12-13 15:34:09
Subway,29060 West Plaza Dr,,Santa Nella,CA,95322,US,37.11220169,-121.01709747,2022-12-18 06:25:19
Subway,1341 E Pacheco Blvd,Ste F,Los Banos,CA,93635,US,37.05649948,-120.83570099,2022-12-13 15:34:09
Subway,15838 Paul Negra Road I 5,,Firebaugh,CA,93622,US,36.85499954,-120.77839661,2022-12-16 15:27:54
Subway,1502 Center Ave,,Dos Palos,CA,93620,US,36.98590088,-120.62680054,2022-12-13 15:34:09
Subway,1459 N St,,Newman,CA,95360,US,37.31409836,-121.02100372,2022-12-13 15:34:04
Subway,401 McCray St,Suite 25,Hollister,CA,95023-4096,US,36.85169983,-121.39769745,2022-12-16 15:27:54
Subway,341 Tres Pinos Road,Suite A-1,Hollister,CA,95023,US,36.83929825,-121.39589691,2022-12-16 15:27:54
Subway,1280 San Juan Rd,Space 6,Hollister,CA,95023,US,36.85350037,-121.42070007,2022-12-16 15:27:54
Subway,7940 N Lander Ave,,Hilmar,CA,95324,US,37.40309906,-120.84870148,2022-12-18 06:25:19
Subway,1510 E. Yosemite Ave.,#101,Madera,CA,93638-1964,US,36.97370148,-120.04219818,2022-12-18 06:25:14
Subway,1123 Country Club Drive,,Madera,CA,93638,US,36.97610092,-120.07279968,2022-12-18 06:25:14
Subway,2073 W. Kennedy Ave,Suite 103,Madera,CA,93636,US,36.9822998,-120.08640289,2022-12-18 06:25:14
Subway,1405 Howard Road,,Madera,CA,93637,US,36.95299911,-120.07430267,2022-12-18 06:25:14
Subway,1412 South Madera Ave,,Madera,CA,93637,US,36.93899918,-120.05639648,2022-12-18 06:25:14
Subway,28577 Ave 12,,Madera,CA,93637,US,36.92300034,-120.02469635,2022-12-18 06:25:14
Subway,3455 N Golden State Blvd,,Madera,CA,93637,US,36.99700165,-120.10590363,2022-12-18 06:25:14
Subway,22717 Ave 18 1/2,,Madera,CA,93637-9768,US,37.01979828,-120.1332016,2022-12-16 15:27:54
Subway,37164 Avenue 12,Suite 101,Madera,CA,93638,US,36.92290115,-119.87319946,2022-12-18 06:25:14
Subway,32685 Avenue 7,,Madera,CA,93637,US,36.85219955,-119.95159912,2022-12-18 06:25:14
Subway,29424 Auberry Rd,Suite 118,Prather,CA,93651,US,37.03760147,-119.51629639,2022-12-18 06:25:21
Subway,523 Park Blvd,,Orange Cove,CA,93646,US,36.62440109,-119.31159973,2022-12-18 06:25:20
Subway,5020 N Academy,,Clovis,CA,93619,US,36.80860138,-119.55470276,2022-12-18 06:25:21
Subway,41529 Road 128,,Orosi,CA,93647,US,36.54330063,-119.28690338,2022-12-18 06:25:20
Subway,1343 E Manning Ave.,,Reedley,CA,93654-2352,US,36.60359955,-119.43489838,2022-12-18 06:25:20
Subway,247 S Academy Ave,,Sanger,CA,93657,US,36.71229935,-119.55760193,2022-12-18 07:39:43
Subway,567 I Street,,Reedley,CA,93654,US,36.6006012,-119.45970154,2022-12-18 06:25:20
Subway,775 Bethel Ave,Suite 107,Sanger,CA,93657,US,36.70510101,-119.57479858,2022-12-18 07:39:43
Subway,450 West El Monte Way,Suite B,Dinuba,CA,93618,US,36.54539871,-119.39990234,2022-12-18 06:25:20
Subway,2220 Herndon Ave,Toll House Crossings #108,Clovis,CA,93611-8908,US,36.8370018,-119.67440033,2022-12-18 07:39:43
Subway,1341 Rocking W Dr,,Bishop,CA,93514,US,37.37689972,-118.42189789,2022-12-18 06:25:21
Subway,26 Old Mammoth Road,,Mammoth Lakes,CA,93546,US,37.64599991,-118.96759796,2022-12-18 06:25:21
Subway,159 E. Antelope Avenue,,Woodlake,CA,93286,US,36.41529846,-119.0983963,2022-12-18 06:25:20
Subway,19558 Ave 296,,Exeter,CA,93221-9780,US,36.32659912,-119.13500214,2022-12-18 06:25:20
Subway,1135 W Visalia Rd,,Exeter,CA,93221-2205,US,36.29809952,-119.15619659,2022-12-18 06:25:20
Subway,1206 Highway 95,,Tonopah,NV,89049,US,38.07410049,-117.24060059,2022-12-18 06:25:21
Subway,Bldg. 96,Creech Air Force Base,Indian Springs,NV,89018,US,36.57939911,-115.67620087,2022-12-13 15:34:03
Subway,9630 W Skye Canyon Park,Suite # 100,Las Vegas,NV,89166,US,36.3158989,-115.3062973,2022-12-16 15:27:41
Subway,7171 N. Hualapai Way,Ste 100,Las Vegas,NV,89149,US,36.29240036,-115.31549835,2022-12-13 15:34:03
Subway,8430 W Farm Rd,Suite 140,Las Vegas,NV,89131,US,36.30039978,-115.28099823,2022-12-16 15:27:41
Subway,6770 Durango Drive,Suite 120,Las Vegas,NV,89149,US,36.2840004,-115.28720093,2022-12-16 15:27:55
Subway,6440 Sky Point Drive,Suite 150,Las Vegas,NV,89131,US,36.27970123,-115.26170349,2022-12-16 15:27:41
Subway,12501 Apex Great Basin,,Las Vegas,NV,89105,US,36.38140106,-114.89630127,2022-12-18 06:25:12
Subway,6648 N. 5th Street,,North Las Vegas,NV,89084,US,36.28099823,-115.1344986,2022-12-18 06:25:12
Subway,6885 Aliante Parkway,Suite 108,N Las Vegas,NV,89084,US,36.28649902,-115.17919922,2022-12-18 06:25:12
Subway,2225 East Centennial Parkway,Suite 102,North Las Vegas,NV,89081,US,36.2757988,-115.11949921,2022-12-18 06:25:12
Subway,1110 West Pioneer Boulevard,,Mesquite,NV,89027,US,36.80759811,-114.1072998,2022-12-18 06:25:12
Subway,6475 N Decatur Blvd,#110,Las Vegas,NV,89130,US,36.27690125,-115.20809937,2022-12-18 06:25:12
Subway,5546 Camino Al Norte,Suite 7,North Las Vegas,NV,89031,US,36.26050186,-115.15470123,2022-12-18 06:25:12
Subway,780 Gravenstein Highway North,,Sebastopol,CA,95472,US,38.40769958,-122.83999634,2022-12-16 15:27:54
Subway,8500 Gravenstein Highway,Unit B,Cotati,CA,94931,US,38.33129883,-122.71559906,2022-12-16 15:27:54
Subway,1405 Fulton Rd,#103,Santa Rosa,CA,95403,US,38.45349884,-122.77120209,2022-12-16 15:27:54
Subway,2770-2780 Stony Point Rd,Ste C,Santa Rosa,CA,95407,US,38.40750122,-122.7410965,2022-12-16 15:27:54
Subway,6585 Commerce Blvd,Suite D,Rohnert Park,CA,94928,US,38.34600067,-122.71040344,2022-12-16 15:27:54
Subway,1101 Vine Street,,Healdsburg,CA,95448,US,38.6086998,-122.8730011,2022-12-13 15:33:57
Subway,443 Stony Point Rd,,Santa Rosa,CA,95401,US,38.43199921,-122.74359894,2022-12-16 15:27:54
Subway,111 San Marin Drive,,Novato,CA,94945,US,38.12260056,-122.60379791,2022-12-16 15:27:54
Subway,844 Sir Francis Drake Blvd,,San Anselmo,CA,94960,US,37.98059845,-122.56420135,2022-12-16 15:27:54
Subway,4050 Redwood Highway,,San Rafael,CA,94903,US,38.00790024,-122.54070282,2022-12-16 15:27:54
Subway,476 Ignacio Blvd,,Novato,CA,94949,US,38.06750107,-122.54340363,2022-12-16 15:27:54
Subway,647 Irwin Street,Unit C,San Rafael,CA,94901,US,37.96789932,-122.52200317,2022-12-16 15:27:54
Subway,961 Lakeville Highway,,Petaluma,CA,94952,US,38.23590088,-122.62239838,2022-12-16 15:27:54
Subway,5306 B Old Redwood Hwy,Suite B,Petaluma,CA,94954,US,38.27600098,-122.66809845,2022-12-16 15:27:54
Subway,332 Bon Air Center,,Greenbrae,CA,94904,US,37.94530106,-122.52230072,2022-12-16 15:27:55
Subway,221 North McDowell Blvd.,,Petaluma,CA,94954,US,38.25009918,-122.62879944,2022-12-16 15:27:54
Subway,2620 Lakeville Highway,Suite 320,Petaluma,CA,94954,US,38.23360062,-122.60320282,2022-12-16 15:27:54
Subway,1001 Willow Pass Court,,Concord,CA,94520,US,38.01499939,-121.9992981,2022-12-13 15:34:01
Subway,4115-4125 Concord Ave,,Concord,CA,94519,US,37.97840118,-121.99259949,2022-12-13 15:34:01
Subway,3375 Port Chicago Hwy,Suite 12,Concord,CA,94520,US,37.99420166,-122.03269958,2022-12-16 15:27:55
Subway,2166 Solano Way,,Concord,CA,94520,US,37.98910141,-122.04199982,2022-12-16 15:27:55
Subway,1751 Willow Pass Rd,,Concord,CA,94520,US,37.97439957,-122.04039764,2022-12-16 15:27:55
Subway,4701C Clayton Road,,Concord,CA,94521,US,37.9612999,-121.98200226,2022-12-13 15:34:01
Subway,201 Port Chicago Hwy.,,Bay Point,CA,94565,US,38.02859879,-121.96009827,2022-12-13 15:34:01
Subway,532 Bailey Road,,Pittsburg,CA,94565,US,38.0177002,-121.94290161,2022-12-13 15:34:01
Subway,1701 Monument Blvd,Suite 7 A,Concord,CA,94520,US,37.95500183,-122.04149628,2022-12-16 15:27:55
Subway,13521 E. Mariposa Rd.,,Stockton,CA,95215,US,37.90520096,-121.14710236,2022-12-18 06:25:16
Subway,4410 Waterloo Rd,,Stockton,CA,95215,US,37.98709869,-121.24559784,2022-12-18 06:25:16
Subway,4895 State Rt 99,Suite B,Stockton,CA,95215,US,37.9056015,-121.2220993,2022-12-18 06:25:16
Subway,1205 Plaza Avenue,,Escalon,CA,95320,US,37.79940033,-120.99819946,2022-12-18 06:25:16
Subway,14035 Highway 88,,Lockeford,CA,95237,US,38.16749954,-121.14479828,2022-12-18 06:25:16
Subway,4011 East Morada Lane,Suite 2B110,Stockton,CA,95212,US,38.03760147,-121.2602005,2022-12-18 06:25:16
Subway,3706 Hammer Lane,,Stockton,CA,95212-2844,US,38.02090073,-121.26899719,2022-12-18 06:25:16
Subway,678 N Wilson Way,,Stockton,CA,95205,US,37.96360016,-121.2723999,2022-12-18 06:25:16
Subway,1540 E March Lane,Suite B3,Stockton,CA,95210,US,38.00230026,-121.28849792,2022-12-18 06:25:16
Subway,2620 Reynolds Ranch Parkway,Suite 120,Lodi,CA,95240,US,38.09759903,-121.26239777,2022-12-18 06:25:16
Subway,13757 Mono Way,Store C,Sonora,CA,95370-2812,US,37.97499847,-120.34349823,2022-12-16 15:27:54
Subway,665 S Washington St.,,Sonora,CA,95370,US,37.97629929,-120.37960052,2022-12-16 15:27:54
Subway,18141 Highway 108,,Jamestown,CA,95327,US,37.9518013,-120.42449951,2022-12-16 15:27:54
Subway,2182 Hwy 4,Ste E520,Arnold,CA,95223,US,38.23889923,-120.36450195,2022-12-18 06:25:18
Subway,51 North Main St,Suite A,Angels Camp,CA,95222,US,38.08229828,-120.56099701,2022-12-16 15:27:54
Subway,4998 7th Street,,Mariposa,CA,95338,US,37.48590088,-119.96600342,2022-12-18 06:25:21
Subway,314 E Saint Charles St,Suite 2,San Andreas,CA,95249,US,38.19250107,-120.67669678,2022-12-16 15:27:54
Subway,200 Hwy 12,Suite E7,Valley Springs,CA,95252,US,38.19150162,-120.82589722,2022-12-16 15:27:54
Subway,525 Highway 49,Suite 11,Jackson,CA,95642,US,38.3431015,-120.76940155,2022-12-16 15:27:54
Subway,1449 East F St,Suite 101 F & G,Oakdale,CA,95361-9266,US,37.77149963,-120.83270264,2022-12-18 06:25:19
Subway,40278 Stagecoach Rd,Ste 1 & 2,Oakhurst,CA,93644,US,37.33359909,-119.64969635,2022-12-18 06:25:21
Subway,35335 Highway 41,Suite 5,Coarsegold,CA,93614,US,37.26190186,-119.69609833,2022-12-18 06:25:21
Subway,198 Goldfield Ave,,Yerington,NV,89447,US,38.99420166,-119.16529846,2022-12-18 06:25:15
Subway,1328 US Hwy 395 N.,Suite 101,Gardnerville,NV,89410,US,38.93479919,-119.73889923,2022-12-18 06:25:15
Subway,Exchange Building #341,,Fallon,NV,89406,US,39.42259979,-118.7233963,2022-12-18 06:25:15
Subway,1690 Great Basin Boulevard,,Ely,NV,89301,US,39.24349976,-114.86810303,2022-12-16 15:27:39
Subway,1973 West Sunset Blvd,,St George,UT,84770,US,37.12250137,-113.62599945,2022-12-18 06:25:12
Subway,370 Sandhill Blvd,,Mesquite,NV,89024,US,36.81000137,-114.06310272,2022-12-18 06:25:12
Subway,514 N Bluff,,St George,UT,84770,US,37.11700058,-113.59660339,2022-12-18 06:25:12
Subway,831 E 300 S - Kenneth Gardner,Red Rock Cafe,St George,UT,84770,US,37.10279846,-113.56590271,2022-12-18 06:25:12
Subway,765 E 700 S,,St George,UT,84770,US,37.0965004,-113.56739807,2022-12-18 06:25:12
Subway,335 S River Rd,,St George,UT,84770,US,37.10219955,-113.55529785,2022-12-18 06:25:12
Subway,2654 E. Red Cliffs Dr,Bldg 1 Unit A,St George,UT,84790,US,37.12450027,-113.52970123,2022-12-18 06:25:12
Subway,141 Boatyard Dr,#B,Fort Bragg,CA,95437,US,39.42079926,-123.80750275,2022-12-13 15:33:57
Subway,1307 N State St,,Ukiah,CA,95482,US,39.16809845,-123.20929718,2022-12-16 15:27:53
Subway,1155 Airport Park Blvd,,Ukiah,CA,95482,US,39.13370132,-123.1969986,2022-12-13 15:33:57
Subway,1704 S Main St,Space #2,Willits,CA,95490,US,39.39149857,-123.34799957,2022-12-18 06:25:14
Subway,130 N Orchard Ave,,Ukiah,CA,95482,US,39.15200043,-123.19930267,2022-12-16 15:27:53
Subway,1117 B S Cloverdale Blvd.,,Cloverdale,CA,95425,US,38.78499985,-123.01460266,2022-12-13 15:33:57
Subway,979 11th St,,Lakeport,CA,95453,US,39.04800034,-122.9240036,2022-12-16 15:27:53
Subway,6272 E. Highway 20,,Lucerne,CA,95458,US,39.08879852,-122.79399872,2022-12-18 06:25:14
Subway,15060 Lakeshore Dr,,Clearlake,CA,95422,US,38.95009995,-122.63059998,2022-12-16 15:27:53
Subway,15960 Dam Road,,Clearlake,CA,95422,US,38.93149948,-122.61660004,2022-12-16 15:27:53
Subway,295 East St,Unit A,Williams,CA,95987,US,39.15850067,-122.13929749,2022-12-18 06:25:13
Subway,1031 Bridge St,Suite A,Colusa,CA,95932-2839,US,39.20370102,-122.0039978,2022-12-18 06:25:13
Subway,1645 Butte House Rd,,Yuba City,CA,95993,US,39.14870071,-121.64499664,2022-12-18 06:25:13
Subway,955 Garden Highway,Suite A,Yuba City,CA,95991,US,39.11299896,-121.61789703,2022-12-18 06:25:13
Subway,850 Colusa Ave,Suite A,Yuba City,CA,95991,US,39.1413002,-121.62840271,2022-12-18 06:25:13
Subway,451 Queens Avenue,Suite C,Yuba City,CA,95991,US,39.15240097,-121.61990356,2022-12-18 06:25:13
Subway,130 12th St,,Marysville,CA,95901,US,39.14820099,-121.58670044,2022-12-18 06:25:13
Subway,1131 N Beale Rd,,Marysville,CA,95901,US,39.12670135,-121.57460022,2022-12-18 06:25:13
Subway,10025 Combie Road,CVS #03947S1B,Auburn,CA,95602,US,39.04180145,-121.09329987,2022-12-18 06:25:13
Subway,2310 Grass Valley Hwy,,Auburn,CA,95603,US,38.93560028,-121.09200287,2022-12-18 06:25:13
Subway,350 South Canyon Way,,Colfax,CA,95713,US,39.09550095,-120.94789886,2022-12-18 06:25:15
Subway,650 Auburn Folsom Road,Suite C,Auburn,CA,95603,US,38.87879944,-121.08070374,2022-12-18 06:25:15
Subway,716 B Freeman Lane,,Grass Valley,CA,95949-9639,US,39.20230103,-121.06390381,2022-12-18 06:25:13
Subway,3141 Penryn Road,,Penryn,CA,95663,US,38.83589935,-121.16750336,2022-12-18 06:25:13
Subway,"6099 Horseshoe Bar Rd,",,Loomis,CA,95650,US,38.81850052,-121.18930054,2022-12-18 06:25:13
Subway,2096 Nevada City Highway,,Grass Valley,CA,95945,US,39.23889923,-121.03659821,2022-12-18 06:25:13
Subway,3924 Lake Tahoe Blvd,,South Lake Tahoe,CA,96150,US,38.95299911,-119.94730377,2022-12-18 06:25:15
Subway,4000 Lake Tahoe Blvd Bldg D#31,,South Lake Tahoe,CA,96150,US,38.95479965,-119.94409943,2022-12-18 06:25:15
Subway,1019 Emerald Bay Road,,South Lake Tahoe,CA,96150,US,38.91239929,-120.00330353,2022-12-18 06:25:15
Subway,1680 Hwy 395,,Minden,NV,89423,US,38.95890045,-119.77670288,2022-12-18 06:25:15
Subway,950 N Lake Blvd,Suite 101,Tahoe City,CA,96145,US,39.17409897,-120.13690186,2022-12-18 06:25:15
Subway,3790 Highway 395 South,#409,Carson City,NV,89705,US,39.11299896,-119.77690125,2022-12-18 06:25:15
Subway,3959 S Carson St,,Carson City,NV,89701,US,39.13000107,-119.7696991,2022-12-18 06:25:15
Subway,100 Winnie Ln W,,Carson City,NV,89703,US,39.17979813,-119.76719666,2022-12-18 06:25:15
Subway,2840 US Highway 95A,Unit #6 & #8,Silver Springs,NV,89429,US,39.40800095,-119.22619629,2022-12-18 06:25:15
Subway,915 W Williams Ave,,Fallon,NV,89406,US,39.47449875,-118.78829956,2022-12-18 06:25:15
Subway,145 Hwy 50 E,,Dayton,NV,89403,US,39.2378006,-119.58979797,2022-12-18 06:25:15
Subway,1550 E Newlands Dr,,Fernley,NV,89408,US,39.61100006,-119.21710205,2022-12-18 06:25:15
Subway,470  E Main Street,Unit 110,Fernley,NV,89408,US,39.60649872,-119.24259949,2022-12-18 06:25:15
Subway,420 USA Parkway,Suite 102,Mccarran,NV,89434,US,39.5583992,-119.4897995,2022-12-18 06:25:15
Subway,720 South Broad Street,,Battle Mountain,NV,89820,US,40.63790131,-116.94000244,2022-12-13 15:34:04
Subway,791 10 St,,Carlin,NV,89822,US,40.71419907,-116.10359955,2022-12-13 15:34:04
Subway,238 Country Club Pkwy,Bldg A,Spring Creek,NV,89815,US,40.75,-115.58630371,2022-12-13 15:34:04
Subway,1664 Thomas H. Gallagher Way,Suite100,Elko,NV,89801,US,40.83089828,-115.78279877,2022-12-13 15:34:04
Subway,2130 Idaho Street,,Elko,NV,89801,US,40.84339905,-115.75029755,2022-12-13 15:34:04
Subway,80 I-80 BUS,,Wendover,UT,84083,US,40.73649979,-114.04000092,2022-12-13 15:34:04
Subway,177 East Main St,,Delta,UT,84624,US,39.35240173,-112.57080078,2022-12-18 06:25:15
Subway,1375 North 400 West,,Beaver,UT,84713,US,38.29230118,-112.64779663,2022-12-18 06:25:15
Subway,741 S Fortuna Blvd,,Fortuna,CA,95540,US,40.5821991,-124.14510345,2022-12-13 15:33:57
Subway,800 West Harris St,,Eureka,CA,95503,US,40.7818985,-124.18009949,2022-12-13 15:33:57
Subway,1906 4th St,,Eureka,CA,95501,US,40.80459976,-124.15129852,2022-12-18 06:25:18
Subway,5000 Valley West Blvd,Unit #2,Arcata,CA,95521,US,40.90430069,-124.0821991,2022-12-18 06:25:18
Subway,1565 City Center Rd,,McKinleyville,CA,95519,US,40.94390106,-124.10150146,2022-12-18 06:25:18
Subway,39123 Hwy 299,,Willow Creek,CA,95573,US,40.93909836,-123.6289978,2022-12-18 06:25:14
Subway,608 Luther Road,,Red Bluff,CA,96080,US,40.16239929,-122.23480225,2022-12-18 06:25:14
Subway,10 Gilmore Rd,,Red Bluff,CA,96080,US,40.17900085,-122.22740173,2022-12-18 06:25:14
Subway,"951 Hwy 99 West, Suite 101",,Corning,CA,96021,US,39.92699814,-122.1969986,2022-12-18 06:25:14
Subway,3524 South Highway 99 West,,Corning,CA,96021,US,39.90439987,-122.1984024,2022-12-18 06:25:14
Subway,839 Newville Road,,Orland,CA,95963,US,39.74850082,-122.20079803,2022-12-18 06:25:14
Subway,20645 Gas Point Road,,Cottonwood,CA,96022,US,40.38890076,-122.28720093,2022-12-18 06:25:14
Subway,5000 Rhonda Rd,,Anderson,CA,96007,US,40.4314003,-122.28869629,2022-12-18 06:25:14
Subway,6446 Westside Road,,Redding,CA,96001,US,40.52180099,-122.38349915,2022-12-18 06:25:14
Subway,601 6th St.,,Hamilton City,CA,95951,US,39.74580002,-122.01480103,2022-12-18 06:25:14
Subway,240 W East Ave,Suite E,Chico,CA,95926,US,39.75519943,-121.86470032,2022-12-18 06:25:14
Subway,1398 East Ave,Ste 200,Chico,CA,95926,US,39.76160049,-121.82019806,2022-12-18 06:25:14
Subway,1000 W Sacramento Ave,Suite A,Chico,CA,95926-4112,US,39.73139954,-121.85820007,2022-12-18 06:25:14
Subway,722 Mangrove Ave,,Chico,CA,95926,US,39.73699951,-121.83390045,2022-12-18 06:25:14
Subway,"23 Crescent Street, Highway 70",,Quincy,CA,95971,US,39.93719864,-120.94950104,2022-12-18 06:25:14
Subway,433 Main St,,Chester,CA,96020,US,40.30250168,-121.23459625,2022-12-18 06:25:14
Subway,24 W Sierra Ave,Suite 2,Portola,CA,96122,US,39.81060028,-120.46990204,2022-12-18 06:25:15
Subway,2978 Main St,Suite A2,Susanville,CA,96130,US,40.40579987,-120.63430023,2022-12-18 06:25:14
Subway,2900 Main St,Inside Walmart,Susanville,CA,96130,US,40.40919876,-120.6371994,2022-12-18 06:25:14
Subway,6616 Clark Rd,Suite E,Paradise,CA,95969,US,39.77590179,-121.59159851,2022-12-18 06:25:14
Subway,1900 Orodam Rd,Suite 13,Oroville,CA,95966,US,39.50469971,-121.55069733,2022-12-18 06:25:13
Subway,455 Oro Dam Blvd,Suite C,Oroville,CA,95965,US,39.49769974,-121.57060242,2022-12-18 06:25:13
Subway,2485 Notre Dame Blvd,Suite 380,Chico,CA,95928,US,39.71630096,-121.79309845,2022-12-18 06:25:14
Subway,465 Cal Oak Road,,Oroville,CA,95965,US,39.49269867,-121.57279968,2022-12-18 06:25:13
Subway,10603 Stead Blvd,Suite 5,Reno,NV,89506,US,39.62599945,-119.88259888,2022-12-18 06:25:15
Subway,250 Vista Noll Parkway,,Stead,NV,89506,US,39.6155014,-119.85340118,2022-12-18 06:25:15
Subway,1075 North Hills Blvd,Suite 210,Reno,NV,89506,US,39.60520172,-119.84079742,2022-12-18 06:25:15
Subway,9725 Pyramid Highway,Suite 406,Spanish Springs,NV,89436,US,39.6405983,-119.71089935,2022-12-18 06:25:15
Subway,5055 Sun Valley Blvd,Ste 300,Sun Valley,NV,89433,US,39.57659912,-119.78140259,2022-12-18 06:25:15
Subway,2875 Northtowne Lane,Suite B,Reno,NV,89512-2062,US,39.55419922,-119.78279877,2022-12-18 06:25:15
Subway,10310 N. McCarran Blvd,Suite 200,Reno,NV,89503,US,39.53139877,-119.86389923,2022-12-18 06:25:15
Subway,1901 Silverada Blvd.,Unit 24,Reno,NV,89512,US,39.54650116,-119.7845993,2022-12-18 06:25:15
Subway,1495 East Prater Way,Suite 127,Sparks,NV,89431,US,39.54119873,-119.71600342,2022-12-18 06:25:15
Subway,970 South McCarran,Suite 100,Sparks,NV,89431,US,39.52429962,-119.7390976,2022-12-18 06:25:15
Subway,5625 I-80 W Winnemucca Blvd,,Winnemucca,NV,89445,US,40.93130112,-117.80419922,2022-12-16 15:27:41
Subway,3010 Potato Rd,,Winnemucca,NV,89445,US,40.95729828,-117.74649811,2022-12-16 15:27:41
Subway,936 W Winnemucca Blvd,,Winnemucca,NV,89445,US,40.96670151,-117.74310303,2022-12-16 15:27:41
Subway,1237 Hwy 93 North,,Wells,NV,89835,US,41.1004982,-114.95709991,2022-12-18 06:25:19
Subway,850 US Hwy 101 N,,Crescent City,CA,95531-2309,US,41.76440048,-124.19709778,2022-12-18 06:25:12
Subway,900 East Washington Blvd,,Crescent City,CA,95531,US,41.77460098,-124.18979645,2022-12-18 06:25:12
Subway,1615 Main Street,Space D,Weaverville,CA,96093,US,40.72190094,-122.92739868,2022-12-18 06:25:14
Subway,20884 Antler Rd,,Lakehead,CA,96051,US,40.89220047,-122.38210297,2022-12-18 06:25:14
Subway,18850 Old Oasis Road,,Redding,CA,96003,US,40.64170074,-122.36779785,2022-12-18 06:25:14
Subway,150 Morgan Way,,Mount Shasta,CA,96067,US,41.3091011,-122.31539917,2022-12-18 06:25:12
Subway,1950 Eureka Way,,Redding,CA,96001,US,40.58660126,-122.39949799,2022-12-18 06:25:14
Subway,155 East  Lake Boulevard,,Redding,CA,96003,US,40.61050034,-122.37110138,2022-12-18 06:25:14
Subway,395 E Vista Way,#15,Weed,CA,96094,US,41.39910126,-122.37680054,2022-12-18 06:25:12
Subway,37449 Main St,Suite C,Burney,CA,96013,US,40.88899994,-121.65299988,2022-12-18 06:25:14
Subway,1150 Dana Drive,Suite 1,Redding,CA,96003,US,40.58610153,-122.34999847,2022-12-18 06:25:14
Subway,2191 Hilltop Drive,,Redding,CA,96002,US,40.57559967,-122.35769653,2022-12-18 06:25:14
Subway,100 W 12th Street,,Alturas,CA,96101,US,41.49470139,-120.54309845,2022-12-18 06:25:22
Subway,211 N  F Street,,Lakeview,OR,97630,US,42.19110107,-120.3463974,2022-12-16 15:27:41
Subway,152 Hwy 30,,Filer,ID,83328,US,42.56439972,-114.60549927,2022-12-18 06:25:19
Subway,1553 Kimberly Road,,Twin Falls,ID,83301,US,42.5489006,-114.45330048,2022-12-18 06:25:18
Subway,2206 E Hwy 66,,Gallup,NM,87301,US,35.52930069,-108.70539856,2022-12-18 06:25:20
Subway,3798 US East Hwy 66,,Gallup,NM,87301,US,35.52920151,-108.68869781,2022-12-18 06:25:20
Subway,I-40 @ Exit 39,,Jamestown,NM,87347,US,35.43730164,-108.45700073,2022-12-18 06:25:20
Subway,101 Ayani Neez Blvd,SE Hwy 491,Shiprock,NM,87420,US,36.76639938,-108.6977005,2022-12-18 06:25:20
Subway,4226 Highway 64 West,,Kirtland,NM,87417,US,36.7417984,-108.353302,2022-12-18 06:25:20
Subway,818 W Broadway Ave,,Bloomfield,NM,87413,US,36.71170044,-107.98889923,2022-12-18 06:25:20
Subway,2100 Bloomfield Blvd,,Farmington,NM,87401,US,36.71989822,-108.18219757,2022-12-18 06:25:20
Subway,100 Phillips Road,,Farmington,NM,87401,US,36.73210144,-108.23269653,2022-12-18 06:25:20
Subway,3800 E Main St,,Farmington,NM,87402,US,36.75400162,-108.15720367,2022-12-18 06:25:20
Subway,300 E 20th St,,Farmington,NM,87401,US,36.74860001,-108.20179749,2022-12-18 06:25:20
Subway,1370 Central Ave,,Los Alamos,NM,87544,US,35.8810997,-106.29810333,2022-12-18 06:25:20
Subway,1313 Paseo de Onate,,Espanola,NM,87532,US,36.00930023,-106.08760071,2022-12-18 06:25:20
Subway,7800 Carr Way,Suite 104,Rio Rancho,NM,87144,US,35.32540131,-106.57430267,2022-12-18 06:25:20
Subway,745 Riverside Drive N,Suite B,Espanola,NM,87532-2525,US,36.00139999,-106.06230164,2022-12-18 06:25:20
Subway,460 NM Highway 528,,Bernalillo,NM,87004,US,35.31990051,-106.5719986,2022-12-18 06:25:20
Subway,248 Hwy 44 West,,Bernalillo,NM,87004,US,35.31999969,-106.5483017,2022-12-18 06:25:20
Subway,4320 Ridgecrest Drive,Suite B 2,Rio Rancho,NM,87124,US,35.25389862,-106.64890289,2022-12-18 06:25:20
