company_name,address_line_1,address_line_2,city,state_alpha,postal_code,country_code,latitude,longitude,when_verified
Taco Bell,5510 Mobile Highway,,Pensacola,FL,32526,US,30.45779991,-87.2990036,2022-12-18 06:25:19
Taco Bell,305 South Warrington Road,,Pensacola,FL,32507,US,30.40399933,-87.27729797,2022-12-18 06:25:19
Taco Bell,8088 N Davis Hwy,,Pensacola,FL,32514,US,30.50819969,-87.22109985,2022-12-18 06:25:18
Taco Bell,2011 Airport Blvd,,Pensacola,FL,32504,US,30.47839928,-87.20649719,2022-12-18 06:25:18
Taco Bell,1201 E. Cervantes St.,,Pensacola,FL,32501,US,30.42359924,-87.20230103,2022-12-18 06:25:19
Taco Bell,3860 Highway 90,,Pace,FL,32571,US,30.59939957,-87.16320038,2022-12-18 06:25:18
Taco Bell,6281 Hwy 90 West,,Milton,FL,32570,US,30.6067009,-87.06259918,2022-12-18 06:25:18
Taco Bell,8714 Navarre Pkwy,,Navarre,FL,32566,US,30.4022007,-86.85829926,2022-12-16 15:27:55
Taco Bell,435 Mary Esther Blvd.,,Mary Esther,FL,32569,US,30.41889954,-86.6529007,2022-12-18 06:25:14
Taco Bell,65 Eglin Parkway NE,,Fort Walton Beach,FL,32548,US,30.41580009,-86.60669708,2022-12-18 06:25:14
Taco Bell,945 North Beal Pkwy,,Fort Walton Beach,FL,32547,US,30.45269966,-86.63829803,2022-12-18 06:25:14
Taco Bell,509 Hwy  98 East,,Destin,FL,32541,US,30.39290047,-86.498703,2022-12-18 06:25:22
Taco Bell,110 W. John Sims Parkway,,Niceville,FL,32578,US,30.52280045,-86.49510193,2022-12-18 06:25:22
Taco Bell,4573 E. Highway 20,,Niceville,FL,32578,US,30.48259926,-86.41609955,2022-12-16 15:27:47
Taco Bell,10859 Us Highway 98 W,,Miramar Beach,FL,32550,US,30.37940025,-86.35520172,2022-12-16 15:27:47
Taco Bell,1465 US Hwy. 331 South,,Defuniak Springs,FL,32435,US,30.70129967,-86.12239838,2022-12-16 15:27:54
Taco Bell,559 Richard Jackson Blvd,,Panama City Beach,FL,32407,US,30.1868,-85.81729889,2022-12-16 15:27:53
Taco Bell,17120 Panama City Beach Pkwy,,Panama City Beach,FL,32413,US,30.23110008,-85.88980103,2022-12-16 15:27:53
Taco Bell,7040 W Hwy 98,,Panama City Beach,FL,32407,US,30.18889999,-85.7602005,2022-12-18 06:25:16
Taco Bell,4020 W. 23rd. Street,,Panama City,FL,32405,US,30.19009972,-85.71109772,2022-12-18 06:25:16
Taco Bell,2005 Hwy 77,,Lynn Haven,FL,32444,US,30.22809982,-85.64890289,2022-12-18 06:25:16
Taco Bell,1444 Main Street,,Chipley,FL,32428,US,30.75909996,-85.54789734,2022-12-18 06:25:21
Taco Bell,4689 Highway 90,,Marianna,FL,32446,US,30.76799965,-85.20420074,2022-12-18 06:25:20
Taco Bell,2112 Highway 71 South,,Marianna,FL,32448,US,30.71879959,-85.18470001,2022-12-18 06:25:20
Taco Bell,434 S Tyndall Parkway,,Panama City,FL,32404,US,30.13890076,-85.59130096,2022-12-18 06:25:16
Taco Bell,4315 N. Hwy. 231,,Panama City,FL,32404,US,30.2262001,-85.58959961,2022-12-18 06:25:16
Taco Bell,49 Preston Circle,,Crawfordville,FL,32327,US,30.20960045,-84.36560059,2022-12-16 15:27:39
Taco Bell,1524 W. Jefferson Street,,Quincy,FL,32351,US,30.58690071,-84.59580231,2022-12-13 15:34:09
Taco Bell,4200 W Tennessee St,,Tallahassee,FL,32304,US,30.46010017,-84.3565979,2022-12-18 06:25:09
Taco Bell,1506 W Tennessee St,,Tallahassee,FL,32304,US,30.44930077,-84.30699921,2022-12-18 06:25:09
Taco Bell,3209 N. Monroe St,,Tallahassee,FL,32303,US,30.4871006,-84.31549835,2022-12-18 06:25:09
Taco Bell,329 US Hwy 84 E,,Cairo,GA,39828,US,30.88559914,-84.20539856,2022-12-16 15:27:55
Taco Bell,3839 Capital Circle NE,,Tallahassee,FL,32308,US,30.50499916,-84.24880219,2022-12-18 06:25:09
Taco Bell,15049 US Highway 19 S #502,,Thomasville,GA,31792,US,30.85499954,-83.94660187,2022-12-16 15:27:53
Taco Bell,1402 E Shotwell St,,Bainbridge,GA,39819,US,30.9034996,-84.55549622,2022-12-18 06:25:18
Taco Bell,827 Hwy 43 S,,Saraland,AL,36571,US,30.80260086,-88.07209778,2022-12-18 06:25:21
Taco Bell,621 McMeans Ave,,Bay Minette,AL,36507,US,30.88430023,-87.78790283,2022-12-16 15:27:53
Taco Bell,5920 Hwy 21,,Atmore,AL,36502,US,31.10750008,-87.47599792,2022-12-16 15:27:39
Taco Bell,3625 N College Ave,,Jackson,AL,36545,US,31.55559921,-87.87760162,2022-12-18 06:25:21
Taco Bell,2150 Douglas Avenue,,Brewton,AL,36426,US,31.14100075,-87.06860352,2022-12-16 15:27:39
Taco Bell,840 Liberty Hill Drive,,Evergreen,AL,36401,US,31.4545002,-86.96240234,2022-12-18 06:25:21
Taco Bell,254 West Bypass,,Andalusia,AL,36420,US,31.31089973,-86.5,2022-12-13 15:34:04
Taco Bell,1116 Highway 231 S,,Troy,AL,36081,US,31.78359985,-85.95729828,2022-12-16 15:27:39
Taco Bell,602 Boll Weevil Circle,,Enterprise,AL,36330,US,31.31550026,-85.82959747,2022-12-16 15:27:39
Taco Bell,935 N Daleville Ave,,Daleville,AL,36322,US,31.31999969,-85.71080017,2022-12-16 15:27:39
Taco Bell,4468-2 West Main Street,,Dothan,AL,36305,US,31.23670006,-85.45970154,2022-12-16 15:27:49
Taco Bell,3191 S. Eufaula Ave.,,Eufaula,AL,36027,US,31.87369919,-85.15380096,2022-12-18 06:25:21
Taco Bell,2414 Dawson Rd,,Albany,GA,31707,US,31.60860062,-84.21009827,2022-12-16 15:27:52
Taco Bell,71 U.S. Highway 19 North,,Camilla,GA,31730,US,31.23340034,-84.19950104,2022-12-18 06:25:18
Taco Bell,1505 N. Slappey Blvd,,Albany,GA,31707,US,31.5977993,-84.17630005,2022-12-16 15:27:52
Taco Bell,1700 E Oglethorpe,,Albany,GA,31705,US,31.57029915,-84.10720062,2022-12-16 15:27:52
Taco Bell,33951 Hwy 43 North,,Thomasville,AL,36784,US,31.93479919,-87.73789978,2022-12-18 06:54:30
Taco Bell,303 W Highland Ave,,Selma,AL,36701,US,32.4314003,-87.03510284,2022-12-16 15:27:39
Taco Bell,9050 Highway 69 S,,Tuscaloosa,AL,35405,US,33.12319946,-87.55110168,2022-12-16 15:27:41
Taco Bell,915 Main St.,,Montevallo,AL,35115,US,33.10179901,-86.86100006,2022-12-18 06:25:21
Taco Bell,1017 Ft Dale Road,,Greenville,AL,36037,US,31.85370064,-86.64129639,2022-12-13 15:34:03
Taco Bell,411 S Memorial Dr,,Prattville,AL,36067,US,32.46229935,-86.45059967,2022-12-18 06:25:19
Taco Bell,1235 AL-14,,Millbrook,AL,36054,US,32.49369812,-86.40480042,2022-12-18 06:25:19
Taco Bell,5903 Us Hwy 231,,Wetumpka,AL,36092,US,32.52640152,-86.20680237,2022-12-16 15:27:50
Taco Bell,3779 Highway 280,,Alexander City,AL,35010,US,32.92710114,-85.96330261,2022-12-18 06:25:21
Taco Bell,8801 Eastchase Parkway,,Montgomery,AL,36117,US,32.3647995,-86.14150238,2022-12-18 06:25:11
Taco Bell,8020 Vaughn Road,,Montgomery,AL,36116,US,32.33860016,-86.17500305,2022-12-18 06:25:11
Taco Bell,2027 S. College St.,,Auburn,AL,36832,US,32.56669998,-85.50140381,2022-12-18 06:25:22
Taco Bell,5163 Carmichael Rd,,Montgomery,AL,36106,US,32.35990143,-86.2173996,2022-12-18 06:25:11
Taco Bell,5380 Atlanta Hwy,,Montgomery,AL,36109,US,32.38159943,-86.21579742,2022-12-18 06:25:11
Taco Bell,271 S Gay St,,Auburn,AL,36830,US,32.60179901,-85.479599,2022-12-18 06:25:22
Taco Bell,2400 Pepperell Pkwy,,Opelika,AL,36801,US,32.63830185,-85.41149902,2022-12-18 06:25:22
Taco Bell,1300 Columbus Parkway,,Opelika,AL,36804,US,32.64369965,-85.34819794,2022-12-18 06:25:22
Taco Bell,2903 20th Avenue,,Valley,AL,36854,US,32.84500122,-85.18209839,2022-12-16 15:27:54
Taco Bell,3456 Victory Drive,,Columbus,GA,31903,US,32.42539978,-84.94850159,2022-12-18 06:25:20
Taco Bell,4348 Buena Vista Rd,,Columbus,GA,31906,US,32.46509933,-84.91919708,2022-12-18 06:25:20
Taco Bell,2932 Macon Road,,Columbus,GA,31907,US,32.47639847,-84.94860077,2022-12-18 06:25:20
Taco Bell,1408 Veterans Parkway,,Columbus,GA,31901,US,32.47299957,-84.98699951,2022-12-18 06:25:20
Taco Bell,2059 Highway 280,,Phenix City,AL,36867,US,32.48210144,-85.03140259,2022-12-18 06:25:20
Taco Bell,7330 Veterans Parkway,,Columbus,GA,31906,US,32.55369949,-84.9469986,2022-12-18 06:25:20
Taco Bell,2450 Airport Thruway,,Columbus,GA,31903,US,32.52009964,-84.95839691,2022-12-18 06:25:20
Taco Bell,1057 Hwy 19 North,,Thomaston,GA,30286,US,32.92580032,-84.33390045,2022-12-18 06:25:14
Taco Bell,2610 Stillman Blvd.,,Tuscaloosa,AL,35401,US,33.20539856,-87.56980133,2022-12-16 15:27:41
Taco Bell,1880 Mcfarland Blvd,,Northport,AL,35476,US,33.23920059,-87.57630157,2022-12-16 15:27:41
Taco Bell,815 Skyland Blvd,,Tuscaloosa,AL,35405,US,33.16759872,-87.52490234,2022-12-16 15:27:41
Taco Bell,236 15th Street,,Tuscaloosa,AL,35401,US,33.19869995,-87.53869629,2022-12-16 15:27:41
Taco Bell,3501 Buttermilk Road,,Cottondale,AL,35453,US,33.17620087,-87.44719696,2022-12-16 15:27:54
Taco Bell,508 Hwy #78 West,,Jasper,AL,35501,US,33.8492012,-87.28109741,2022-12-16 15:27:51
Taco Bell,450 Colonial Promenade Pkwy,,Alabaster,AL,35007,US,33.23389816,-86.8042984,2022-12-18 06:25:21
Taco Bell,101 Cahaba Valley Pkwy,,Pelham,AL,35124,US,33.33499908,-86.78410339,2022-12-18 06:25:20
Taco Bell,4804 Highway 52 W,,Helena,AL,35080,US,33.28219986,-86.85340118,2022-12-18 07:39:43
Taco Bell,121 Supercenter Dr,,Calera,AL,35040,US,33.14609909,-86.7492981,2022-12-18 06:25:21
Taco Bell,1821 Montgomery Highway,,Hoover,AL,35244,US,33.37540054,-86.80220032,2022-12-18 06:25:20
Taco Bell,218 W. College Street,,Columbiana,AL,35051,US,33.18040085,-86.61289978,2022-12-16 15:27:55
Taco Bell,5622 Grove Blvd,,Hoover,AL,35226,US,33.35789871,-86.853302,2022-12-18 07:39:43
Taco Bell,16778 Hwy. 280,,Chelsea,AL,35043,US,33.3484993,-86.63259888,2022-12-16 15:27:54
Taco Bell,1801 Ashville Rd,,Leeds,AL,35094,US,33.56100082,-86.5223999,2022-12-18 06:25:16
Taco Bell,64 Springville Station Blvd,,Springville,AL,35146,US,33.77819824,-86.43080139,2022-12-18 06:25:16
Taco Bell,511 Martin St N,,Pell City,AL,35125,US,33.59339905,-86.28309631,2022-12-16 15:27:37
Taco Bell,75835 Highway 77,,Lincoln,AL,35096,US,33.59540176,-86.12200165,2022-12-16 15:27:49
Taco Bell,1560 Highway 77,,Southside,AL,35907,US,33.93099976,-86.02449799,2022-12-16 15:27:54
Taco Bell,609 2nd Ave E,,Oneonta,AL,35121,US,33.94900131,-86.47090149,2022-12-16 15:27:55
Taco Bell,519 Cleveland Ave,,Attalla,AL,35954,US,34.01789856,-86.07830048,2022-12-16 15:27:54
Taco Bell,579 E. Meighan Boulevard,,Gadsden,AL,35903,US,34.00780106,-85.98390198,2022-12-16 15:27:54
Taco Bell,206 Haynes St.,,Talladega,AL,35160,US,33.43930054,-86.08239746,2022-12-18 06:25:11
Taco Bell,3221 Hwy 431,,Roanoke,AL,36274,US,33.1507988,-85.35990143,2022-12-16 15:27:55
Taco Bell,504 Hamric Dr E,,Oxford,AL,36203,US,33.60829926,-85.83010101,2022-12-18 06:25:22
Taco Bell,882 Georgia Highway 100 S,Pilot Travel Center,Tallapoosa,GA,30176,US,33.68259811,-85.26309967,2022-12-16 15:27:55
Taco Bell,155 U.S. Highway 27 Bypass,,Bremen,GA,30110,US,33.69390106,-85.15299988,2022-12-16 15:27:54
Taco Bell,246 Banks Crossing,,Fayetteville,GA,30214,US,33.46849823,-84.44730377,2022-12-18 06:25:18
Taco Bell,7910 Senoia Road,,Fairburn,GA,30213,US,33.53979874,-84.57659912,2022-12-18 06:25:20
Taco Bell,4661 Jonesboro Rd,,Union City,GA,30291,US,33.56919861,-84.54060364,2022-12-18 06:25:18
Taco Bell,6865 Hwy 85,,Riverdale,GA,30274,US,33.56740189,-84.41329956,2022-12-18 06:25:18
Taco Bell,5119 Old National Highway,,College Park,GA,30349,US,33.6155014,-84.47290039,2022-12-18 06:25:18
Taco Bell,8127 Tara Blvd,,Jonesboro,GA,30236,US,33.53269958,-84.36460114,2022-12-18 06:25:18
Taco Bell,1140 Crosstown Ct,,Peachtree City,GA,30269,US,33.37480164,-84.56340027,2022-12-18 06:25:20
Taco Bell,4465 Jonesboro,,Forest Park,GA,30297,US,33.63270187,-84.35790253,2022-12-18 06:25:18
Taco Bell,1170 Columbia Drive,,Decatur,GA,30032,US,33.75460052,-84.26709747,2022-12-18 06:25:11
Taco Bell,2436 Wesley Chapel Rd,,Decatur,GA,30035,US,33.71689987,-84.21499634,2022-12-18 06:25:19
Taco Bell,3644 Flat Shoals Road,,Decatur,GA,30034,US,33.70149994,-84.2684021,2022-12-18 06:25:18
Taco Bell,5201 Memorial Drive,,Stone Mountain,GA,30083,US,33.79629898,-84.22450256,2022-12-18 06:25:09
Taco Bell,5385 Fairington Rd.,,Lithonia,GA,30038,US,33.7010994,-84.17019653,2022-12-18 06:25:18
Taco Bell,2420 N Druid Hills Rd NE,,Atlanta,GA,30329,US,33.82690048,-84.32569885,2022-12-18 06:25:09
Taco Bell,429 Ponce De Leon Ave,,Atlanta,GA,30308,US,33.77280045,-84.3730011,2022-12-18 06:25:11
Taco Bell,4295 Lawrenceville Highway,,Tucker,GA,30084,US,33.85509872,-84.20929718,2022-12-18 06:25:09
Taco Bell,3385 Buford Hwy,,Atlanta,GA,30329,US,33.84360123,-84.32779694,2022-12-18 06:25:09
Taco Bell,930 Spring Street,,Atlanta,GA,30309,US,33.78020096,-84.38909912,2022-12-18 06:25:19
Taco Bell,3032 Anvil Block Road,,Ellenwood,GA,30294,US,33.63430023,-84.29029846,2022-12-18 06:25:18
Taco Bell,232 Fairview Road,,Ellenwood,GA,30294,US,33.61909866,-84.24340057,2022-12-18 06:25:19
Taco Bell,5160 Hwy 78,,Stone Mountain,GA,30087,US,33.82400131,-84.10780334,2022-12-18 06:25:09
Taco Bell,8056 Mall Parkway,,Lithonia,GA,30038,US,33.69380188,-84.09619904,2022-12-18 06:25:18
Taco Bell,1746 Military St S,,Hamilton,AL,35570,US,34.11869812,-87.9897995,2022-12-16 15:27:52
Taco Bell,2463 US Highway 43,,Winfield,AL,35594,US,33.93690109,-87.83860016,2022-12-18 06:25:19
Taco Bell,11880 AL Highway 157,,Moulton,AL,35650,US,34.48770142,-87.27570343,2022-12-18 06:25:18
Taco Bell,13831 U.S. 43,,Russellville,AL,35653,US,34.49499893,-87.72589874,2022-12-18 06:25:19
Taco Bell,2100 Woodward Ave,,Muscle Shoals,AL,35661,US,34.74150085,-87.66799927,2022-12-16 15:27:52
Taco Bell,16391 Hwy 72,,Rogersville,AL,35652,US,34.82400131,-87.29190063,2022-12-16 15:27:41
Taco Bell,702 Main St NE,,Hanceville,AL,35077,US,34.0705986,-86.77570343,2022-12-18 06:25:18
Taco Bell,1746 2nd Avenue SW,,Cullman,AL,35055,US,34.15719986,-86.83390045,2022-12-18 06:25:18
Taco Bell,5961 AL Highway 157,,Cullman,AL,35057,US,34.20679855,-86.87470245,2022-12-18 06:25:18
Taco Bell,319 Cane Creek Rd,,Warrior,AL,35180,US,33.81159973,-86.82330322,2022-12-16 15:27:54
Taco Bell,610 Highway 78 E,,Sumiton,AL,35148,US,33.74539948,-87.04180145,2022-12-18 06:25:20
Taco Bell,11300 Memorial Pkwy SW,,Huntsville,AL,35803,US,34.62310028,-86.56600189,2022-12-18 06:25:20
Taco Bell,308 County Park Rd,,Scottsboro,AL,35768,US,34.64860153,-86.03350067,2022-12-18 06:25:20
Taco Bell,2150 Winchester Road,,Huntsville,AL,35811,US,34.81679916,-86.49340057,2022-12-18 06:25:17
Taco Bell,6706 US Highway 431,,Owens Cross Roads,AL,35763,US,34.6576004,-86.48310089,2022-12-18 06:25:20
Taco Bell,1638 Hwy 72 E,,Huntsville,AL,35811,US,34.77299881,-86.53469849,2022-12-18 06:25:20
Taco Bell,2015 Whitesburg Dr. S,,Huntsville,AL,35801,US,34.71920013,-86.57839966,2022-12-18 06:25:20
Taco Bell,12276 U.S. Highway 231,,Meridianville,AL,35759,US,34.87039948,-86.57080078,2022-12-18 06:25:17
Taco Bell,14650 Hwy 231/431 N,,Hazel Green,AL,35750,US,34.94660187,-86.57039642,2022-12-18 06:25:17
Taco Bell,5692 Highway 278 East,,Hokes Bluff,AL,35903,US,33.98609924,-85.86660004,2022-12-16 15:27:54
Taco Bell,1545 Chestnut Bypass,,Centre,AL,35960,US,34.15950012,-85.70459747,2022-12-16 15:27:52
Taco Bell,610 Glenn Blvd SW,,Fort Payne,AL,35967,US,34.43600082,-85.73950195,2022-12-16 15:27:38
Taco Bell,902 N Main St,,La Fayette,GA,30728,US,34.72090149,-85.27980042,2022-12-18 06:54:30
Taco Bell,2220 Shorter Ave. NW.,,Rome,GA,30165,US,34.27199936,-85.229599,2022-12-18 06:25:18
Taco Bell,2837 Martha Berry Highway NW,,Rome,GA,30165,US,34.30450058,-85.17510223,2022-12-18 06:25:18
Taco Bell,130 Felton Drive,,Rockmart,GA,30153,US,34.01089859,-85.04139709,2022-12-18 06:25:16
Taco Bell,981 Cassville White Road,Travel Centers of America,Cartersville,GA,30121,US,34.27330017,-84.80740356,2022-12-16 15:27:55
Taco Bell,5 Charley Harper Drive,,Cartersville,GA,30120,US,34.15370178,-84.82080078,2022-12-18 06:25:21
Taco Bell,220 Lakepoint Parkway,,Emerson,GA,30121,US,34.12020111,-84.74240112,2022-12-18 06:25:21
Taco Bell,5475 Appalachian Hwy,,Blue Ridge,GA,30513,US,34.8771019,-84.30010223,2022-12-16 15:27:55
Taco Bell,80 W Duval Mine Rd,,Green Valley,AZ,85614,US,31.90570068,-110.98799896,2022-12-18 06:25:21
Taco Bell,735 W. Sahuarita Road,,Sahuarita,AZ,85629,US,31.95730019,-110.98100281,2022-12-18 06:25:21
Taco Bell,3920 East Fry Blvd,,Sierra Vista,AZ,85635,US,31.55389977,-110.25800323,2022-12-18 06:25:21
Taco Bell,650 South Highway 90,,Benson,AZ,85602,US,31.96179962,-110.34600067,2022-12-18 06:25:17
Taco Bell,10754 S. Commercial Centre Loop,,Yuma,AZ,85365,US,32.67279816,-114.44300079,2022-12-16 15:27:48
Taco Bell,750 E. 32nd St.,,Yuma,AZ,85365,US,32.66970062,-114.61299896,2022-12-18 06:25:21
Taco Bell,820 West Pima,,Gila Bend,AZ,85337,US,32.94409943,-112.73300171,2022-12-16 15:27:54
Taco Bell,20980 N John Wayne Pkwy,,Maricopa,AZ,85139,US,33.07030106,-112.04599762,2022-12-18 06:25:15
Taco Bell,8084 North Cortaro Road,,Tucson,AZ,85743,US,32.35369873,-111.09400177,2022-12-18 06:25:14
Taco Bell,7140 N. Thornydale Rd.,,Tucson,AZ,85741,US,32.33639908,-111.04599762,2022-12-18 06:25:14
Taco Bell,2150 W. River Rd.,,Tucson,AZ,85741,US,32.30630112,-111.01300049,2022-12-18 06:25:14
Taco Bell,1729 E Florence Blvd,,Casa Grande,AZ,85122,US,32.87929916,-111.71299744,2022-12-16 15:27:53
Taco Bell,1720 W. Speedway Blvd,,Tucson,AZ,85745,US,32.23590088,-111.00299835,2022-12-18 06:25:14
Taco Bell,1620 W Valencia Rd,,Tucson,AZ,85746,US,32.13399887,-111.00099945,2022-12-18 06:25:18
Taco Bell,1210 W. Irvington Rd,,Tucson,AZ,85714,US,32.1637001,-110.98999786,2022-12-18 06:25:14
Taco Bell,7915 N Oracle Rd,,Tucson,AZ,85704,US,32.3504982,-110.97599792,2022-12-18 06:25:14
Taco Bell,495 E. Wetmore Rd.,,Tucson,AZ,85705,US,32.28680038,-110.96399689,2022-12-18 06:25:12
Taco Bell,1054 E Tucson Marketplace Blvd,,Tucson,AZ,85713,US,32.18759918,-110.95600128,2022-12-18 06:25:12
Taco Bell,10815 N Oracle Rd,,Oro Valley,AZ,85737,US,32.40179825,-110.95400238,2022-12-18 06:25:14
Taco Bell,1505 N. Arizona Boulevard,,Coolidge,AZ,85128,US,32.99620056,-111.52400208,2022-12-18 06:25:19
Taco Bell,5570 East Travel Plaza Way,,Tucson,AZ,85756,US,32.12630081,-110.875,2022-12-18 06:25:12
Taco Bell,8578 East Broadway Blvd,,Tucson,AZ,85710,US,32.22069931,-110.80899811,2022-12-18 06:25:12
Taco Bell,9410 E. Golf Links Rd.,,Tucson,AZ,85730,US,32.1916008,-110.79199982,2022-12-18 06:25:12
Taco Bell,6616 E Grant Rd,,Tucson,AZ,85715,US,32.24919891,-110.85099792,2022-12-18 06:25:12
Taco Bell,1111 S Wilmot Rd,,Tucson,AZ,85711,US,32.20759964,-110.85800171,2022-12-18 06:25:12
Taco Bell,3930 East 22nd Street,,Tucson,AZ,85711,US,32.20690155,-110.90899658,2022-12-18 06:25:12
Taco Bell,3455 E Grant Rd,,Tucson,AZ,85716,US,32.25080109,-110.91899872,2022-12-18 06:25:12
Taco Bell,1818 E. Speedway Blvd.,,Tucson,AZ,85719,US,32.2358017,-110.94499969,2022-12-18 06:25:12
Taco Bell,4951 S Campbell Ave,,Tucson,AZ,85706,US,32.16230011,-110.94300079,2022-12-18 06:25:12
Taco Bell,2267 W Highway 70,,Thatcher,AZ,85552,US,32.83929825,-109.73799896,2022-12-16 15:27:55
Taco Bell,528 E Wickenburg Way,,Wickenburg,AZ,85358,US,33.9695015,-112.72000122,2022-12-13 15:34:04
Taco Bell,129 West Riverside Drive,,Parker,AZ,85344,US,34.15520096,-114.27700043,2022-12-18 06:25:16
Taco Bell,1164 S Watson Rd,,Buckeye,AZ,85326,US,33.43590164,-112.55799866,2022-12-18 06:25:21
Taco Bell,17676 W Elliot Rd.,,Goodyear,AZ,85338,US,33.35639954,-112.43000031,2022-12-18 06:25:21
Taco Bell,1560 N. Verrado Way,,Buckeye,AZ,85396,US,33.4659996,-112.50499725,2022-12-18 06:25:21
Taco Bell,16950 Yuma Road,,Goodyear,AZ,85338,US,33.43629837,-112.4240036,2022-12-18 06:25:21
Taco Bell,1740 N. Pebble Creek PA,,Goodyear,AZ,85395,US,33.46630096,-112.39299774,2022-12-18 06:25:17
Taco Bell,6901 North Litchfield Road,,Glendale,AZ,85307,US,33.53609848,-112.35800171,2022-12-18 06:25:13
Taco Bell,251 North Litchfield Road,,Goodyear,AZ,85338,US,33.44919968,-112.35800171,2022-12-18 06:25:17
Taco Bell,1529 N Dysart Rd,,Avondale,AZ,85323,US,33.46009827,-112.34100342,2022-12-18 06:25:17
Taco Bell,13752 W. Waddell Road,,Surprise,AZ,85379,US,33.6094017,-112.35600281,2022-12-18 06:25:13
Taco Bell,9831 W. Happy Valley Rd.,,Peoria,AZ,85383,US,33.71049881,-112.26999664,2022-12-18 06:25:13
Taco Bell,6645 W. Happy Valley Rd.,,Glendale,AZ,85310,US,33.71120071,-112.20300293,2022-12-18 06:25:18
Taco Bell,6708 W. Deer Valley Road,,Glendale,AZ,85310,US,33.68209839,-112.20400238,2022-12-13 15:34:00
Taco Bell,9251 W Union Hills Dr,,Peoria,AZ,85382,US,33.65240097,-112.25700378,2022-12-18 06:25:11
Taco Bell,3626 W. Pinnacle Peak Rd.,,Glendale,AZ,85310,US,33.69850159,-112.13999939,2022-12-18 06:25:10
Taco Bell,34906 N Valley Parkway,,Phoenix,AZ,85086,US,33.80089951,-112.12999725,2022-12-18 06:25:18
Taco Bell,7714 West Bell Road,,Glendale,AZ,85308,US,33.63850021,-112.22599792,2022-12-18 06:25:10
Taco Bell,5705 W Bell Rd,,Glendale,AZ,85308,US,33.6385994,-112.18299866,2022-12-18 06:25:10
Taco Bell,4209 W Bell Rd,,Phoenix,AZ,85053,US,33.6391983,-112.15000153,2022-12-18 06:25:10
Taco Bell,13726 W Bell Rd,,Surprise,AZ,85374,US,33.6413002,-112.35399628,2022-12-18 06:25:13
Taco Bell,1909 West Deer Valley Rd,,Phoenix,AZ,85027,US,33.68370056,-112.09999847,2022-12-18 06:25:10
Taco Bell,3659 W. Anthem Way,,Anthem,AZ,85086,US,33.86619949,-112.13800049,2022-12-18 06:25:21
Taco Bell,3104 E. Chandler Heights Road,,Gilbert,AZ,85298,US,33.23419952,-111.72299957,2022-12-18 06:25:21
Taco Bell,4080 S Gilbert Rd.,,Chandler,AZ,85249,US,33.24710083,-111.79000092,2022-12-18 06:25:14
Taco Bell,2881 S. Market St.,,Gilbert,AZ,85296,US,33.29779816,-111.7460022,2022-12-18 06:25:14
Taco Bell,18510 E Rittenhouse Rd,,Queen Creek,AZ,85142,US,33.28310013,-111.68399811,2022-12-18 06:25:14
Taco Bell,4133 E. Williams Field Road,,Gilbert,AZ,85295,US,33.3064003,-111.7009964,2022-12-18 06:25:14
Taco Bell,1550 E Warner Rd.,,Gilbert,AZ,85296,US,33.33589935,-111.75700378,2022-12-18 06:25:14
Taco Bell,2930 South Alma School Road,,Chandler,AZ,85248,US,33.26300049,-111.86000061,2022-12-18 06:25:14
Taco Bell,885 West Warner Road,,Gilbert,AZ,85233,US,33.33480072,-111.80899811,2022-12-18 06:25:09
Taco Bell,21222 E Rittenhouse Rd,,Queen Creek,AZ,85142,US,33.24689865,-111.625,2022-12-18 06:25:14
Taco Bell,2030 North Alma School Rd,,Chandler,AZ,85224,US,33.33530045,-111.86000061,2022-12-18 06:25:09
Taco Bell,3601 East Baseline Road,,Gilbert,AZ,85234,US,33.3783989,-111.7539978,2022-12-18 06:25:14
Taco Bell,2160 Baseline Rd,,Mesa,AZ,85204,US,33.37919998,-111.78600311,2022-12-18 06:25:09
Taco Bell,2760 South Alma School,,Mesa,AZ,85210,US,33.36449814,-111.86100006,2022-12-18 06:25:09
Taco Bell,9315 E Baseline Road,,Mesa,AZ,85209,US,33.37889862,-111.63400269,2022-12-18 06:25:14
Taco Bell,1801 East Guadalupe,,Tempe,AZ,85283,US,33.36339951,-111.91000366,2022-12-18 06:25:09
Taco Bell,97 West Apache Trail,,Apache Junction,AZ,85120,US,33.4131012,-111.54699707,2022-12-18 06:25:21
Taco Bell,2028 North Power Road,,Mesa,AZ,85215,US,33.4530983,-111.68399811,2022-12-18 06:25:14
Taco Bell,4529 West Highway 60,,Claypool,AZ,85532,US,33.41329956,-110.83799744,2022-12-18 06:25:16
Taco Bell,6742 E MAIN ST,,Mesa,AZ,85205,US,33.41590118,-111.68599701,2022-12-18 06:25:14
Taco Bell,1148 N Higley Rd,,Mesa,AZ,85205,US,33.4355011,-111.71900177,2022-12-18 06:25:14
Taco Bell,6111 E Southern Ave,,Mesa,AZ,85206,US,33.39369965,-111.6989975,2022-12-18 06:25:14
Taco Bell,4444 East Main Street,,Mesa,AZ,85205,US,33.41590118,-111.73400116,2022-12-18 06:25:14
Taco Bell,1700 E Ash St,,Globe,AZ,85501,US,33.39179993,-110.76499939,2022-12-18 06:25:16
Taco Bell,558 N Pinal Parkway,,Florence,AZ,85132,US,33.03710175,-111.37999725,2022-12-18 06:25:19
Taco Bell,127 W White Mountain Blvd,,Lakeside,AZ,85929,US,34.14279938,-109.95600128,2022-12-18 06:25:21
Taco Bell,4425 S White Mountain Road,,Show Low,AZ,85901,US,34.21020126,-110.02400208,2022-12-18 06:25:21
Taco Bell,44 N Lake Havasu Ave,,Lake Havasu City,AZ,86403,US,34.47499847,-114.34500122,2022-12-18 06:25:21
Taco Bell,1147 N Hwy 89,,Chino Valley,AZ,86323,US,34.76179886,-112.45300293,2022-12-16 15:27:53
Taco Bell,847 Miller Valley Road,,Prescott,AZ,86301,US,34.55699921,-112.48200226,2022-12-16 15:27:51
Taco Bell,3188 Willow Creek Road,,Prescott,AZ,86305,US,34.60210037,-112.45700073,2022-12-16 15:27:51
Taco Bell,3350 E Andy Devine,,Kingman,AZ,86401,US,35.22159958,-114.0059967,2022-12-18 06:25:19
Taco Bell,3220 Stockton Hill Rd,,Kingman,AZ,86409,US,35.21989822,-114.03600311,2022-12-18 06:25:19
Taco Bell,7820 E State Route 69,,Prescott Valley,AZ,86314,US,34.58610153,-112.32900238,2022-12-16 15:27:51
Taco Bell,2140 E State Route 89-A,,Cottonwood,AZ,86326,US,34.72180176,-112.0019989,2022-12-16 15:27:55
Taco Bell,1602 W Highway 260,,Camp Verde,AZ,86322,US,34.57450104,-111.88200378,2022-12-18 06:25:09
Taco Bell,110 Highway 260,,Payson,AZ,85541,US,34.24089813,-111.3219986,2022-12-16 15:27:55
Taco Bell,1605 No Park Drive,,Winslow,AZ,86047,US,35.03710175,-110.69799805,2022-12-16 15:27:51
Taco Bell,1801 E Butler Ave,,Flagstaff,AZ,86001,US,35.19120026,-111.62999725,2022-12-18 06:25:21
Taco Bell,3460 E Route 66,,Flagstaff,AZ,86004,US,35.21429825,-111.59899902,2022-12-18 06:25:21
Taco Bell,1255 S Milton Rd,,Flagstaff,AZ,86001,US,35.18830109,-111.66200256,2022-12-18 06:25:21
Taco Bell,716 N. Main Street,,Taylor,AZ,85939,US,34.47539902,-110.08699799,2022-12-18 06:25:21
Taco Bell,1606 Navajo Blvd,,Holbrook,AZ,86025,US,34.91870117,-110.15100098,2022-12-16 15:27:55
Taco Bell,800 N. Grand Canyon Boulevard,,Williams,AZ,86046,US,35.25740051,-112.19200134,2022-12-16 15:27:45
Taco Bell,1014 Main Street,,Tuba City,AZ,86045,US,36.12990189,-111.23999786,2022-12-18 06:25:21
Taco Bell,State Highway 264 & IR 12,,Window Rock,AZ,86515,US,35.6637001,-109.05599976,2022-12-16 15:27:55
Taco Bell,450 N Sandhill Blvd,,Mesquite,NV,89027,US,36.81140137,-114.06300354,2022-12-16 15:27:53
Taco Bell,2725 Red Cliffs Dr,,Saint George,UT,84790,US,37.12630081,-113.52799988,2022-12-18 06:54:30
Taco Bell,610 East St George Blvd,,Saint George,UT,84770,US,37.10979843,-113.56999969,2022-12-18 06:54:30
Taco Bell,1418 West Sunset Blvd,,Saint George,UT,84770,US,37.12329865,-113.61399841,2022-12-18 06:54:30
Taco Bell,1010 Haul Road,,Page,AZ,86040,US,36.90570068,-111.48600006,2022-12-16 15:27:55
Taco Bell,Hwy 160,,Kayenta,AZ,86033,US,36.70769882,-110.25099945,2022-12-16 15:27:53
Taco Bell,Hwy 491,,Shiprock,NM,87420,US,36.77640152,-108.6969986,2022-12-18 06:25:19
Taco Bell,601 Highway 59 North,,Atlanta,TX,75551,US,33.12620163,-94.1785965,2022-12-16 15:27:52
Taco Bell,1609 New Boston Rd,,Texarkana,TX,75501,US,33.43489838,-94.06020355,2022-12-18 06:25:19
Taco Bell,5021 N. Stateline Road,,Texarkana,TX,75503,US,33.46620178,-94.04350281,2022-12-18 06:25:19
Taco Bell,1501 N Hervey St,,Hope,AR,71801,US,33.68000031,-93.60479736,2022-12-18 06:25:21
Taco Bell,1521 E. Main,,Magnolia,AR,71753,US,33.26520157,-93.21869659,2022-12-16 15:27:38
Taco Bell,1320 Highway 278 Byp,,Camden,AR,71701,US,33.57350159,-92.8553009,2022-12-18 06:25:21
Taco Bell,3126 Pine Street,,Arkadelphia,AR,71923,US,34.11809921,-93.09660339,2022-12-18 06:25:17
Taco Bell,1600 West Hillsboro Street,,El Dorado,AR,71730,US,33.207901,-92.68319702,2022-12-18 06:25:21
Taco Bell,2700 N. West Avenue,,El Dorado,AR,71730,US,33.23949814,-92.66590118,2022-12-18 06:25:21
Taco Bell,435 Highway 425 North,,Monticello,AR,71655,US,33.63700104,-91.80190277,2022-12-16 15:27:40
Taco Bell,109 West First Avenue,,Crossett,AR,71635,US,33.1352005,-91.96269989,2022-12-18 07:39:43
Taco Bell,1816 East Madison Street,,Bastrop,LA,71220,US,32.77880096,-91.89209747,2022-12-18 06:25:16
Taco Bell,1716 Dr Martin Luther King Jr Blvd,,Greenville,MS,38701,US,33.37129974,-91.03939819,2022-12-16 15:27:52
Taco Bell,1014 Highway 82,,Indianola,MS,38751,US,33.45769882,-90.63680267,2022-12-18 06:25:20
Taco Bell,1554 Jerry Clower Blvd,,Yazoo City,MS,39194,US,32.86489868,-90.39350128,2022-12-16 15:27:50
Taco Bell,44 Veterans Memorial Drive,,Kosciusko,MS,39090,US,33.06290054,-89.57579803,2022-12-18 06:25:15
Taco Bell,118 Soldier Colony Rd,,Canton,MS,39046,US,32.60039902,-90.06839752,2022-12-18 06:25:21
Taco Bell,403 S.W. Frontage Road,,Winona,MS,38967,US,33.48540115,-89.77010345,2022-12-18 06:25:20
Taco Bell,207 Highway 12 West,,Starkville,MS,39759,US,33.4538002,-88.81980133,2022-12-18 06:25:20
Taco Bell,1302 S. 4th Street,,Nashville,AR,71852,US,33.93180084,-93.8513031,2022-12-18 06:25:21
Taco Bell,1100 Albert Pike,,Hot Springs,AR,71913,US,34.49399948,-93.08100128,2022-12-18 06:25:19
Taco Bell,4016 Central Ave,,Hot Springs,AR,71913,US,34.4557991,-93.06400299,2022-12-18 06:25:19
Taco Bell,141 E Grand Avenue,,Hot Springs,AR,71901,US,34.50320053,-93.04920197,2022-12-18 06:25:19
Taco Bell,121 Valley Rd,,Arkadelphia,AR,71923,US,34.17990112,-93.07119751,2022-12-18 06:25:17
Taco Bell,"1601 Hwy 270, Ste #219",,Malvern,AR,72104,US,34.38349915,-92.82810211,2022-12-16 15:27:55
Taco Bell,1704 Military Rd,,Benton,AR,72015,US,34.58039856,-92.57379913,2022-12-18 06:25:21
Taco Bell,2211 N Reynolds Rd,,Bryant,AR,72022,US,34.61539841,-92.498703,2022-12-18 06:25:18
Taco Bell,901 E Broadway,,North Little Rock,AR,72114,US,34.75619888,-92.25789642,2022-12-18 06:25:09
Taco Bell,719 South Broadway,,Little Rock,AR,72201,US,34.74219894,-92.27619934,2022-12-18 06:25:09
Taco Bell,3900 McCain Blvd,,North Little Rock,AR,72116,US,34.79109955,-92.22930145,2022-12-18 06:25:09
Taco Bell,2531 Highway 161,,North Little Rock,AR,72117,US,34.77730179,-92.20200348,2022-12-18 06:25:09
Taco Bell,4424 Markham Road,,Little Rock,AR,72205,US,34.75189972,-92.3227005,2022-12-18 06:25:09
Taco Bell,7201 JFK Blvd,,Sherwood,AR,72120,US,34.8205986,-92.23310089,2022-12-18 06:25:09
Taco Bell,6233 Colonel Glenn Rd,,Little Rock,AR,72204,US,34.7173996,-92.34420013,2022-12-18 06:25:09
Taco Bell,9053 Highway 107,,Sherwood,AR,72120,US,34.83890152,-92.23690033,2022-12-18 06:25:09
Taco Bell,8350 Warden Road,,Sherwood,AR,72120,US,34.83039856,-92.18309784,2022-12-18 06:25:09
Taco Bell,1300 John Barrow Rd,,Little Rock,AR,72205,US,34.74110031,-92.37270355,2022-12-18 06:25:09
Taco Bell,8108 Geyer Springs Rd,,Little Rock,AR,72209,US,34.67610168,-92.34420013,2022-12-18 06:25:09
Taco Bell,9600 N Rodney Parham Rd,,Little Rock,AR,72227,US,34.76070023,-92.38040161,2022-12-18 06:25:09
Taco Bell,600 South Bowman Road,,Little Rock,AR,72211,US,34.74879837,-92.40779877,2022-12-18 06:25:18
Taco Bell,11525 Maumelle Blvd,,North Little Rock,AR,72113,US,34.82720184,-92.38809967,2022-12-18 06:25:09
Taco Bell,1809 N 1st St,,Jacksonville,AR,72076,US,34.8832016,-92.1088028,2022-12-18 06:25:09
Taco Bell,3501 Camden Rd,,Pine Bluff,AR,71603,US,34.19409943,-92.05860138,2022-12-18 06:25:20
Taco Bell,2712 Olive St,,Pine Bluff,AR,71601,US,34.20159912,-92.00740051,2022-12-18 06:25:20
Taco Bell,8011 Sheridan Road,,White Hall,AR,71602,US,34.26050186,-92.10119629,2022-12-18 06:25:20
Taco Bell,512 W. 22nd Street,,Stuttgart,AR,72160,US,34.47969818,-91.55819702,2022-12-16 15:27:38
Taco Bell,2007 North Main,,Brinkley,AR,72021,US,34.91189957,-91.19609833,2022-12-16 15:27:38
Taco Bell,761 North Sebastian Street,,West Helena,AR,72390,US,34.55410004,-90.65470123,2022-12-18 06:25:22
Taco Bell,2650 McIngvale Rd.,,Hernando,MS,38632,US,34.82170105,-89.97170258,2022-12-18 06:25:22
Taco Bell,3910 Goodman Road West,,Horn Lake,MS,38637,US,34.96289825,-90.05889893,2022-12-18 06:25:18
Taco Bell,209 Norfleet Dr,,Senatobia,MS,38668,US,34.62459946,-89.95359802,2022-12-16 15:27:54
Taco Bell,580 Church Rd.,,Southaven,MS,38671,US,34.93399811,-89.99990082,2022-12-18 06:25:18
Taco Bell,999 Goodman Road,,Horn Lake,MS,38637,US,34.96239853,-90.00830078,2022-12-18 06:25:18
Taco Bell,1117 Main St,,Southaven,MS,38671,US,34.99160004,-90.01010132,2022-12-18 06:25:18
Taco Bell,1651 Sunset Drive,,Grenada,MS,38901,US,33.78350067,-89.83409882,2022-12-18 06:25:14
Taco Bell,705 Highway 6 East,,Batesville,MS,38606,US,34.31029892,-89.92949677,2022-12-16 15:27:52
Taco Bell,1726 University Ave,,Oxford,MS,38655,US,34.36259842,-89.5114975,2022-12-16 15:27:48
Taco Bell,620 Highway 7,,Holly Springs,MS,38635,US,34.75370026,-89.45310211,2022-12-16 15:27:51
Taco Bell,497 City Avenue,,Ripley,MS,38663,US,34.72809982,-88.94589996,2022-12-16 15:27:55
Taco Bell,711 E. Main,,Booneville,AR,72927,US,35.14080048,-93.91200256,2022-12-18 06:25:21
Taco Bell,820 West Center,,Greenwood,AR,72936,US,35.21680069,-94.2696991,2022-12-18 06:25:17
Taco Bell,1409 East Walnut,,Paris,AR,72855,US,35.292099,-93.71690369,2022-12-16 15:27:52
Taco Bell,1105 South Rogers,,Clarksville,AR,72830,US,35.46039963,-93.459198,2022-12-16 15:27:47
Taco Bell,14211 Highway 412,,Huntsville,AR,72740,US,36.1128006,-93.70980072,2022-12-16 15:27:52
Taco Bell,618 Union St,,Dardanelle,AR,72834,US,35.22140121,-93.1651001,2022-12-18 06:25:18
Taco Bell,98 Medical Services Drive,,Morrilton,AR,72110,US,35.16989899,-92.71849823,2022-12-18 06:25:21
Taco Bell,1014 Highway 65 Bus,,Clinton,AR,72031,US,35.59960175,-92.46219635,2022-12-16 15:27:38
Taco Bell,1623 Highway 25B,,Heber Springs,AR,72543,US,35.50870132,-92.02899933,2022-12-18 06:25:16
Taco Bell,1430 W Locust,,Cabot,AR,72023,US,34.97940063,-92.03040314,2022-12-18 06:25:20
Taco Bell,1957 W Dewitt Henry Dr,,Beebe,AR,72012,US,35.06949997,-91.90720367,2022-12-16 15:27:52
Taco Bell,2000 John Harden Drive,,Jacksonville,AR,72076,US,34.88529968,-92.11250305,2022-12-18 06:25:09
Taco Bell,2513 W Beebe Capps Expy,,Searcy,AR,72143,US,35.24100113,-91.72160339,2022-12-16 15:27:39
Taco Bell,3307 E Race,,Searcy,AR,72143,US,35.25,-91.69200134,2022-12-16 15:27:39
Taco Bell,118-132 US-167,,Bald Knob,AR,72010,US,35.32389832,-91.5617981,2022-12-16 15:27:39
Taco Bell,301 Highway 67 N,,Newport,AR,72112,US,35.60820007,-91.25229645,2022-12-18 06:25:15
Taco Bell,1102 S Saint Louis St,,Batesville,AR,72501,US,35.7682991,-91.6411972,2022-12-18 07:39:43
Taco Bell,2055 N Washington,,Forrest City,AR,72335,US,35.02949905,-90.7901001,2022-12-18 06:25:18
Taco Bell,4330 Elvis Presley Blvd,,Memphis,TN,38116,US,35.03079987,-90.02469635,2022-12-18 06:25:18
Taco Bell,3490 Elvis Presley Blvd,,Memphis,TN,38116,US,35.05350113,-90.02459717,2022-12-18 06:25:18
Taco Bell,3920 Goodman Rd,,Southaven,MS,38672,US,34.96300125,-89.92070007,2022-12-18 07:39:43
Taco Bell,3569 Democrat Rd,,Memphis,TN,38118,US,35.06819916,-89.94490051,2022-12-18 07:39:43
Taco Bell,2702 S Perkins Rd,,Memphis,TN,38118,US,35.07509995,-89.90579987,2022-12-18 07:39:43
Taco Bell,5320 Knight Arnold Rd,,Memphis,TN,38118,US,35.06230164,-89.88639832,2022-12-18 07:39:43
Taco Bell,7500 Commerce,,Olive Branch,MS,38654,US,34.96279907,-89.85559845,2022-12-18 07:39:43
Taco Bell,6210 Winchester Rd,,Memphis,TN,38115,US,35.05009842,-89.85649872,2022-12-18 07:39:43
Taco Bell,826 S Third,,Memphis,TN,38106,US,35.12490082,-90.05460358,2022-12-18 06:25:19
Taco Bell,3378 Poplar Ave,,Memphis,TN,38111,US,35.12919998,-89.94950104,2022-12-18 07:39:43
Taco Bell,911 Estate Dr,,Memphis,TN,38119,US,35.10689926,-89.88439941,2022-12-18 07:39:43
Taco Bell,1279 Ridgeway Rd.,,Memphis,TN,38119,US,35.09659958,-89.85910034,2022-12-18 07:39:43
Taco Bell,9821 US Hwy 64,,Arlington,TN,38002,US,35.20500183,-89.73400116,2022-12-18 07:39:43
Taco Bell,7571 US Highway 70,,Bartlett,TN,38133,US,35.22850037,-89.81040192,2022-12-18 06:25:18
Taco Bell,8033 Hwy 64,,Memphis,TN,38133,US,35.20429993,-89.7947998,2022-12-18 07:39:43
Taco Bell,4935 Airline Rd,,Arlington,TN,38002,US,35.26060104,-89.66449738,2022-12-18 06:25:18
Taco Bell,6720 Stage Rd,,Bartlett,TN,38134,US,35.20550156,-89.83930206,2022-12-18 07:39:43
Taco Bell,1205 N. Houston Levee Rd.,,Cordova,TN,38018,US,35.15829849,-89.72799683,2022-12-18 07:39:43
Taco Bell,1983 Whitten Road,,Memphis,TN,38133,US,35.17969894,-89.83660126,2022-12-18 07:39:43
Taco Bell,871 Germantown Pkwy,,Cordova,TN,38018,US,35.14889908,-89.79589844,2022-12-18 07:39:43
Taco Bell,1740 Sycamore View Road,,Memphis,TN,38134,US,35.17300034,-89.86889648,2022-12-18 07:39:43
Taco Bell,3045 Covington Pike,,Memphis,TN,38128,US,35.20869827,-89.89510345,2022-12-18 07:39:43
Taco Bell,4811 Navy Rd,,Millington,TN,38053,US,35.3409996,-89.90280151,2022-12-18 06:25:19
Taco Bell,4370 Summer Ave,,Memphis,TN,38122,US,35.14920044,-89.91500092,2022-12-18 07:39:43
Taco Bell,971 Highway 51 North,,Covington,TN,38019,US,35.58209991,-89.64160156,2022-12-18 06:25:17
Taco Bell,2575 Anderson Ave,,Brownsville,TN,38012,US,35.54119873,-89.24810028,2022-12-06 05:51:11
Taco Bell,846 Hwy 51 N,,Ripley,TN,38063,US,35.76459885,-89.54149628,2022-12-16 15:27:53
Taco Bell,918 S El Camino Real,,San Clemente,CA,92672,US,33.42179871,-117.60900116,2022-12-18 06:25:12
Taco Bell,100 B Ave,,Coronado,CA,92118,US,32.69779968,-117.16999817,2022-12-18 07:39:43
Taco Bell,3152 Midway Drive,,San Diego,CA,92110,US,32.75049973,-117.20800018,2022-12-18 07:39:43
Taco Bell,3195 Market St,,San Diego,CA,92102,US,32.71139908,-117.12599945,2022-12-18 07:39:43
Taco Bell,2626 El Cajon Blvd,,San Diego,CA,92104,US,32.75559998,-117.13600159,2022-12-18 07:39:43
Taco Bell,7049 Eastman Street,,San Diego,CA,92111,US,32.78929901,-117.16799927,2022-12-18 07:39:43
Taco Bell,2011 Camino Del Este,,San Diego,CA,92108,US,32.76959991,-117.14299774,2022-12-18 07:39:43
Taco Bell,4290 Clairemont Mesa Blvd,,San Diego,CA,92117,US,32.83280182,-117.2009964,2022-12-18 07:39:43
Taco Bell,9821 Aero Dr,,San Diego,CA,92123,US,32.80929947,-117.11699677,2022-12-18 07:39:43
Taco Bell,7180 Miramar Rd,,San Diego,CA,92121,US,32.8810997,-117.15799713,2022-12-18 07:39:43
Taco Bell,"Pless Rd, Bldg 8",,San Diego,CA,92145,US,32.87810135,-117.1309967,2022-11-29 13:08:21
Taco Bell,696 E St,,Chula Vista,CA,91910,US,32.64030075,-117.09700012,2022-12-18 06:25:09
Taco Bell,1090 Outer Rd,,San Diego,CA,92154,US,32.57690048,-117.08100128,2022-12-18 06:25:13
Taco Bell,632 Dennery Road,,San Diego,CA,92154,US,32.58229828,-117.03299713,2022-12-18 06:25:13
Taco Bell,340 East H Street,,Chula Vista,CA,91910,US,32.64110184,-117.0510025,2022-12-18 06:25:09
Taco Bell,1548 East H Street,,Chula Vista,CA,91913,US,32.64500046,-116.99700165,2022-12-18 06:25:09
Taco Bell,2506 Jamacha Rd,,El Cajon,CA,92019,US,32.74480057,-116.93000031,2022-12-18 06:54:30
Taco Bell,13418 Camino Canada,,El Cajon,CA,92021,US,32.82529831,-116.90299988,2022-12-18 06:54:30
Taco Bell,335 N Second St.,,El Cajon,CA,92021,US,32.79859924,-116.93499756,2022-12-18 06:54:30
Taco Bell,1561 N. Magnolia Ave.,,El Cajon,CA,92020,US,32.81999969,-116.96199799,2022-12-18 06:54:30
Taco Bell,12265 Woodside Ave,,Lakeside,CA,92040,US,32.85660172,-116.9260025,2022-12-18 06:54:30
Taco Bell,1925 Main Street Suite A,,Ramona,CA,92065,US,33.03340149,-116.88300323,2022-12-16 15:27:37
Taco Bell,2540 Rockwood Avenue,,Calexico,CA,92231,US,32.69739914,-115.49700165,2022-12-18 06:25:20
Taco Bell,350 Wake Ave.,,El Centro,CA,92243,US,32.77140045,-115.5510025,2022-12-18 06:25:20
Taco Bell,1990 N. Imperial Ave.,,El Centro,CA,92243,US,32.81069946,-115.56999969,2022-12-18 06:25:20
Taco Bell,120 W. Main,,Brawley,CA,92227,US,32.97829819,-115.54199982,2022-12-16 15:27:54
Taco Bell,2353 South Ave. B,,Yuma,AZ,85364,US,32.68500137,-114.65000153,2022-12-18 06:25:21
Taco Bell,1676 4th Avenue,,Yuma,AZ,85364,US,32.69720078,-114.625,2022-12-18 06:25:21
Taco Bell,1840 Cliff Dr,,Santa Barbara,CA,93109,US,34.40169907,-119.72200012,2022-12-18 07:39:43
Taco Bell,1045 Casitas Pass Road,,Carpinteria,CA,93013,US,34.39619827,-119.51300049,2022-12-18 06:25:22
Taco Bell,790 N Ventura,,Port Hueneme,CA,93041,US,34.15459824,-119.19499969,2022-12-18 06:25:11
Taco Bell,201 W Channel Islands Blvd,,Oxnard,CA,93033,US,34.17369843,-119.18000031,2022-12-18 06:25:11
Taco Bell,5589 Kanan Road,,Agoura Hills,CA,91301,US,34.15179825,-118.75900269,2022-12-18 06:25:17
Taco Bell,4955 Las Virgenes Rd,,Calabasas,CA,91302,US,34.14749908,-118.69799805,2022-12-18 06:25:10
Taco Bell,1031 S Gaffey St,,San Pedro,CA,90731,US,33.73460007,-118.29199982,2022-12-18 06:25:19
Taco Bell,204 N. Gaffey St.,,San Pedro,CA,90731,US,33.74430084,-118.29199982,2022-12-18 06:25:19
Taco Bell,26715 Western Ave.,,Lomita,CA,90717,US,33.77870178,-118.30999756,2022-12-18 06:25:19
Taco Bell,228 E Seventh,,Long Beach,CA,90813,US,33.77529907,-118.19000244,2022-12-18 06:25:16
Taco Bell,3125 E Broadway,,Long Beach,CA,90803,US,33.76480103,-118.15499878,2022-12-18 06:25:14
Taco Bell,640 Pacific Coast Hwy,,Seal Beach,CA,90740,US,33.74549866,-118.10500336,2022-12-18 06:25:14
Taco Bell,100 W Pacific Coast Hwy,,Wilmington,CA,90744,US,33.79100037,-118.26399994,2022-12-18 06:25:16
Taco Bell,921 West Sepulveda Blvd,,Torrance,CA,90502,US,33.81060028,-118.29100037,2022-12-18 06:25:12
Taco Bell,2545 Long Beach Blvd,,Long Beach,CA,90806,US,33.80369949,-118.19000244,2022-12-18 06:25:16
Taco Bell,2054 Lomita Blvd,,Lomita,CA,90717,US,33.80070114,-118.31600189,2022-12-18 06:25:12
Taco Bell,22235 So Main St,,Carson,CA,90745,US,33.82479858,-118.27600098,2022-12-18 06:25:12
Taco Bell,2840 Sepulveda Blvd,,Torrance,CA,90505,US,33.82329941,-118.33599854,2022-12-18 06:25:12
Taco Bell,2430 Carson St.,,Lakewood,CA,90712,US,33.8321991,-118.16300201,2022-12-18 06:25:16
Taco Bell,1354 W 190th St,,Torrance,CA,90501,US,33.85820007,-118.30200195,2022-12-18 06:25:12
Taco Bell,5395 Atlantic Ave,,Long Beach,CA,90805,US,33.85409927,-118.18499756,2022-12-18 06:25:16
Taco Bell,5125 Pacific Coast Hwy,,Torrance,CA,90505,US,33.81330109,-118.3690033,2022-12-18 06:25:12
Taco Bell,6407 Stearns Ave.,,Long Beach,CA,90815,US,33.79560089,-118.10800171,2022-12-18 07:39:43
Taco Bell,1301 W Artesia Blvd,,Gardena,CA,90247,US,33.87310028,-118.29599762,2022-12-18 06:25:12
Taco Bell,6730 Cherry Ave,,Long Beach,CA,90805,US,33.8771019,-118.16899872,2022-12-18 06:25:13
Taco Bell,16414 Crenshaw Blvd,,Torrance,CA,90504,US,33.88150024,-118.3259964,2022-12-18 06:25:12
Taco Bell,5850 Del Amo Blvd,,Lakewood,CA,90713,US,33.84690094,-118.11799622,2022-12-18 06:25:13
Taco Bell,16901 Hawthorne Blvd,,Lawndale,CA,90260,US,33.87730026,-118.35299683,2022-12-18 06:25:12
Taco Bell,17900 Bellflower Blvd,,Bellflower,CA,90706,US,33.86949921,-118.125,2022-12-18 06:25:13
Taco Bell,2201 Artesia Blvd,,Redondo Beach,CA,90278,US,33.8730011,-118.3730011,2022-12-18 06:25:12
Taco Bell,301 N Sepulveda Blvd,,Manhattan Beach,CA,90266,US,33.88159943,-118.39600372,2022-12-18 06:25:12
Taco Bell,34117 Pacific Coast Hwy,,Dana Point,CA,92629,US,33.4659996,-117.70400238,2022-12-18 06:25:12
Taco Bell,959 Avenida Pico,,San Clemente,CA,92673,US,33.45410156,-117.60600281,2022-12-18 06:25:12
Taco Bell,31771 Del Obispo,,San Juan Capistrano,CA,92675,US,33.50109863,-117.66000366,2022-12-18 06:25:12
Taco Bell,30022 Crown Valley Pkwy,,Laguna Niguel,CA,92677,US,33.5265007,-117.71099854,2022-12-18 06:25:12
Taco Bell,28532 Oso Parkway,,Rancho Santa Margarita,CA,92688,US,33.58369827,-117.63300323,2022-12-18 06:25:12
Taco Bell,26660 Encanto Dr,,Sun City,CA,92585,US,33.73379898,-117.18900299,2022-12-18 06:25:19
Taco Bell,13112 Poway Road,,Poway,CA,92064,US,32.95669937,-117.04699707,2022-12-18 06:54:30
Taco Bell,11688 Carmel Mtn Rd,,San Diego,CA,92128,US,32.97980118,-117.08000183,2022-12-18 06:54:30
Taco Bell,627 N. Escondido Blvd.,,Escondido,CA,92025,US,33.12689972,-117.08899689,2022-12-18 06:25:17
Taco Bell,8389 Mira Mesa Blvd,,San Diego,CA,92126,US,32.91249847,-117.14299774,2022-12-18 07:39:43
Taco Bell,1944 E Valley Pkwy,,Escondido,CA,92027,US,33.13729858,-117.0530014,2022-12-18 06:25:17
Taco Bell,78932 Highway 111,,La Quinta,CA,92253,US,33.71030045,-116.28900146,2022-12-18 06:25:14
Taco Bell,83-157 Avenue 48,,Coachella,CA,92236,US,33.70009995,-116.21399689,2022-12-18 06:25:14
Taco Bell,39335 Washington St.,,Palm Desert,CA,92211,US,33.76399994,-116.3010025,2022-12-18 06:25:14
Taco Bell,50060 Harrison St.,,Coachella,CA,92236,US,33.68429947,-116.18099976,2022-12-18 06:25:14
Taco Bell,42750 B Jackson St.,,Indio,CA,92203,US,33.73839951,-116.21499634,2022-12-18 06:25:14
Taco Bell,46155 Dillion Road,,Coachella,CA,92236,US,33.71350098,-116.17500305,2022-12-18 06:25:14
Taco Bell,31300 Bob Hope Dr.,,Cathedral City,CA,92234,US,33.82170105,-116.40599823,2022-12-18 06:25:21
Taco Bell,375 S Lovekin Blvd,,Blythe,CA,92225,US,33.6053009,-114.60600281,2022-12-16 15:27:53
Taco Bell,1500 W Grand Ave,,Grover Beach,CA,93433,US,35.12099838,-120.61299896,2022-12-18 06:25:19
Taco Bell,867 Oak Park Blvd,,Pismo Beach,CA,93449,US,35.13299942,-120.60600281,2022-12-18 06:25:17
Taco Bell,"3810 Broad Street, Suite 1",,San Luis Obispo,CA,93401,US,35.25,-120.64399719,2022-12-18 06:25:17
Taco Bell,397 Santa Rosa,,San Luis Obispo,CA,93401,US,35.28770065,-120.66500092,2022-12-18 06:25:17
Taco Bell,1548 North H Street,,Lompoc,CA,93436,US,34.6629982,-120.45700073,2022-12-16 15:27:52
Taco Bell,191 E Highway 246,,Buellton,CA,93427,US,34.61199951,-120.18900299,2022-12-16 15:27:53
Taco Bell,1106 E Clark,,Orcutt,CA,93455,US,34.8647995,-120.41799927,2022-12-18 06:25:20
Taco Bell,1515 S Bradley Rd,,Santa Maria,CA,93454,US,34.93399811,-120.41899872,2022-12-18 06:25:20
Taco Bell,1919 S Broadway,,Santa Maria,CA,93454,US,34.92610168,-120.43599701,2022-12-18 06:25:20
Taco Bell,1807 N. Broadway,,Santa Maria,CA,93455,US,34.97230148,-120.43599701,2022-12-18 06:25:20
Taco Bell,821 N Milpas Street,,Santa Barbara,CA,93103,US,34.42959976,-119.69000244,2022-12-18 07:39:43
Taco Bell,5980 Hollister Avenue,,Goleta,CA,93117,US,34.43629837,-119.83000183,2022-12-18 07:39:43
Taco Bell,140 N. Fairview,,Goleta,CA,93117,US,34.44219971,-119.83000183,2022-12-18 07:39:43
Taco Bell,5552 S. Wheeler Ridge Road,,Arvin,CA,93203,US,34.99229813,-118.94200134,2022-12-18 06:25:20
Taco Bell,791 N Wendy Dr,,Newbury Park,CA,91320,US,34.18920135,-118.94100189,2022-12-18 06:25:17
Taco Bell,25 Rancho Rd,,Thousand Oaks,CA,91360,US,34.17810059,-118.85800171,2022-12-18 06:25:17
Taco Bell,95 Daily Dr,,Camarillo,CA,93010,US,34.22180176,-119.06800079,2022-12-18 06:25:19
Taco Bell,1505 Flynn Rd,,Camarillo,CA,93012,US,34.22980118,-119.01699829,2022-12-18 06:25:17
Taco Bell,1928 E Avenida De Los Arboles,,Thousand Oaks,CA,91362,US,34.21099854,-118.84300232,2022-12-18 06:25:17
Taco Bell,559 W Channel Islands Blvd,,Port Hueneme,CA,93041,US,34.17620087,-119.21399689,2022-12-18 06:25:11
Taco Bell,1725 N Oxnard Blvd,,Oxnard,CA,93030,US,34.21780014,-119.1780014,2022-12-18 06:25:11
Taco Bell,900 N Ventura Rd,,Oxnard,CA,93030,US,34.21039963,-119.19400024,2022-12-18 06:25:11
Taco Bell,2800 Johnson Drive,,Ventura,CA,93003,US,34.24919891,-119.19599915,2022-12-18 06:25:11
Taco Bell,8220 De Soto Ave,,Canoga Park,CA,91304,US,34.21879959,-118.58799744,2022-12-18 07:39:43
Taco Bell,6303 Platt Ave,,Woodland Hills,CA,91367,US,34.18579865,-118.64299774,2022-12-18 07:39:43
Taco Bell,7545 Fallbrook Ave,,Canoga Park,CA,91307,US,34.20800018,-118.62400055,2022-12-18 07:39:43
Taco Bell,125 W Los Angeles Ave,,Moorpark,CA,93021,US,34.27920151,-118.88400269,2022-12-18 06:25:17
Taco Bell,6921 Topanga Canyon Blvd.,,Canoga Park,CA,91303,US,34.19630051,-118.60600281,2022-12-18 07:39:43
Taco Bell,23275 Mulholland Drive,,Woodland Hills,CA,91364,US,34.15579987,-118.63300323,2022-12-18 07:39:43
Taco Bell,24541 Copper Hill Drive,,Valencia,CA,91354,US,34.45389938,-118.56600189,2022-12-18 06:25:21
Taco Bell,31824 The Old Rd,,Castaic,CA,91384,US,34.4958992,-118.625,2022-12-18 06:25:21
Taco Bell,2547 Rosamond Blvd,,Rosamond,CA,93560,US,34.86429977,-118.1780014,2022-12-18 06:25:21
Taco Bell,13008 Whittier Blvd,,Whittier,CA,90602,US,33.9654007,-118.03700256,2022-12-18 06:25:13
Taco Bell,10722 E Whittier Blvd,,Whittier,CA,90606,US,33.99000168,-118.06400299,2022-12-18 06:25:13
Taco Bell,9180 Whittier Blvd,,Pico Rivera,CA,90660,US,34.00009918,-118.08200073,2022-12-18 06:25:13
Taco Bell,1300 W Whittier Blvd,,La Habra,CA,90631,US,33.93909836,-117.96099854,2022-12-18 06:25:13
Taco Bell,11007 Garvey Ave,,El Monte,CA,91733,US,34.06299973,-118.03500366,2022-12-18 07:39:43
Taco Bell,3120 Baldwin Park Blvd,,Baldwin Park,CA,91706,US,34.06940079,-117.98000336,2022-12-18 07:39:43
Taco Bell,10551 Carmenita Rd,,Santa Fe Springs,CA,90670,US,33.93889999,-118.04699707,2022-12-18 06:25:13
Taco Bell,14950 Leffingwell Rd,,La Mirada,CA,90638,US,33.92660141,-118.01200104,2022-12-18 06:25:13
Taco Bell,3858 North Peck Rd,,El Monte,CA,91732,US,34.07569885,-118.02200317,2022-12-18 07:39:43
Taco Bell,13410 Rosecrans Ave,,Norwalk,CA,90650,US,33.90230179,-118.04599762,2022-12-18 06:25:13
Taco Bell,15006 La Mirada Blvd.,,La Mirada,CA,90638,US,33.89509964,-118.00900269,2022-12-18 06:25:13
Taco Bell,9551 Lakewood Blvd,,Downey,CA,90240,US,33.95349884,-118.11399841,2022-12-18 06:25:13
Taco Bell,1518 S San Gabriel,,San Gabriel,CA,91776,US,34.08119965,-118.09100342,2022-12-18 07:39:43
Taco Bell,303 West Imperial Highway,,Brea,CA,92821,US,33.91759872,-117.90200043,2022-12-18 06:25:13
Taco Bell,11005 Imperial Highway,,Norwalk,CA,90650,US,33.91740036,-118.09899902,2022-12-18 06:25:13
Taco Bell,14301 Pioneer,,Norwalk,CA,90650,US,33.90190125,-118.08300018,2022-12-18 06:25:13
Taco Bell,12503 E Alondra Blvd,,Norwalk,CA,90650,US,33.88790131,-118.06600189,2022-12-18 06:25:13
Taco Bell,1889 West Malvern Ave.,,Fullerton,CA,92833,US,33.87760162,-117.96099854,2022-12-18 07:39:43
Taco Bell,6001 Beach Blvd.,,Buena Park,CA,90621,US,33.87319946,-117.9980011,2022-12-18 07:39:43
Taco Bell,241 E Valley Blvd,,Alhambra,CA,91801,US,34.07889938,-118.12000275,2022-12-18 07:39:43
Taco Bell,1214 Avenida Cesar Chavez,,Monterey Park,CA,91754,US,34.0381012,-118.14700317,2022-12-18 07:39:43
Taco Bell,5406 Whittier Blvd,,East Los Angeles,CA,90022,US,34.0196991,-118.15399933,2022-12-18 07:39:43
Taco Bell,768 Arrow Hwy,,Covina,CA,91722,US,34.10660172,-117.90499878,2022-12-18 07:39:43
Taco Bell,11905 Paramount Blvd,,Downey,CA,90242,US,33.93460083,-118.14399719,2022-12-18 06:25:13
Taco Bell,849 South Baldwin,,Arcadia,CA,91007,US,34.13029861,-118.05500031,2022-12-18 07:39:43
Taco Bell,7127 East Firestone Blvd,,Downey,CA,90241,US,33.94810104,-118.15599823,2022-12-18 06:25:13
Taco Bell,301 E Commonwealth Ave,,Fullerton,CA,92832,US,33.87060165,-117.91999817,2022-12-18 06:25:13
Taco Bell,10300 Alondra Blvd,,Bellflower,CA,90706,US,33.88909912,-118.11499786,2022-12-18 06:25:13
Taco Bell,3000 Yorba Linda Blvd,,Fullerton,CA,92831,US,33.88899994,-117.87400055,2022-12-18 06:25:13
Taco Bell,2588 W. Commonwealth Ave.,,Alhambra,CA,91801,US,34.08769989,-118.15200043,2022-12-18 07:39:43
Taco Bell,14625 Lakewood Blvd,,Paramount,CA,90723,US,33.90050125,-118.14299774,2022-12-18 06:25:13
Taco Bell,105 W Arrow Hwy,,Glendora,CA,91740,US,34.10689926,-117.86399841,2022-12-18 07:39:43
Taco Bell,800 E Alosta,,Azusa,CA,91702,US,34.12960052,-117.89299774,2022-12-18 07:39:43
Taco Bell,116 E Route 66,,Glendora,CA,91740,US,34.12870026,-117.86299896,2022-12-18 07:39:43
Taco Bell,1174 Yorba Linda Blvd.,,Placentia,CA,92870,US,33.88830185,-117.84300232,2022-12-18 06:25:17
Taco Bell,1401 Foothill Blvd.,,La Verne,CA,91750,US,34.11750031,-117.77600098,2022-12-18 07:39:43
Taco Bell,"14181 U.S. Highway 395, Building #C",,Victorville,CA,92392,US,34.50669861,-117.40000153,2022-12-18 06:25:17
Taco Bell,9619 Sheep Creek Road,,Phelan,CA,92371,US,34.42509842,-117.5719986,2022-12-18 06:25:18
Taco Bell,14071 Main Street,,Hesperia,CA,92345,US,34.42660141,-117.35800171,2022-12-18 06:25:17
Taco Bell,20185 Highway 18,,Apple Valley,CA,92307,US,34.52750015,-117.22299957,2022-12-18 06:25:17
Taco Bell,1500 east Main Street,,Barstow,CA,92311,US,34.89350128,-117.0039978,2022-12-16 15:27:53
Taco Bell,15357 Palmdale Rd,,Victorville,CA,92392,US,34.50690079,-117.32800293,2022-12-18 06:25:17
Taco Bell,1604 2nd St,,Beaumont,CA,92223,US,33.92359924,-116.9489975,2022-12-18 06:25:17
Taco Bell,2034 W. Ramsey St.,,Banning,CA,92220,US,33.92520142,-116.89900208,2022-12-18 06:25:17
Taco Bell,41170 Big Bear Blvd,,Big Bear Lake,CA,92315,US,34.24380112,-116.90399933,2022-12-16 15:27:38
Taco Bell,72083 Baker Blvd,,Baker,CA,92309,US,35.26440048,-116.0759964,2022-12-16 15:27:53
Taco Bell,4978 S Highway 95,,Fort Mohave,AZ,86426,US,35.01190186,-114.59799957,2022-12-18 06:25:22
Taco Bell,1562 Marina Blvd,,Bullhead City,AZ,86442,US,35.10039902,-114.59799957,2022-12-18 06:25:22
Taco Bell,1700 Main Street,,Morro Bay,CA,93442,US,35.37939835,-120.85500336,2022-12-18 06:25:13
Taco Bell,7385 El Camino Real,,Atascadero,CA,93422,US,35.48300171,-120.66000366,2022-12-18 06:25:15
Taco Bell,27494 Dana Circle,,Kettleman City,CA,93239,US,35.98929977,-119.95899963,2022-12-16 15:27:54
Taco Bell,535 W Tefft Street,,Nipomo,CA,93444,US,35.03620148,-120.48600006,2022-12-18 06:25:19
Taco Bell,1121 Kern St.,,Taft,CA,93268,US,35.14609909,-119.47000122,2022-12-16 15:27:55
Taco Bell,2415 Highway 46,,Wasco,CA,93280,US,35.60129929,-119.35299683,2022-12-18 06:25:14
Taco Bell,21959 Highway 46,,Lost Hills,CA,93249,US,35.61610031,-119.65799713,2022-12-16 15:27:53
Taco Bell,700 Woollomes Ave,,Delano,CA,93215,US,35.74649811,-119.2460022,2022-12-18 06:25:09
Taco Bell,1940 Cecil Ave,,Delano,CA,93215,US,35.77489853,-119.22899628,2022-12-18 06:25:09
Taco Bell,51 West Sherwood Ave,,McFarland,CA,93250,US,35.67419815,-119.22799683,2022-12-18 06:25:09
Taco Bell,551 Weedpatch Hwy,,Bakersfield,CA,93307,US,35.35010147,-118.91400146,2022-12-18 06:25:12
Taco Bell,6300 lake Isabella Blvd,,Lake Isabella,CA,93240,US,35.62689972,-118.47299957,2022-12-16 15:27:55
Taco Bell,240 W Fitgerald Ave Bldg. 6001,,Edwards,CA,93524,US,34.92620087,-117.93599701,2022-12-18 06:25:22
Taco Bell,1240 N China Lake Blvd,,Ridgecrest,CA,93555,US,35.64350128,-117.66999817,2022-12-16 15:27:38
Taco Bell,571 S Highway 160,,Pahrump,NV,89048,US,36.21139908,-115.98799896,2022-12-18 06:25:19
Taco Bell,8150 Blue Diamond Rd,,Las Vegas,NV,89178,US,36.02050018,-115.26899719,2022-12-18 06:25:15
Taco Bell,4880 W. Frias Avenue,,Las Vegas,NV,89141,US,36.00249863,-115.20700073,2022-12-18 06:54:30
Taco Bell,3581 St Rose Parkway,,Henderson,NV,89052,US,35.98749924,-115.13999939,2022-12-18 06:54:30
Taco Bell,11051 So. Eastern,,Henderson,NV,89012,US,35.99140167,-115.10099792,2022-12-18 06:54:30
Taco Bell,1810 E. Serene Avenue,,Las Vegas,NV,89123,US,36.02080154,-115.1269989,2022-12-18 06:54:30
Taco Bell,1491 W Horizon Ridge Pkwy,,Henderson,NV,89012,US,36.01959991,-115.0510025,2022-12-18 06:54:30
Taco Bell,730 East Horizon Drive,,Henderson,NV,89015,US,36.01259995,-114.96199799,2022-12-18 06:54:30
Taco Bell,1600 Nevada Hwy,,Boulder City,NV,89005,US,35.96960068,-114.85600281,2022-12-16 15:27:43
Taco Bell,600 Highway 95,,Bullhead City,AZ,86430,US,35.16730118,-114.56600189,2022-12-16 15:27:54
Taco Bell,321 Alvarado St,,Monterey,CA,93940,US,36.60029984,-121.89399719,2022-12-16 15:27:43
Taco Bell,1830 Fremont Blvd,,Seaside,CA,93955,US,36.61560059,-121.84200287,2022-12-07 05:32:52
Taco Bell,1405 Mission Street,,Santa Cruz,CA,95060,US,36.9673996,-122.03900146,2022-12-18 07:39:43
Taco Bell,2730 41st Ave,,Soquel,CA,95073,US,36.98619843,-121.96499634,2022-12-18 07:39:43
Taco Bell,840 Fifth Street,,Gonzales,CA,93926,US,36.51390076,-121.43599701,2022-12-16 15:27:54
Taco Bell,431 Tres Pinos Rd,,Hollister,CA,95023,US,36.83919907,-121.39499664,2022-12-18 06:25:17
Taco Bell,6 Broadway Circle,,King City,CA,93930,US,36.20270157,-121.13600159,2022-12-18 06:25:18
Taco Bell,451 E. Elm Avenue,,Coalinga,CA,93210,US,36.14339828,-120.35700226,2022-12-16 15:27:55
Taco Bell,46320 Panoche Rd.,,Firebaugh,CA,93622,US,36.63840103,-120.62599945,2022-12-16 15:27:46
Taco Bell,25101 Dorris Ave,,Coalinga,CA,93210,US,36.25379944,-120.2480011,2022-12-16 15:27:55
Taco Bell,780 Walnut Ave,,Greenfield,CA,93927,US,36.32789993,-121.2460022,2022-12-18 06:25:18
Taco Bell,1059 N Lemoore Ave,,Lemoore,CA,93245,US,36.31259918,-119.78099823,2022-12-18 06:25:17
Taco Bell,1796 W Lacey Blvd,,Hanford,CA,93230,US,36.32830048,-119.67500305,2022-12-18 06:25:17
Taco Bell,1718 N 11th Ave,,Hanford,CA,93230,US,36.34389877,-119.65499878,2022-12-18 06:25:17
Taco Bell,2417 E. Lacey Blvd,,Hanford,CA,93230,US,36.32759857,-119.60600281,2022-12-16 15:27:52
Taco Bell,500 Sierra Street,,Kingsburg,CA,93631,US,36.5177002,-119.56400299,2022-12-16 15:27:50
Taco Bell,725 N Alta,,Dinuba,CA,93618,US,36.55149841,-119.39499664,2022-12-16 15:27:50
Taco Bell,801 E Manning Ave,,Parlier,CA,93648,US,36.60520172,-119.52999878,2022-12-16 15:27:50
Taco Bell,1686 E Manning Ave,,Reedley,CA,93654,US,36.60440063,-119.43099976,2022-12-16 15:27:50
Taco Bell,2883 Highland Avenue,,Selma,CA,93662,US,36.57600021,-119.62999725,2022-12-16 15:27:52
Taco Bell,524 Academy,,Sanger,CA,93657,US,36.70849991,-119.55599976,2022-12-18 06:25:17
Taco Bell,450 W Olive Ave.,,Porterville,CA,93257,US,36.06620026,-119.02700043,2022-12-18 06:54:30
Taco Bell,1220 W Henderson,,Porterville,CA,93257,US,36.08069992,-119.04399872,2022-12-18 06:54:30
Taco Bell,1107 Visalia Rd,,Exeter,CA,93221,US,36.29759979,-119.15599823,2022-12-18 06:25:17
Taco Bell,202 North Highway 65,,Lindsay,CA,93247,US,36.20299911,-119.10299683,2022-12-18 06:54:30
Taco Bell,926 N Main Street,,Bishop,CA,93514,US,37.37060165,-118.39499664,2022-12-16 15:27:52
Taco Bell,6898 N. Hualapai Way,,Las Vegas,NV,89149,US,36.28609848,-115.31500244,2022-12-18 06:25:14
Taco Bell,8043 North Durango,,Las Vegas,NV,89131,US,36.30749893,-115.27899933,2022-12-18 06:25:14
Taco Bell,6520 N Buffalo,,Las Vegas,NV,89131,US,36.28020096,-115.26599884,2022-12-18 06:25:14
Taco Bell,4441 North Rancho,,Las Vegas,NV,89130,US,36.24110031,-115.23400116,2022-12-18 06:25:14
Taco Bell,2760 W Ann Rd,,North Las Vegas,NV,89031,US,36.26179886,-115.17900085,2022-12-18 06:25:14
Taco Bell,2118 W Craig Rd,,North Las Vegas,NV,89032,US,36.23989868,-115.17299652,2022-12-18 06:25:14
Taco Bell,355 W. Centennial Parkway,,North Las Vegas,NV,89031,US,36.27629852,-115.14499664,2022-12-18 06:25:14
Taco Bell,4310 E Craig Road,,Las Vegas,NV,89115,US,36.24069977,-115.08000183,2022-12-18 06:25:14
Taco Bell,3260 N Durango Rd,,Las Vegas,NV,89129,US,36.22040176,-115.27899933,2022-12-18 06:25:14
Taco Bell,3221 North Rancho Drive,,Las Vegas,NV,89108,US,36.2181015,-115.21299744,2022-12-18 06:25:14
Taco Bell,2175 E Cheyenne Ave,,North Las Vegas,NV,89030,US,36.2173996,-115.12000275,2022-12-18 06:25:14
Taco Bell,524 E Lake Mead Pkwy,,Henderson,NV,89015,US,36.04470062,-114.97499847,2022-12-18 06:54:30
Taco Bell,1284 W Warm Springs Rd,,Henderson,NV,89014,US,36.05659866,-115.04100037,2022-12-18 06:54:30
Taco Bell,6461 Boulder Hwy,,Las Vegas,NV,89122,US,36.08440018,-115.03199768,2022-12-18 06:54:30
Taco Bell,199 North Pecos,,Henderson,NV,89014,US,36.04230118,-115.09999847,2022-12-18 06:54:30
Taco Bell,2512 E Sunset Rd,,Las Vegas,NV,89120,US,36.07170105,-115.11599731,2022-12-18 06:54:30
Taco Bell,3415 E. Russell Road,,Las Vegas,NV,89120,US,36.08620071,-115.10099792,2022-12-18 06:54:30
Taco Bell,535 East Windmill,,Las Vegas,NV,89123,US,36.04230118,-115.15100098,2022-12-18 06:54:30
Taco Bell,2565 E Tropicana Ave,,Las Vegas,NV,89121,US,36.09980011,-115.11499786,2022-12-18 06:54:30
Taco Bell,3264 S. Nellis Blvd,,Las Vegas,NV,89122,US,36.13050079,-115.06500244,2022-12-18 06:54:30
Taco Bell,1109 E. Twain,,Las Vegas,NV,89109,US,36.12210083,-115.13899994,2022-12-18 06:54:30
Taco Bell,6540 E Lake Mead Blvd Ste 205,,Las Vegas,NV,89156,US,36.19609833,-115.02999878,2022-12-18 06:25:21
Taco Bell,401 N Nellis Blvd,,Las Vegas,NV,89110,US,36.17039871,-115.06199646,2022-12-18 06:54:30
Taco Bell,1275 South Lamb Blvd,,Las Vegas,NV,89104,US,36.15739822,-115.08100128,2022-12-18 06:54:30
Taco Bell,930 Seventh Street,,Novato,CA,94945,US,38.10710144,-122.57800293,2022-12-18 06:25:21
Taco Bell,406 East Washington Street,,Petaluma,CA,94952,US,38.23820114,-122.63600159,2022-12-16 15:27:54
Taco Bell,210 El Camino Real,,Millbrae,CA,94030,US,37.60110092,-122.38999939,2022-12-18 06:25:16
Taco Bell,5200 Coast Highway,,Pacifica,CA,94044,US,37.5970993,-122.5039978,2022-12-18 06:25:19
Taco Bell,1975 S El Camino Real,,San Mateo,CA,94403,US,37.54850006,-122.30999756,2022-12-18 06:25:16
Taco Bell,259 El Camino Real,,San Carlos,CA,94070,US,37.51139832,-122.26499939,2022-12-18 06:25:16
Taco Bell,500 E 4th Ave,,San Mateo,CA,94401,US,37.5658989,-122.31999969,2022-12-18 06:25:16
Taco Bell,2693 El Camino Real,,Redwood City,CA,94061,US,37.47219849,-122.21600342,2022-12-18 06:25:16
Taco Bell,1103 Veterans Blvd,,Redwood City,CA,94063,US,37.49000168,-122.22399902,2022-12-18 06:25:16
Taco Bell,465 El Camino Real,,South San Francisco,CA,94080,US,37.64690018,-122.42900085,2022-12-18 06:25:09
Taco Bell,199 Airport Boulevard,,South San Francisco,CA,94080,US,37.65359879,-122.40899658,2022-12-18 06:25:09
Taco Bell,1131 Triton Dr.,,Foster City,CA,94404,US,37.56359863,-122.27100372,2022-12-18 06:25:16
Taco Bell,797 Marina Blvd,,San Leandro,CA,94577,US,37.7140007,-122.15799713,2022-12-18 06:25:09
Taco Bell,1900 Webster,,Alameda,CA,94501,US,37.77859879,-122.27600098,2022-12-18 06:25:09
Taco Bell,630 Hegenberger Rd,,Oakland,CA,94621,US,37.74689865,-122.19599915,2022-12-18 06:25:09
Taco Bell,3535 35th Avenue,,Oakland,CA,94619,US,37.79370117,-122.2009964,2022-12-18 06:25:09
Taco Bell,6900 Bancroft Ave,,Oakland,CA,94605,US,37.76810074,-122.17900085,2022-12-18 06:25:09
Taco Bell,2255 Telegraph Avenue,,Oakland,CA,94612,US,37.81219864,-122.26899719,2022-12-18 06:25:09
Taco Bell,6035 Telegraph Road,,Oakland,CA,94609,US,37.8470993,-122.26100159,2022-12-18 06:25:09
Taco Bell,15016 E 14th Street,,San Leandro,CA,94578,US,37.70560074,-122.12799835,2022-12-18 06:25:09
Taco Bell,15501 Hesperian Blvd,,San Leandro,CA,94579,US,37.6896019,-122.12999725,2022-12-18 06:25:09
Taco Bell,710 Third Street,,San Francisco,CA,94107,US,37.77880096,-122.39299774,2022-12-18 06:25:09
Taco Bell,2528 Durant Ave,,Berkeley,CA,94704,US,37.86800003,-122.25800323,2022-12-18 06:25:09
Taco Bell,2815 Geneva Avenue,,Daly City,CA,94014,US,37.70690155,-122.41500092,2022-12-18 06:25:09
Taco Bell,691 Eddy Street,,San Francisco,CA,94109,US,37.78300095,-122.41899872,2022-12-18 06:25:09
Taco Bell,21600 Foothill Blvd,,Hayward,CA,94541,US,37.68289948,-122.08899689,2022-12-18 06:25:09
Taco Bell,410 Moraga Rd,,Moraga,CA,94556,US,37.85960007,-122.12400055,2022-12-18 06:25:09
Taco Bell,215 West Jackson Street,,Hayward,CA,94544,US,37.65259933,-122.08999634,2022-12-18 06:25:18
Taco Bell,233 Mount Hermon Rd,,Scotts Valley,CA,95066,US,37.04570007,-122.02799988,2022-12-18 07:39:43
Taco Bell,5538 Monterey Hwy,,San Jose,CA,95138,US,37.25350189,-121.79799652,2022-12-18 06:25:15
Taco Bell,170 Bernal Rd,,San Jose,CA,95119,US,37.22769928,-121.77600098,2022-12-18 06:25:15
Taco Bell,2779 Aborn Rd,,San Jose,CA,95121,US,37.31399918,-121.79299927,2022-12-18 06:25:15
Taco Bell,535 W Capitol Expressway,,San Jose,CA,95136,US,37.27479935,-121.85199738,2022-12-18 06:25:15
Taco Bell,2415 South King Road,,San Jose,CA,95122,US,37.32180023,-121.8259964,2022-12-18 06:54:30
Taco Bell,2284 Monterey Road,,San Jose,CA,95112,US,37.30239868,-121.86000061,2022-12-18 06:54:30
Taco Bell,1370 Blossom Hill Road,,San Jose,CA,95118,US,37.24509811,-121.88800049,2022-12-18 06:25:15
Taco Bell,720 Story Road,,San Jose,CA,95122,US,37.32870102,-121.85900116,2022-12-18 06:54:30
Taco Bell,5431 Camden Ave.,,San Jose,CA,95124,US,37.24000168,-121.90399933,2022-12-18 06:54:30
Taco Bell,2770 Alum Rock Ave,,San Jose,CA,95127,US,37.3628006,-121.83399963,2022-12-18 06:54:30
Taco Bell,19 Market St.,,San Jose,CA,95113,US,37.33580017,-121.89299774,2022-12-18 06:54:30
Taco Bell,16900 Monterey Rd,,Morgan Hill,CA,95037,US,37.12450027,-121.64900208,2022-12-16 15:27:51
Taco Bell,17000 Condit Road,,Morgan Hill,CA,95037,US,37.1330986,-121.62999725,2022-12-16 15:27:51
Taco Bell,2880 W Grant Line RD,,Tracy,CA,95304,US,37.75379944,-121.46900177,2022-12-18 06:25:22
Taco Bell,915 S. Tracy Blvd.,,Tracy,CA,95376,US,37.72359848,-121.43599701,2022-12-18 06:25:22
Taco Bell,2320 Tracy Blvd,,Tracy,CA,95376,US,37.75350189,-121.43499756,2022-12-18 06:25:22
Taco Bell,6005 Preston Avenue,,Livermore,CA,94551,US,37.70640182,-121.72200012,2022-12-18 06:25:21
Taco Bell,985 East Stanley Blvd,,Livermore,CA,94550,US,37.67829895,-121.78500366,2022-12-18 06:25:21
Taco Bell,1968 Daniels Street,,Manteca,CA,95337,US,37.78630066,-121.2519989,2022-12-18 06:25:19
Taco Bell,421 E Yosemite Ave,,Manteca,CA,95336,US,37.79759979,-121.21199799,2022-12-18 06:25:19
Taco Bell,16905 S Harlan Rd,,Lathrop,CA,95330,US,37.81029892,-121.29399872,2022-12-18 06:25:19
Taco Bell,201 Northgate Dr,,Manteca,CA,95336,US,37.81890106,-121.21900177,2022-12-18 06:25:19
Taco Bell,1421 W Colony Rd,,Ripon,CA,95366,US,37.75450134,-121.13999939,2022-12-18 06:25:19
Taco Bell,12780 South Highway 33,,Santa Nella,CA,95322,US,37.10369873,-121.01599884,2022-12-18 06:25:15
Taco Bell,1571 West Pacheco Blvd,,Los Banos,CA,93635,US,37.05649948,-120.87999725,2022-12-18 06:25:15
Taco Bell,1236 E Pacheco Blvd,,Los Banos,CA,93635,US,37.05730057,-120.83699799,2022-12-18 06:25:15
Taco Bell,801 Bellevue Road,,Atwater,CA,95301,US,37.3608017,-120.60199738,2022-12-16 15:27:49
Taco Bell,3140 G Street,,Merced,CA,95340,US,37.31900024,-120.46900177,2022-12-16 15:27:37
Taco Bell,1440 Martin Luther King Jr Way,,Merced,CA,95340,US,37.29769897,-120.48100281,2022-12-16 15:27:37
Taco Bell,339 Joseph Gallo Drive,,Livingston,CA,95334,US,37.38840103,-120.73799896,2022-12-18 06:25:17
Taco Bell,12170 Yosemite Blvd,,Waterford,CA,95386,US,37.63800049,-120.76699829,2022-12-18 06:25:14
Taco Bell,13770 Mono Way,,Sonora,CA,95370,US,37.97629929,-120.34400177,2022-12-16 15:27:52
Taco Bell,1420 Howard Rd,,Madera,CA,93637,US,36.95259857,-120.07499695,2022-12-18 06:25:21
Taco Bell,1420 E Yosemite Avenue,,Madera,CA,93638,US,36.97230148,-120.04499817,2022-12-18 06:25:21
Taco Bell,2350 W Cleveland Ave,,Madera,CA,93637,US,36.97439957,-120.08599854,2022-12-18 06:25:21
Taco Bell,HWY 99 & 12th Ave,,Madera,CA,93637,US,36.92499924,-120.02500153,2022-12-18 06:25:21
Taco Bell,18463 Road 23,,Madera,CA,93637,US,37.01789856,-120.12999725,2022-12-18 06:25:21
Taco Bell,40020 Hwy 49,,Oakhurst,CA,93644,US,37.33119965,-119.65699768,2022-12-16 15:27:52
Taco Bell,1194 S Cloverdale Boulevard,,Cloverdale,CA,95425,US,38.7840004,-123.01200104,2022-12-16 15:27:54
Taco Bell,180 Rowland Blvd,,Novato,CA,94945,US,38.09410095,-122.55500031,2022-12-18 06:25:21
Taco Bell,555 Second Street,,San Rafael,CA,94901,US,37.97029877,-122.51999664,2022-12-18 06:25:21
Taco Bell,1700 E Cotati Ave,,Rohnert Park,CA,94928,US,38.33599854,-122.6780014,2022-12-16 15:27:39
Taco Bell,5000 Redwood Dr,,Rohnert Park,CA,94928,US,38.36489868,-122.71399689,2022-12-18 06:25:22
Taco Bell,287 Westmoor Ave,,Daly City,CA,94015,US,37.68310165,-122.48799896,2022-12-18 06:25:18
Taco Bell,923 Hopper Avenue,,Santa Rosa,CA,95403,US,38.47969818,-122.73600006,2022-12-18 06:25:22
Taco Bell,1416 Farmers Ln,,Santa Rosa,CA,95405,US,38.43470001,-122.68699646,2022-12-18 06:25:22
Taco Bell,1835 Mendocino Ave,,Santa Rosa,CA,95401,US,38.457901,-122.71800232,2022-12-18 06:25:22
Taco Bell,2000 Santa Rosa Ave,,Santa Rosa,CA,95407,US,38.41820145,-122.71299744,2022-12-18 06:25:22
Taco Bell,19025 Sonoma Hwy.,,Sonoma,CA,95476,US,38.30239868,-122.47499847,2022-12-16 15:27:39
Taco Bell,771 Stony Point Rd,,Santa Rosa,CA,95407,US,38.42739868,-122.74199677,2022-12-18 06:25:22
Taco Bell,1429 Fulton Rd,,Santa Rosa,CA,95403,US,38.45470047,-122.76999664,2022-12-18 06:25:22
Taco Bell,3177 Jefferson Street,,Napa,CA,94558,US,38.31829834,-122.2990036,2022-12-18 06:25:14
Taco Bell,8900 Brooks Rd,,Windsor,CA,95492,US,38.54840088,-122.80599976,2022-12-18 06:25:22
Taco Bell,155 Soscol Ave,,Napa,CA,94559,US,38.28150177,-122.27500153,2022-12-18 06:25:14
Taco Bell,860 Gravenstein Hwy North,,Sebastopol,CA,95472,US,38.40909958,-122.83999634,2022-12-18 06:25:22
Taco Bell,30034 County Rd 8,,Dunnigan,CA,95937,US,38.86259842,-121.95200348,2022-12-16 15:27:39
Taco Bell,703 Matsumoto Lane,,Winters,CA,95694,US,38.52510071,-121.97000122,2022-12-18 06:25:21
Taco Bell,1221 Concord Avenue,,Concord,CA,94520,US,37.98080063,-122.05599976,2022-12-18 06:25:15
Taco Bell,1001 Willow Pass Court,,Concord,CA,94520,US,38.01480103,-121.99900055,2022-12-18 06:25:16
Taco Bell,2475 Olivera Rd.,,Concord,CA,94520,US,37.99549866,-122.03199768,2022-12-18 06:25:16
Taco Bell,4674 Clayton Road,,Concord,CA,94521,US,37.96120071,-121.98300171,2022-12-18 06:25:15
Taco Bell,2713 Willow Pass Road,,Bay Point,CA,94565,US,38.02669907,-121.94200134,2022-12-18 06:25:16
Taco Bell,500 Contra Costa Blvd,,Pleasant Hill,CA,94523,US,37.98130035,-122.06700134,2022-12-18 06:25:15
Taco Bell,1698 Monument Blvd,,Concord,CA,94520,US,37.95429993,-122.04199982,2022-12-18 06:25:15
Taco Bell,1700 Contra Costa Blvd,,Pleasant Hill,CA,94523,US,37.95320129,-122.05999756,2022-12-18 06:25:15
Taco Bell,1130 Arnold Dr.,,Martinez,CA,94553,US,37.99369812,-122.10299683,2022-12-18 06:25:16
Taco Bell,2400 N. Main St.,,Walnut Creek,CA,94596,US,37.91329956,-122.06500244,2022-12-18 06:25:15
Taco Bell,2111 Loveridge Rd,,Pittsburg,CA,94565,US,38.01050186,-121.8690033,2022-12-18 06:25:17
Taco Bell,4470 Century Blvd,,Pittsburg,CA,94565,US,38.0060997,-121.83799744,2022-12-18 06:25:17
Taco Bell,3501 Mt. Diablo Blvd,,Lafayette,CA,94549,US,37.89220047,-122.11699677,2022-12-18 06:25:09
Taco Bell,700 Military West,,Benicia,CA,94510,US,38.05870056,-122.16699982,2022-12-18 06:25:16
Taco Bell,1005 Highway 12,,Rio Vista,CA,94571,US,38.16199875,-121.6989975,2022-12-16 15:27:54
Taco Bell,5550 Martin Luther King Blvd,,Sacramento,CA,95820,US,38.52529907,-121.46499634,2022-12-18 06:25:14
Taco Bell,5641 Freeport Blvd.,,Sacramento,CA,95822,US,38.52289963,-121.4980011,2022-12-18 06:25:14
Taco Bell,356 Florin Rd,,Sacramento,CA,95831,US,38.50839996,-121.54199982,2022-12-18 06:25:14
Taco Bell,4244 Florin Rd,,Sacramento,CA,95823,US,38.49570084,-121.45600128,2022-12-18 06:25:14
Taco Bell,4651 Mack Rd,,Sacramento,CA,95823,US,38.47480011,-121.44799805,2022-12-18 06:25:14
Taco Bell,5919 Stockton Blvd,,Sacramento,CA,95824,US,38.51940155,-121.44000244,2022-12-18 06:25:14
Taco Bell,2431 Broadway,,Sacramento,CA,95818,US,38.55860138,-121.48100281,2022-12-18 06:25:14
Taco Bell,2246 Lake Washington Blvd.,,West Sacramento,CA,95691,US,38.55739975,-121.54000092,2022-12-18 06:25:14
Taco Bell,9146 HARBOUR POINT DR,,Elk Grove,CA,95758,US,38.42589951,-121.48100281,2022-12-18 06:25:18
Taco Bell,8170 Gerber Rd,,Sacramento,CA,95828,US,38.48130035,-121.40599823,2022-12-18 06:25:14
Taco Bell,5625 Folsom Blvd,,Sacramento,CA,95819,US,38.55830002,-121.43699646,2022-12-18 06:25:14
Taco Bell,7310 W. Stockton Blvd.,,Sacramento,CA,95823,US,38.45500183,-121.41799927,2022-12-18 06:25:14
Taco Bell,900 K Street,,Sacramento,CA,95814,US,38.57929993,-121.49500275,2022-12-18 06:25:14
Taco Bell,850 Harbor Blvd,,West Sacramento,CA,95691,US,38.57770157,-121.5490036,2022-12-18 06:25:14
Taco Bell,7590 La Riviera Drive,,Sacramento,CA,95826,US,38.5564003,-121.41000366,2022-12-18 06:25:14
Taco Bell,8170 Sheldon Road,,Elk Grove,CA,95758,US,38.43799973,-121.40899658,2022-12-18 06:25:14
Taco Bell,6704 Laguna Blvd,,Elk Grove,CA,95758,US,38.4231987,-121.42500305,2022-12-18 06:25:18
Taco Bell,776 Ikea Court,,West Sacramento,CA,95605,US,38.59090042,-121.5510025,2022-12-18 06:25:14
Taco Bell,8071 Elk Grove Florin Rd,,Sacramento,CA,95829,US,38.46459961,-121.3710022,2022-12-18 06:25:14
Taco Bell,1300 Howe Ave,,Sacramento,CA,95825,US,38.58940125,-121.41500092,2022-12-18 06:25:14
Taco Bell,1689 Arden Way,,Sacramento,CA,95815,US,38.60160065,-121.42900085,2022-12-18 06:25:14
Taco Bell,2434 Del Paso Blvd,,Sacramento,CA,95815,US,38.61230087,-121.4469986,2022-12-18 06:25:14
Taco Bell,10061 Bruceville Road,,Elk Grove,CA,95757,US,38.39390182,-121.41600037,2022-12-18 06:25:20
Taco Bell,8750 Elk Grove Blvd,,Elk Grove,CA,95624,US,38.40879822,-121.3789978,2022-12-18 06:25:20
Taco Bell,1801 Watt Ave,,Sacramento,CA,95825,US,38.59769821,-121.38400269,2022-12-18 06:25:14
Taco Bell,2525 Marconi Ave,,Sacramento,CA,95821,US,38.61819839,-121.40299988,2022-12-18 06:25:14
Taco Bell,3411 Bradshaw Road,,Sacramento,CA,95827,US,38.56159973,-121.33599854,2022-12-18 06:25:16
Taco Bell,4318 Marconi Ave,,Sacramento,CA,95821,US,38.61750031,-121.36299896,2022-12-18 06:25:16
Taco Bell,342 North Sunrise Blvd,,Roseville,CA,95661,US,38.75320053,-121.26000214,2022-12-18 06:25:17
Taco Bell,8433 Sierra College Blvd,,Granite Bay,CA,95746,US,38.74549866,-121.22599792,2022-12-18 06:25:14
Taco Bell,4340 Rocklin Rd,,Rocklin,CA,95677,US,38.78829956,-121.22599792,2022-12-18 06:25:14
Taco Bell,923 Pleasant Grove Blvd.,,Roseville,CA,95678,US,38.78229904,-121.28600311,2022-12-18 06:25:17
Taco Bell,7730 Sunrise Blvd.,,Citrus Heights,CA,95610,US,38.70669937,-121.27100372,2022-12-18 06:25:16
Taco Bell,5002 Foothills Blvd,,Roseville,CA,95747,US,38.76010132,-121.30999756,2022-12-18 06:25:17
Taco Bell,2365 Sunset Blvd,,Rocklin,CA,95765,US,38.79700089,-121.26399994,2022-12-18 06:25:17
Taco Bell,6975 Douglas Blvd,,Granite Bay,CA,95746,US,38.74380112,-121.17199707,2022-12-18 06:25:14
Taco Bell,6440 Antelope Rd,,Citrus Heights,CA,95621,US,38.7071991,-121.31300354,2022-12-18 06:25:16
Taco Bell,2041 Wildcat Blvd,,Rocklin,CA,95765,US,38.81890106,-121.27999878,2022-12-18 06:25:17
Taco Bell,8823 Greenback Lane,,Orangevale,CA,95662,US,38.67890167,-121.22899628,2022-12-18 06:25:14
Taco Bell,6158 Sunrise Mall,,Citrus Heights,CA,95610,US,38.67459869,-121.26899719,2022-12-18 06:25:16
Taco Bell,6079 Horseshoe Bar Road,,Loomis,CA,95650,US,38.81809998,-121.19000244,2022-12-18 07:39:43
Taco Bell,9382 Madison Ave,,Orangevale,CA,95662,US,38.67139816,-121.20300293,2022-12-18 06:25:14
Taco Bell,6031 Greenback Lane,,Citrus Heights,CA,95621,US,38.68050003,-121.3219986,2022-12-18 06:25:16
Taco Bell,6745 Madison Ave,,Fair Oaks,CA,95628,US,38.66379929,-121.30699921,2022-12-18 06:25:16
Taco Bell,702 E Bidwell St.,,Folsom,CA,95630,US,38.67200089,-121.16000366,2022-12-18 06:25:14
Taco Bell,4343 Sunrise Blvd,,Fair Oaks,CA,95628,US,38.64450073,-121.27300262,2022-12-18 06:25:16
Taco Bell,5210 Auburn Blvd,,Sacramento,CA,95841,US,38.66360092,-121.34300232,2022-12-18 06:25:16
Taco Bell,25002 Blue Ravine Rd,,Folsom,CA,95630,US,38.69079971,-121.12400055,2022-12-18 06:25:14
Taco Bell,8045 Watt Ave,,Antelope,CA,95843,US,38.7154007,-121.39299774,2022-12-18 06:25:16
Taco Bell,6741 Watt Ave,,North Highlands,CA,95660,US,38.6896019,-121.38300323,2022-12-18 06:25:14
Taco Bell,12220 Tributary Lane,,Rancho Cordova,CA,95670,US,38.63169861,-121.21900177,2022-12-18 06:25:14
Taco Bell,37 LINCOLN BLVD,,Lincoln,CA,95648,US,38.87120056,-121.29799652,2022-12-18 06:25:17
Taco Bell,4041 Manzanita Avenue,,Carmichael,CA,95608,US,38.6385994,-121.32800293,2022-12-18 06:25:16
Taco Bell,4915 Watt Ave,,North Highlands,CA,95660,US,38.65439987,-121.38300323,2022-12-18 06:25:14
Taco Bell,2545 Iron Point Rd,,Folsom,CA,95630,US,38.64649963,-121.11699677,2022-12-18 06:25:14
Taco Bell,4327 East Highway 88,,Stockton,CA,95215,US,37.98699951,-121.24700165,2022-12-18 06:25:14
Taco Bell,18780 N Highway 88,,Lockeford,CA,95237,US,38.15470123,-121.15499878,2022-12-18 06:25:13
Taco Bell,5025 S Highway 99,,Stockton,CA,95215,US,37.90330124,-121.22100067,2022-12-18 06:25:14
Taco Bell,1100 Yosemite Ave,,Escalon,CA,95320,US,37.79899979,-120.99900055,2022-12-18 06:25:21
Taco Bell,3714 East Hammer Lane,,Stockton,CA,95212,US,38.02080154,-121.26799774,2022-12-18 06:25:14
Taco Bell,627 N Wilson Way,,Stockton,CA,95205,US,37.96220016,-121.27400208,2022-12-18 06:25:14
Taco Bell,5115 West Lane,,Stockton,CA,95210,US,38.00289917,-121.29100037,2022-12-18 06:25:14
Taco Bell,1364 Business Park Dr,,Lodi,CA,95240,US,38.11759949,-121.2559967,2022-12-18 06:25:13
Taco Bell,45 E Harding Way,,Stockton,CA,95204,US,37.96770096,-121.29399872,2022-12-18 06:25:14
Taco Bell,200 E. Hwy 12,,Valley Springs,CA,95252,US,38.19250107,-120.8259964,2022-12-18 06:25:22
Taco Bell,864 W Charter Way,,Stockton,CA,95206,US,37.93610001,-121.30000305,2022-12-18 06:25:14
Taco Bell,532 W Hammer Lane,,Stockton,CA,95210,US,38.02069855,-121.31900024,2022-12-18 06:25:14
Taco Bell,608 W Lodi Ave,,Lodi,CA,95240,US,38.12990189,-121.28199768,2022-12-18 06:25:13
Taco Bell,901 East F Street,,Oakdale,CA,95361,US,37.76869965,-120.84100342,2022-12-18 06:25:14
Taco Bell,2380 W Kettleman Ln,,Lodi,CA,95242,US,38.11529922,-121.30400085,2022-12-18 06:25:20
Taco Bell,2407 West March Lane,,Stockton,CA,95207,US,37.98559952,-121.33699799,2022-12-18 06:25:14
Taco Bell,2421 Patterson Rd,,Riverbank,CA,95367,US,37.73279953,-120.95300293,2022-12-18 06:25:19
Taco Bell,1069 C St,,Galt,CA,95632,US,38.25350189,-121.29599762,2022-12-18 06:25:13
Taco Bell,541 S Highway 49,,Jackson,CA,95642,US,38.34289932,-120.76799774,2022-12-16 15:27:54
Taco Bell,1240 Broadway,,Placerville,CA,95667,US,38.73099899,-120.78600311,2022-12-16 15:27:38
Taco Bell,1060 Emerald Bay Road,,South Lake Tahoe,CA,96150,US,38.91199875,-120.0039978,2022-12-16 15:27:54
Taco Bell,2681 Lake Tahoe Blvd,,South Lake Tahoe,CA,96150,US,38.92839813,-119.98200226,2022-12-16 15:27:54
Taco Bell,1343 Highway 395 N,,Gardnerville,NV,89410,US,38.93629837,-119.73899841,2022-12-16 15:27:54
Taco Bell,695 S Main St,,Fort Bragg,CA,95437,US,39.43249893,-123.80599976,2022-12-16 15:27:53
Taco Bell,1500 S Main St,,Willits,CA,95490,US,39.39429855,-123.34899902,2022-12-16 15:27:55
Taco Bell,1285 Parallel Rd,,Lakeport,CA,95453,US,39.03239822,-122.9260025,2022-12-16 15:27:52
Taco Bell,1301 W Wood St,,Willows,CA,95988,US,39.52470016,-122.21199799,2022-12-16 15:27:39
Taco Bell,1183 Hoff Way,,Orland,CA,95963,US,39.75239944,-122.20700073,2022-12-18 06:25:20
Taco Bell,288 Vann Street,,Williams,CA,95987,US,39.15840149,-122.14099884,2022-12-16 15:27:53
Taco Bell,1503 Highway 99,,Gridley,CA,95948,US,39.3594017,-121.68800354,2022-12-18 07:39:43
Taco Bell,1483 Bridge Street,,Yuba City,CA,95991,US,39.13249969,-121.63899994,2022-12-16 15:27:54
Taco Bell,619 Colusa Ave,,Yuba City,CA,95991,US,39.14189911,-121.62200165,2022-12-16 15:27:54
Taco Bell,631 10th Street,,Marysville,CA,95901,US,39.14609909,-121.59400177,2022-12-16 15:27:54
Taco Bell,1044 North Beale Road,,Marysville,CA,95901,US,39.12590027,-121.57700348,2022-12-16 15:27:54
Taco Bell,2660 Olive Hwy,,Oroville,CA,95966,US,39.50500107,-121.54299927,2022-12-18 06:25:22
Taco Bell,2590 Feather River Blvd,,Oroville,CA,95965,US,39.49430084,-121.5719986,2022-12-18 07:39:43
Taco Bell,1895 Auburn Ravine Road,,Auburn,CA,95603,US,38.92399979,-121.05999756,2022-12-18 07:39:43
Taco Bell,1717 Grass Valley Hwy,,Auburn,CA,95603,US,38.92720032,-121.08699799,2022-12-18 07:39:43
Taco Bell,555 South Auburn Street,,Colfax,CA,95713,US,39.09320068,-120.9509964,2022-12-16 15:27:38
Taco Bell,109 Olympia Park Road,,Grass Valley,CA,95945,US,39.23540115,-121.03800201,2022-12-16 15:27:53
Taco Bell,12277 Deerfield,,Truckee,CA,96161,US,39.32289886,-120.22499847,2022-12-16 15:27:40
Taco Bell,5165 Mae Anne Avenue,,Reno,NV,89523,US,39.5340004,-119.86699677,2022-12-18 06:25:16
Taco Bell,10635 Stead Blvd,,Reno,NV,89509,US,39.62659836,-119.88300323,2022-12-18 06:25:16
Taco Bell,1110 N Hills Blvd,,Reno,NV,89506,US,39.60609818,-119.84200287,2022-12-18 06:25:16
Taco Bell,1075 W 4th St,,Reno,NV,89503,US,39.52659988,-119.82800293,2022-12-18 06:25:16
Taco Bell,4978 Sun Valley Blvd,,Sun Valley,NV,89433,US,39.57529831,-119.78099823,2022-12-18 06:25:16
Taco Bell,191 Disc Dr,,Spanish Springs,NV,89436,US,39.57569885,-119.73899841,2022-12-18 06:25:16
Taco Bell,601 E Moana Lane,,Reno,NV,89502,US,39.49340057,-119.78900146,2022-12-18 06:25:16
Taco Bell,200 East Prater Way,,Sparks,NV,89431,US,39.54230118,-119.73899841,2022-12-18 06:25:16
Taco Bell,6401 S Virginia,,Reno,NV,89511,US,39.46760178,-119.78500366,2022-12-18 06:25:16
Taco Bell,736 S Meadows Parkway,,Reno,NV,89521,US,39.43669891,-119.75800323,2022-12-18 06:25:16
Taco Bell,4539 N. Carson Street,,Carson City,NV,89706,US,39.19990158,-119.77799988,2022-12-18 07:39:43
Taco Bell,3117 Highway 50 East,,Carson City,NV,89701,US,39.17649841,-119.73300171,2022-12-18 07:39:43
Taco Bell,4050 S Carson St.,,Carson City,NV,89701,US,39.12950134,-119.77100372,2022-12-18 07:39:43
Taco Bell,2 Pine Cone Rd.,,Dayton,NV,89403,US,39.26190186,-119.58300018,2022-12-16 15:27:54
Taco Bell,1395 Big Fish Drive,,Sparks,NV,89431,US,39.53110123,-119.71600342,2022-12-18 06:25:16
Taco Bell,9725 Pyramid Way,,Sparks,NV,89441,US,39.63959885,-119.71099854,2022-12-18 06:25:18
Taco Bell,170 US Highway 95A S,,Fernley,NV,89408,US,39.60739899,-119.22200012,2022-12-16 15:27:49
Taco Bell,1280 W Williams Ave,,Fallon,NV,89406,US,39.47529984,-118.79199982,2022-12-16 15:27:54
Taco Bell,3080 Broadway,,Eureka,CA,95501,US,40.78030014,-124.18599701,2022-12-18 06:25:21
Taco Bell,1811 Central Ave,,McKinleyville,CA,95519,US,40.93840027,-124.10099792,2022-12-18 06:25:21
Taco Bell,1220 Market St,,Redding,CA,96001,US,40.5870018,-122.39199829,2022-12-18 06:25:22
Taco Bell,200 East Vista Drive,,Weed,CA,96094,US,41.39780045,-122.37799835,2022-12-16 15:27:38
Taco Bell,228 Main St,,Red Bluff,CA,96080,US,40.17399979,-122.23200226,2022-12-16 15:27:39
Taco Bell,2189 Solano Street,,Corning,CA,96021,US,39.9280014,-122.1969986,2022-12-16 15:27:39
Taco Bell,2770 Mcmurry,,Anderson,CA,96007,US,40.4530983,-122.29100037,2022-12-18 06:25:22
Taco Bell,2610 Hilltop Dr,,Redding,CA,96002,US,40.56959915,-122.35900116,2022-12-18 06:25:22
Taco Bell,1020 Old Alturas Rd,,Redding,CA,96003,US,40.58769989,-122.34600067,2022-12-18 06:25:22
Taco Bell,757 East Avenue,,Chico,CA,95926,US,39.76070023,-121.84899902,2022-12-16 15:27:39
Taco Bell,2398 Esplanade,,Chico,CA,95926,US,39.75529861,-121.86000061,2022-12-16 15:27:39
Taco Bell,2990 Main Street,,Susanville,CA,96130,US,40.40579987,-120.63300323,2022-12-16 15:27:38
Taco Bell,5859 Clark Road,,Paradise,CA,95969,US,39.75540161,-121.60800171,2022-12-18 06:25:21
Taco Bell,3475 Construction Way,,Winnemucca,NV,89445,US,40.95550156,-117.74900055,2022-12-13 15:34:08
Taco Bell,1750 Mountain City Highway,,Elko,NV,89801,US,40.8348999,-115.78700256,2022-12-16 15:27:52
Taco Bell,370 M Street,,Crescent City,CA,95531,US,41.75490189,-124.19400024,2022-12-16 15:27:54
Taco Bell,1804 Fort Jones Rd,,Yreka,CA,96097,US,41.70289993,-122.64399719,2022-12-16 15:27:54
Taco Bell,2290 Ashland Street,,Ashland,OR,97520,US,42.18519974,-122.67199707,2022-12-18 06:25:20
Taco Bell,5327 South 6th St,,Klamath Falls,OR,97603,US,42.20669937,-121.72299957,2022-12-18 06:25:09
Taco Bell,3118 Washburn Way,,Klamath Falls,OR,97603,US,42.19839859,-121.75800323,2022-12-18 06:25:09
Taco Bell,2100 West Main St,,Farmington,NM,87401,US,36.73239899,-108.23600006,2022-12-18 06:25:12
Taco Bell,2226 E Main Street,,Farmington,NM,87401,US,36.73920059,-108.1780014,2022-12-18 06:25:12
Taco Bell,4601 E Main St,,Farmington,NM,87402,US,36.7641983,-108.15299988,2022-12-18 06:25:12
Taco Bell,914 East 66th Avenue,,Gallup,NM,87301,US,35.52999878,-108.73000336,2022-12-16 15:27:55
Taco Bell,838 N Highway 491,,Gallup,NM,87301,US,35.53419876,-108.75900269,2022-12-16 15:27:55
Taco Bell,3095 West Historical Hwy 66,,Gallup,NM,87301,US,35.50759888,-108.81800079,2022-12-16 15:27:55
Taco Bell,2902 N Main,,Durango,CO,81301,US,37.29629898,-107.8730011,2022-12-18 06:25:20
Taco Bell,117 Paseo Del Canyon,,Taos,NM,87571,US,36.3791008,-105.58799744,2022-12-18 06:25:22
Taco Bell,1415 7th St,,Las Vegas,NM,87701,US,35.60499954,-105.22299957,2022-12-16 15:27:53
Taco Bell,212 Nevada Avenue,,Trinidad,CO,81082,US,37.1697998,-104.51000214,2022-12-16 15:27:52
Taco Bell,303 Hwy 87,,Dalhart,TX,79022,US,36.06290054,-102.51799774,2022-12-18 06:25:20
Taco Bell,108 E. Hwy 54,,Guymon,OK,73942,US,36.67829895,-101.47399902,2022-12-16 15:27:48
Taco Bell,1300 East Main Street,,Cortez,CO,81321,US,37.34909821,-108.56900024,2022-12-18 06:25:09
Taco Bell,2435 Main Street (Lot 4B-2),,Alamosa,CO,81101,US,37.47480011,-105.89299774,2022-12-18 06:25:10
Taco Bell,457-A US Highway 85-87,,Walsenburg,CO,81089,US,37.65420151,-104.79399872,2022-12-18 06:25:21
Taco Bell,1200 Southgate Place,,Pueblo,CO,81004,US,38.2173996,-104.6230011,2022-12-18 06:25:09
Taco Bell,301 E Abriendo Ave,,Pueblo,CO,81004,US,38.25759888,-104.6190033,2022-12-18 06:25:09
Taco Bell,1717 South Pueblo Blvd,,Pueblo,CO,81005,US,38.23720169,-104.66300201,2022-12-18 06:25:09
Taco Bell,703 N Santa Fe,,Pueblo,CO,81003,US,38.27370071,-104.60700226,2022-12-18 06:25:09
Taco Bell,27980 Frontage Rd,,La Junta,CO,81050,US,37.98939896,-103.56500244,2022-12-18 06:25:21
Taco Bell,674 Stafford Lane,,Delta,CO,81416,US,38.7519989,-108.05000305,2022-12-18 06:25:12
Taco Bell,2050 S Townsend,,Montrose,CO,81401,US,38.46390152,-107.86599731,2022-12-18 06:25:21
Taco Bell,310 West Tomichi,,Gunnison,CO,81230,US,38.5447998,-106.93000031,2022-12-18 06:25:14
Taco Bell,1112 Royal Gorge Blvd,,Canon City,CO,81212,US,38.44340134,-105.23200226,2022-12-18 06:25:22
Taco Bell,500 E Midland Ave,,Woodland Park,CO,80863,US,38.99420166,-105.05799866,2022-12-16 15:27:54
Taco Bell,99 S Mcculloch Blvd,,Pueblo West,CO,81007,US,38.33340073,-104.74500275,2022-12-18 06:25:09
Taco Bell,3333 North Elizabeth,,Pueblo,CO,81008,US,38.30459976,-104.61599731,2022-12-18 06:25:09
Taco Bell,6905 Mesa Ridge Parkway,,Fountain,CO,80817,US,38.71829987,-104.6989975,2022-12-18 06:25:21
Taco Bell,6610 Camden Blvd,,Fountain,CO,80817,US,38.74309921,-104.73699951,2022-12-18 06:25:21
Taco Bell,1750 N Powers Blvd,,Colorado Springs,CO,80915,US,38.85760117,-104.72100067,2022-12-18 06:25:20
Taco Bell,1030 E. Stewart Avenue,,Colorado Springs,CO,80914,US,38.8105011,-104.6760025,2022-12-18 06:25:20
Taco Bell,2935 Hancock Expressway,,Colorado Springs,CO,80916,US,38.78919983,-104.75700378,2022-12-18 06:25:20
Taco Bell,1030 Academy Park Loop,,Colorado Springs,CO,80910,US,38.81650162,-104.75700378,2022-12-18 06:25:20
Taco Bell,6425 Source Center Point,,Colorado Springs,CO,80923,US,38.92620087,-104.72100067,2022-12-18 06:25:20
Taco Bell,1380 N Academy Blvd,,Colorado Springs,CO,80909,US,38.85269928,-104.75800323,2022-12-18 06:25:20
Taco Bell,4195 N Academy,,Colorado Springs,CO,80918,US,38.89260101,-104.75700378,2022-12-18 06:25:20
Taco Bell,3436 Research Parkway Blvd,,Colorado Springs,CO,80920,US,38.9571991,-104.76799774,2022-12-18 06:25:20
Taco Bell,2395 6th Street,,Limon,CO,80828,US,39.2682991,-103.70500183,2022-12-18 06:25:14
Taco Bell,599 Kokopelli Blvd.,,Fruita,CO,81521,US,39.15119934,-108.73799896,2022-12-16 15:27:51
Taco Bell,736 Horizon Dr,,Grand Junction,CO,81506,US,39.11090088,-108.54000092,2022-12-18 06:25:22
Taco Bell,721 Smith Street,,Rifle,CO,81650,US,39.52230072,-107.77500153,2022-12-16 15:27:52
Taco Bell,2002 Grand Ave,,Glenwood Springs,CO,81601,US,39.5320015,-107.32499695,2022-12-18 06:25:19
Taco Bell,865 Summit Blvd.,,Frisco,CO,80443,US,39.58769989,-106.09400177,2022-12-16 15:27:38
Taco Bell,774 Chambers Avenue.,,Eagle,CO,81631,US,39.66249847,-106.81999969,2022-12-18 06:25:20
Taco Bell,30850 Stagecoach,,Evergreen,CO,80439,US,39.65209961,-105.34700012,2022-12-16 15:27:52
Taco Bell,1073 COUNTY HWY-308,,Dumont,CO,80436,US,39.76620102,-105.61399841,2022-12-16 15:27:54
Taco Bell,17764 S Golden Rd,,Golden,CO,80401,US,39.74169922,-105.19999695,2022-12-18 06:25:18
Taco Bell,3050 Youngfield St,,Wheat Ridge,CO,80215,US,39.75939941,-105.14199829,2022-12-18 06:54:30
Taco Bell,11701 W Colfax,,Lakewood,CO,80215,US,39.7405014,-105.12999725,2022-12-18 06:54:30
Taco Bell,13109 W. Alameda Pkwy,,Lakewood,CO,80228,US,39.69749832,-105.14499664,2022-12-18 06:25:18
Taco Bell,12480 West 64th Avenue,,Arvada,CO,80004,US,39.8125,-105.13999939,2022-12-18 06:54:30
Taco Bell,4795 Kipling St.,,Wheat Ridge,CO,80033,US,39.78340149,-105.11000061,2022-12-18 06:54:30
Taco Bell,1505 S Kipling Pkwy,,Lakewood,CO,80232,US,39.69029999,-105.11799622,2022-12-18 06:25:09
Taco Bell,9200 Ralston Road,,Arvada,CO,80002,US,39.80189896,-105.10099792,2022-12-18 06:54:30
Taco Bell,5260 Wadsworth Bypass,,Arvada,CO,80002,US,39.79230118,-105.08000183,2022-12-18 06:54:30
Taco Bell,5041 S. Jellison Way,,Littleton,CO,80123,US,39.62530136,-105.11000061,2022-12-18 06:25:19
Taco Bell,8760 Wadsworth Blvd.,,Arvada,CO,80003,US,39.85549927,-105.08100128,2022-12-18 06:54:30
Taco Bell,"8500 W Crestline, Unit 8",,Littleton,CO,80123,US,39.61719894,-105.09200287,2022-12-18 06:25:19
Taco Bell,441 Highway 105,,Monument,CO,80132,US,39.09479904,-104.86599731,2022-12-16 15:27:49
Taco Bell,502 Garden Of The Gods Road,,Colorado Springs,CO,80907,US,38.89720154,-104.83200073,2022-12-18 06:25:20
Taco Bell,95 Rio Grande,,Castle Rock,CO,80104,US,39.36420059,-104.86199951,2022-12-16 15:27:55
Taco Bell,2350 Legacy Circle,,Elizabeth,CO,80107,US,39.36100006,-104.62000275,2022-12-18 06:25:14
Taco Bell,25531 E. Smoky Hill Rd.,,Aurora,CO,80016,US,39.58860016,-104.68900299,2022-12-18 06:25:14
Taco Bell,10832 S Crossroads Dr,,Parker,CO,80138,US,39.52009964,-104.76599884,2022-12-18 06:25:14
Taco Bell,16950 E. Lincoln Avenue,,Parker,CO,80134,US,39.53359985,-104.79199982,2022-12-18 06:25:14
Taco Bell,21865 E. Quincy Ave.,,Aurora,CO,80018,US,39.63840103,-104.73699951,2022-12-18 06:25:14
Taco Bell,1065 S. 1st Street,,Bennett,CO,80102,US,39.74280167,-104.43399811,2022-12-16 15:27:37
Taco Bell,6350 South Parker Road,,Aurora,CO,80016,US,39.60139847,-104.80500031,2022-12-18 06:25:14
Taco Bell,16776 East Smokey Hill Road,,Aurora,CO,80015,US,39.62559891,-104.79199982,2022-12-18 06:25:14
Taco Bell,3554 S Tower Road,,Aurora,CO,80013,US,39.65179825,-104.77200317,2022-12-18 06:25:14
Taco Bell,16931 E Iliff,,Aurora,CO,80013,US,39.67380142,-104.79000092,2022-12-18 06:25:15
Taco Bell,15160 E Mississippi,,Aurora,CO,80012,US,39.69649887,-104.81099701,2022-12-18 06:25:15
Taco Bell,3259 South Parker Road,,Aurora,CO,80014,US,39.65919876,-104.84899902,2022-12-18 06:25:09
Taco Bell,14551 E Colfax,,Aurora,CO,80011,US,39.74060059,-104.81900024,2022-12-18 06:25:15
Taco Bell,1305 MAIN ST,,Fort Morgan,CO,80701,US,40.26240158,-103.80200195,2022-12-18 06:25:19
Taco Bell,898 West Hwy 40,,Vernal,UT,84078,US,40.45429993,-109.54499817,2022-12-13 15:34:06
Taco Bell,707 West Victory Way,,Craig,CO,81625,US,40.5143013,-107.55599976,2022-12-16 15:27:54
Taco Bell,625 Snapdragon Way,,Steamboat Springs,CO,80477,US,40.46039963,-106.81999969,2022-12-18 06:25:22
Taco Bell,3255 28th Street,,Boulder,CO,80301,US,40.03369904,-105.25900269,2022-12-18 06:25:14
Taco Bell,2450 Baseline Rd.,,Boulder,CO,80305,US,40.0,-105.26200104,2022-12-18 06:25:14
Taco Bell,4100 S. College Ave.,,Fort Collins,CO,80525,US,40.53010178,-105.07700348,2022-12-18 06:25:19
Taco Bell,1527 W. Elizabeth St.,,Fort Collins,CO,80521,US,40.57450104,-105.10399628,2022-12-18 06:25:19
Taco Bell,115 65th St.,,Loveland,CO,80538,US,40.45880127,-105.07800293,2022-12-18 06:25:19
Taco Bell,1101 Central Avenue Mall,,Fort Collins,CO,80521,US,40.57479858,-105.08499908,2022-12-18 06:25:19
Taco Bell,1530 S College Ave,,Fort Collins,CO,80524,US,40.56760025,-105.07700348,2022-12-18 06:25:19
Taco Bell,1330 Lincoln Ave,,Loveland,CO,80537,US,40.40650177,-105.07299805,2022-12-18 06:25:19
Taco Bell,1227 E. Magnolia,,Fort Collins,CO,80524,US,40.58430099,-105.05599976,2022-12-18 06:25:19
Taco Bell,4645 Weitzel Street,,Timnath,CO,80547,US,40.52399826,-104.98899841,2022-12-18 06:25:19
Taco Bell,1650 Foxtrail Dr.,,Loveland,CO,80538,US,40.40840149,-105.0019989,2022-12-18 06:25:19
Taco Bell,2220 Main Street,,Longmont,CO,80501,US,40.19839859,-105.10199738,2022-12-18 06:25:17
Taco Bell,8050 6th Street,,Wellington,CO,80549,US,40.70090103,-105.00099945,2022-12-18 06:25:19
Taco Bell,2010 Ken Pratt Blvd.,,Longmont,CO,80501,US,40.1446991,-105.1269989,2022-12-18 06:25:17
Taco Bell,33 E. Ken Pratt Blvd.,,Longmont,CO,80504,US,40.15309906,-105.09200287,2022-12-18 06:25:17
Taco Bell,3818 State Highway 119,,Longmont,CO,80501,US,40.16040039,-104.98300171,2022-12-18 06:25:17
Taco Bell,101 12th Street,,Windsor,CO,80550,US,40.47999954,-104.91999817,2022-12-18 06:25:19
Taco Bell,2005 W 136th Ave,,Broomfield,CO,80023,US,39.94340134,-105.01200104,2022-12-18 06:54:30
Taco Bell,2375 Highway 7,,Erie,CO,80516,US,40.0007019,-105.01499939,2022-12-18 06:25:14
Taco Bell,13732 Colorado Blvd.,,Thornton,CO,80602,US,39.94499969,-104.94000244,2022-12-18 06:25:14
Taco Bell,450 W South Boulder Rd,,Lafayette,CO,80026,US,39.98680115,-105.09500122,2022-12-18 06:25:14
Taco Bell,3901 E 120th Ave,,Thornton,CO,80233,US,39.91419983,-104.94200134,2022-12-18 06:54:30
Taco Bell,1220 E 1st Ave,,Broomfield,CO,80020,US,39.91460037,-105.05899811,2022-12-18 06:54:30
Taco Bell,550 Alter Street,,Broomfield,CO,80020,US,39.92440033,-105.09200287,2022-12-18 06:54:30
Taco Bell,555 W. 104th Ave.,,Northglenn,CO,80234,US,39.88539886,-104.9940033,2022-12-18 06:54:30
Taco Bell,1298 East 104th Avenue,,Thornton,CO,80233,US,39.88489914,-104.97100067,2022-12-18 06:54:30
Taco Bell,10402 S Belle Creek Drive,,Henderson,CO,80640,US,39.88660049,-104.88200378,2022-12-18 06:54:30
Taco Bell,50 Telep Ave,,Johnstown,CO,80534,US,40.33560181,-104.9240036,2022-12-18 06:25:19
Taco Bell,2450 8th Avenue,,Greeley,CO,80631,US,40.39799881,-104.69100189,2022-12-18 06:25:20
Taco Bell,3503 W 10th St,,Greeley,CO,80634,US,40.42309952,-104.73600006,2022-12-18 06:25:20
Taco Bell,4638 Centerplace Drive,,Greeley,CO,80634,US,40.3946991,-104.7559967,2022-12-18 06:25:20
Taco Bell,6910 10th St,,Greeley,CO,80634,US,40.42100143,-104.79199982,2022-12-18 06:25:20
Taco Bell,3950 Sunrise Hwy,,Seaford,NY,11783,US,40.67459869,-73.48670197,2022-12-18 06:25:19
Taco Bell,555 Long Beach Boulevard,,Long Beach,NY,11561,US,40.59120178,-73.65799713,2022-12-18 06:25:17
Taco Bell,1709 Merrick Rd,,Merrick,NY,11566,US,40.65399933,-73.55879974,2022-12-18 06:25:17
Taco Bell,215 W Merrick Rd,,Freeport,NY,11520,US,40.65240097,-73.58920288,2022-12-18 06:25:17
Taco Bell,3076 Long Beach Road,,Oceanside,NY,11572,US,40.63710022,-73.64040375,2022-12-18 06:25:17
Taco Bell,570 Sunrise Highway,,Rockville Centre,NY,11570,US,40.6568985,-73.63140106,2022-12-18 06:25:17
Taco Bell,13-5 Beach Channel Drive,,Far Rockaway,NY,11691,US,40.60549927,-73.75540161,2022-12-18 06:25:17
Taco Bell,547 Merrick Road,,Lynbrook,NY,11563,US,40.66019821,-73.68219757,2022-12-18 06:25:17
Taco Bell,325 Rockaway Turnpike,,Lawrence,NY,11559,US,40.62599945,-73.73639679,2022-12-18 06:25:17
Taco Bell,490 E Main Street,,Bay Shore,NY,11706,US,40.72790146,-73.22679901,2022-12-18 06:25:20
Taco Bell,1701 Sunrise Highway FC-6,,Bay Shore,NY,11706,US,40.73849869,-73.2460022,2022-12-18 06:25:20
Taco Bell,311 Montauk Hwy,,Lindenhurst,NY,11757,US,40.68370056,-73.35299683,2022-12-18 06:25:21
Taco Bell,16 W Suffolk Ave,,Central Islip,NY,11722,US,40.78990173,-73.20480347,2022-12-18 06:25:13
Taco Bell,1245 Deer Park Ave,,North Babylon,NY,11703,US,40.73820114,-73.32009888,2022-12-18 06:25:20
Taco Bell,85 E. Sunrise Hwy,,Lindenhurst,NY,11757,US,40.70119858,-73.37809753,2022-12-18 06:25:20
Taco Bell,1937 Deer Park Avenue,,Deer Park,NY,11729,US,40.76350021,-73.32959747,2022-12-18 06:25:20
Taco Bell,810 Broadway,,Amityville,NY,11701,US,40.70199966,-73.42739868,2022-12-18 06:25:19
Taco Bell,551 William Floyd Parkway,,Shirley,NY,11967,US,40.80009842,-72.86620331,2022-12-18 06:25:16
Taco Bell,2425 N. Ocean Ave.,,Farmingville,NY,11738,US,40.82949829,-73.02059937,2022-12-18 06:25:13
Taco Bell,1220 Old Country Rd - Rt 58,,Riverhead,NY,11901,US,40.93009949,-72.68180084,2022-12-13 15:34:07
Taco Bell,195 Route 12,,Groton,CT,06340,US,41.36780167,-72.06999969,2022-12-18 06:25:19
Taco Bell,404 Colman St,,New London,CT,06320,US,41.36000061,-72.11620331,2022-12-18 06:25:19
Taco Bell,4833 Nesconset Hwy,,Port Jefferson Station,NY,11776,US,40.91870117,-73.05249786,2022-12-18 06:25:13
Taco Bell,960 W Main St,,Branford,CT,06405,US,41.27590179,-72.83429718,2022-12-18 06:25:16
Taco Bell,355 Foxon Blvd,,New Haven,CT,06513,US,41.3205986,-72.87380219,2022-12-18 06:25:16
Taco Bell,2320 Dixwell Ave.,,Hamden,CT,06514,US,41.37210083,-72.91770172,2022-12-18 06:25:16
Taco Bell,19 Shunpike Road,,Cromwell,CT,06416,US,41.60010147,-72.67690277,2022-12-18 06:25:20
Taco Bell,1320 Main St,,Willimantic,CT,06226,US,41.71530151,-72.22940063,2022-12-16 15:27:55
Taco Bell,850 Hartford Turnpike,,Waterford,CT,06385,US,41.37440109,-72.14489746,2022-12-18 06:25:19
Taco Bell,139 Old Tower Hill Road,,Wakefield,RI,02879,US,41.44189835,-71.48310089,2022-12-13 15:34:07
Taco Bell,1403 South Delsea Dr,,Rio Grande,NJ,08242,US,39.01300049,-74.87390137,2022-12-16 15:27:38
Taco Bell,2338 N. Roosevelt Blvd,,Key West,FL,33040,US,24.56220055,-81.77719879,2022-12-18 06:25:19
Taco Bell,6501 Overseas Highway,,Marathon,FL,33050,US,24.71829987,-81.06719971,2022-12-16 15:27:55
Taco Bell,4201 Tamiami Trail,,Naples,FL,34112,US,26.11569977,-81.75509644,2022-12-18 06:25:20
Taco Bell,2424 Pine Ridge Road,,Naples,FL,34109,US,26.21069908,-81.76950073,2022-12-18 06:25:20
Taco Bell,8835 Davis Blvd,,Naples,FL,34116,US,26.15539932,-81.68900299,2022-12-18 06:25:20
Taco Bell,2482 Immokalee Rd,,Naples,FL,34110,US,26.27219963,-81.77120209,2022-12-18 06:25:21
Taco Bell,9000 Sage Ave,,Naples,FL,34120,US,26.27359962,-81.68360138,2022-12-18 06:25:21
Taco Bell,987 North Homestead Blvd,,Homestead,FL,33030,US,25.47979927,-80.46369934,2022-12-18 06:25:18
Taco Bell,232 S.E. 1st Avenue,,Florida City,FL,33034,US,25.44569969,-80.47530365,2022-12-18 06:25:18
Taco Bell,13610 SW 288th St,,Homestead,FL,33033,US,25.4993,-80.41130066,2022-12-18 06:25:18
Taco Bell,20925 S. Dixie Hwy,,Miami,FL,33186,US,25.57279968,-80.375,2022-12-18 06:25:18
Taco Bell,20505 S. Dixie Highway,,Miami,FL,33189,US,25.57719994,-80.37059784,2022-12-18 06:25:18
Taco Bell,13550 SW 152nd Street,,Miami,FL,33177,US,25.62599945,-80.4131012,2022-12-18 06:25:18
Taco Bell,18407 S Dixie Hwy,,Miami,FL,33157,US,25.59799957,-80.35420227,2022-12-18 06:25:20
Taco Bell,3190 Coral Way,,Miami,FL,33145,US,25.74990082,-80.24610138,2022-12-18 07:39:43
Taco Bell,2935 SW 32nd Ave,,Miami,FL,33133,US,25.7364006,-80.24569702,2022-12-18 07:39:43
Taco Bell,710 NW 37th Ave,,Miami,FL,33125,US,25.77960014,-80.25589752,2022-12-18 07:39:43
Taco Bell,966 SW 8th St,,Miami,FL,33130,US,25.76580048,-80.21029663,2022-12-18 07:39:43
Taco Bell,6740 SW Eighth St,,Miami,FL,33144,US,25.76300049,-80.30490112,2022-12-18 07:39:43
Taco Bell,6310 S Dixie Hwy,,Miami,FL,33143,US,25.69890022,-80.29579926,2022-12-18 07:39:43
Taco Bell,7745 SW 40th Street,,Miami,FL,33155,US,25.73329926,-80.32099915,2022-12-18 07:39:43
Taco Bell,8363 W Flagler Street,,Miami,FL,33144,US,25.76989937,-80.33100128,2022-12-18 07:39:43
Taco Bell,8699 SW 24th St,,Miami,FL,33155,US,25.74790001,-80.33529663,2022-12-18 07:39:43
Taco Bell,3595 Biscayne Blvd,,Miami,FL,33137,US,25.81030083,-80.18930054,2022-12-18 07:39:43
Taco Bell,785 East 9th Street,,Hialeah,FL,33010,US,25.83069992,-80.2664032,2022-12-18 07:39:43
Taco Bell,3750 NW 79th Ave,,Miami,FL,33166,US,25.80850029,-80.32559967,2022-12-18 07:39:43
Taco Bell,7900 NW 27th Ave,,Miami,FL,33147,US,25.84630013,-80.24349976,2022-12-18 07:39:43
Taco Bell,390 West 29th Street,,Hialeah,FL,33010,US,25.8477993,-80.29000092,2022-12-18 07:39:43
Taco Bell,630 NE 79th St,,Miami,FL,33138,US,25.84770012,-80.18370056,2022-12-18 06:25:09
Taco Bell,501 East 49th Street,,Hialeah,FL,33013,US,25.86739922,-80.2723999,2022-12-18 07:39:43
Taco Bell,7350 SW 117th Avenue,,Miami,FL,33183,US,25.6989994,-80.38249969,2022-12-18 07:39:43
Taco Bell,15295 S Dixie Hwy,,Miami,FL,33157,US,25.6284008,-80.34100342,2022-12-18 07:39:43
Taco Bell,2690 West 68th Street,,Hialeah,FL,33016,US,25.88400078,-80.33709717,2022-12-18 06:54:30
Taco Bell,11890 Hialeah Gardens Blvd,,Hialeah Gardens,FL,33018,US,25.88190079,-80.35379791,2022-12-18 06:54:30
Taco Bell,640 NE 125th Street,,North Miami,FL,33161,US,25.88999939,-80.18560028,2022-12-18 06:54:30
Taco Bell,1650 NE 163rd St,,North Miami Beach,FL,33162,US,25.92560005,-80.16619873,2022-12-18 06:54:30
Taco Bell,599 NE 167 St,,Miami,FL,33162,US,25.92889977,-80.18840027,2022-12-18 06:54:30
Taco Bell,1040 W Hallandale Beach Blvd,,Hallandale,FL,33009,US,25.98520088,-80.1631012,2022-12-18 06:54:30
Taco Bell,18885 NW 2nd Ave,,Miami,FL,33169,US,25.94750023,-80.20500183,2022-12-18 06:54:30
Taco Bell,300 North Park Road,,Hollywood,FL,33021,US,26.01250076,-80.17569733,2022-12-18 06:54:30
Taco Bell,17950 NW 27th Ave,,Miami Gardens,FL,33056,US,25.93860054,-80.24539948,2022-12-18 06:54:30
Taco Bell,2700 Stirling Road,,Hollywood,FL,33020,US,26.04800034,-80.15910339,2022-12-18 06:54:30
Taco Bell,6961 Miramar Parkway,,Miramar,FL,33023,US,25.98220062,-80.22660065,2022-12-18 06:54:30
